[
    {
        "id": "1101",
        "province_id": "11",
        "name": "KABUPATEN SIMEULUE",
        "alt_name": "KABUPATEN SIMEULUE",
        "latitude": 2.61667,
        "longitude": 96.08333,
        "nama": "KABUPATEN SIMEULUE",
        "doctype": "Kabupaten"
    },
    {
        "id": "1102",
        "province_id": "11",
        "name": "KABUPATEN ACEH SINGKIL",
        "alt_name": "KABUPATEN ACEH SINGKIL",
        "latitude": 2.41667,
        "longitude": 97.91667,
        "nama": "KABUPATEN ACEH SINGKIL",
        "doctype": "Kabupaten"
    },
    {
        "id": "1103",
        "province_id": "11",
        "name": "KABUPATEN ACEH SELATAN",
        "alt_name": "KABUPATEN ACEH SELATAN",
        "latitude": 3.16667,
        "longitude": 97.41667,
        "nama": "KABUPATEN ACEH SELATAN",
        "doctype": "Kabupaten"
    },
    {
        "id": "1104",
        "province_id": "11",
        "name": "KABUPATEN ACEH TENGGARA",
        "alt_name": "KABUPATEN ACEH TENGGARA",
        "latitude": 3.36667,
        "longitude": 97.7,
        "nama": "KABUPATEN ACEH TENGGARA",
        "doctype": "Kabupaten"
    },
    {
        "id": "1105",
        "province_id": "11",
        "name": "KABUPATEN ACEH TIMUR",
        "alt_name": "KABUPATEN ACEH TIMUR",
        "latitude": 4.63333,
        "longitude": 97.63333,
        "nama": "KABUPATEN ACEH TIMUR",
        "doctype": "Kabupaten"
    },
    {
        "id": "1106",
        "province_id": "11",
        "name": "KABUPATEN ACEH TENGAH",
        "alt_name": "KABUPATEN ACEH TENGAH",
        "latitude": 4.51,
        "longitude": 96.855,
        "nama": "KABUPATEN ACEH TENGAH",
        "doctype": "Kabupaten"
    },
    {
        "id": "1107",
        "province_id": "11",
        "name": "KABUPATEN ACEH BARAT",
        "alt_name": "KABUPATEN ACEH BARAT",
        "latitude": 4.45,
        "longitude": 96.16667,
        "nama": "KABUPATEN ACEH BARAT",
        "doctype": "Kabupaten"
    },
    {
        "id": "1108",
        "province_id": "11",
        "name": "KABUPATEN ACEH BESAR",
        "alt_name": "KABUPATEN ACEH BESAR",
        "latitude": 5.38333,
        "longitude": 95.51667,
        "nama": "KABUPATEN ACEH BESAR",
        "doctype": "Kabupaten"
    },
    {
        "id": "1109",
        "province_id": "11",
        "name": "KABUPATEN PIDIE",
        "alt_name": "KABUPATEN PIDIE",
        "latitude": 5.08,
        "longitude": 96.11,
        "nama": "KABUPATEN PIDIE",
        "doctype": "Kabupaten"
    },
    {
        "id": "1110",
        "province_id": "11",
        "name": "KABUPATEN BIREUEN",
        "alt_name": "KABUPATEN BIREUEN",
        "latitude": 5.08333,
        "longitude": 96.58333,
        "nama": "KABUPATEN BIREUEN",
        "doctype": "Kabupaten"
    },
    {
        "id": "1111",
        "province_id": "11",
        "name": "KABUPATEN ACEH UTARA",
        "alt_name": "KABUPATEN ACEH UTARA",
        "latitude": 4.97,
        "longitude": 97.14,
        "nama": "KABUPATEN ACEH UTARA",
        "doctype": "Kabupaten"
    },
    {
        "id": "1112",
        "province_id": "11",
        "name": "KABUPATEN ACEH BARAT DAYA",
        "alt_name": "KABUPATEN ACEH BARAT DAYA",
        "latitude": 3.83333,
        "longitude": 96.88333,
        "nama": "KABUPATEN ACEH BARAT DAYA",
        "doctype": "Kabupaten"
    },
    {
        "id": "1113",
        "province_id": "11",
        "name": "KABUPATEN GAYO LUES",
        "alt_name": "KABUPATEN GAYO LUES",
        "latitude": 3.95,
        "longitude": 97.39,
        "nama": "KABUPATEN GAYO LUES",
        "doctype": "Kabupaten"
    },
    {
        "id": "1114",
        "province_id": "11",
        "name": "KABUPATEN ACEH TAMIANG",
        "alt_name": "KABUPATEN ACEH TAMIANG",
        "latitude": 4.25,
        "longitude": 97.96667,
        "nama": "KABUPATEN ACEH TAMIANG",
        "doctype": "Kabupaten"
    },
    {
        "id": "1115",
        "province_id": "11",
        "name": "KABUPATEN NAGAN RAYA",
        "alt_name": "KABUPATEN NAGAN RAYA",
        "latitude": 4.16667,
        "longitude": 96.51667,
        "nama": "KABUPATEN NAGAN RAYA",
        "doctype": "Kabupaten"
    },
    {
        "id": "1116",
        "province_id": "11",
        "name": "KABUPATEN ACEH JAYA",
        "alt_name": "KABUPATEN ACEH JAYA",
        "latitude": 4.86,
        "longitude": 95.64,
        "nama": "KABUPATEN ACEH JAYA",
        "doctype": "Kabupaten"
    },
    {
        "id": "1117",
        "province_id": "11",
        "name": "KABUPATEN BENER MERIAH",
        "alt_name": "KABUPATEN BENER MERIAH",
        "latitude": 4.73015,
        "longitude": 96.86156,
        "nama": "KABUPATEN BENER MERIAH",
        "doctype": "Kabupaten"
    },
    {
        "id": "1118",
        "province_id": "11",
        "name": "KABUPATEN PIDIE JAYA",
        "alt_name": "KABUPATEN PIDIE JAYA",
        "latitude": 5.15,
        "longitude": 96.21667,
        "nama": "KABUPATEN PIDIE JAYA",
        "doctype": "Kabupaten"
    },
    {
        "id": "1171",
        "province_id": "11",
        "name": "KOTA BANDA ACEH",
        "alt_name": "KOTA BANDA ACEH",
        "latitude": 5.54167,
        "longitude": 95.33333,
        "nama": "KOTA BANDA ACEH",
        "doctype": "Kabupaten"
    },
    {
        "id": "1172",
        "province_id": "11",
        "name": "KOTA SABANG",
        "alt_name": "KOTA SABANG",
        "latitude": 5.82164,
        "longitude": 95.31086,
        "nama": "KOTA SABANG",
        "doctype": "Kabupaten"
    },
    {
        "id": "1173",
        "province_id": "11",
        "name": "KOTA LANGSA",
        "alt_name": "KOTA LANGSA",
        "latitude": 4.47,
        "longitude": 97.93,
        "nama": "KOTA LANGSA",
        "doctype": "Kabupaten"
    },
    {
        "id": "1174",
        "province_id": "11",
        "name": "KOTA LHOKSEUMAWE",
        "alt_name": "KOTA LHOKSEUMAWE",
        "latitude": 5.13333,
        "longitude": 97.06667,
        "nama": "KOTA LHOKSEUMAWE",
        "doctype": "Kabupaten"
    },
    {
        "id": "1175",
        "province_id": "11",
        "name": "KOTA SUBULUSSALAM",
        "alt_name": "KOTA SUBULUSSALAM",
        "latitude": 2.75,
        "longitude": 97.93333,
        "nama": "KOTA SUBULUSSALAM",
        "doctype": "Kabupaten"
    },
    {
        "id": "1201",
        "province_id": "12",
        "name": "KABUPATEN NIAS",
        "alt_name": "KABUPATEN NIAS",
        "latitude": 1.03333,
        "longitude": 97.76667,
        "nama": "KABUPATEN NIAS",
        "doctype": "Kabupaten"
    },
    {
        "id": "1202",
        "province_id": "12",
        "name": "KABUPATEN MANDAILING NATAL",
        "alt_name": "KABUPATEN MANDAILING NATAL",
        "latitude": 0.78378,
        "longitude": 99.25495,
        "nama": "KABUPATEN MANDAILING NATAL",
        "doctype": "Kabupaten"
    },
    {
        "id": "1203",
        "province_id": "12",
        "name": "KABUPATEN TAPANULI SELATAN",
        "alt_name": "KABUPATEN TAPANULI SELATAN",
        "latitude": 1.51667,
        "longitude": 99.25,
        "nama": "KABUPATEN TAPANULI SELATAN",
        "doctype": "Kabupaten"
    },
    {
        "id": "1204",
        "province_id": "12",
        "name": "KABUPATEN TAPANULI TENGAH",
        "alt_name": "KABUPATEN TAPANULI TENGAH",
        "latitude": 1.9,
        "longitude": 98.66667,
        "nama": "KABUPATEN TAPANULI TENGAH",
        "doctype": "Kabupaten"
    },
    {
        "id": "1205",
        "province_id": "12",
        "name": "KABUPATEN TAPANULI UTARA",
        "alt_name": "KABUPATEN TAPANULI UTARA",
        "latitude": 2.0028,
        "longitude": 99.0707,
        "nama": "KABUPATEN TAPANULI UTARA",
        "doctype": "Kabupaten"
    },
    {
        "id": "1206",
        "province_id": "12",
        "name": "KABUPATEN TOBA SAMOSIR",
        "alt_name": "KABUPATEN TOBA SAMOSIR",
        "latitude": 2.39793,
        "longitude": 99.21678,
        "nama": "KABUPATEN TOBA SAMOSIR",
        "doctype": "Kabupaten"
    },
    {
        "id": "1207",
        "province_id": "12",
        "name": "KABUPATEN LABUHAN BATU",
        "alt_name": "KABUPATEN LABUHAN BATU",
        "latitude": 2.26667,
        "longitude": 100.1,
        "nama": "KABUPATEN LABUHAN BATU",
        "doctype": "Kabupaten"
    },
    {
        "id": "1208",
        "province_id": "12",
        "name": "KABUPATEN ASAHAN",
        "alt_name": "KABUPATEN ASAHAN",
        "latitude": 2.78333,
        "longitude": 99.55,
        "nama": "KABUPATEN ASAHAN",
        "doctype": "Kabupaten"
    },
    {
        "id": "1209",
        "province_id": "12",
        "name": "KABUPATEN SIMALUNGUN",
        "alt_name": "KABUPATEN SIMALUNGUN",
        "latitude": 2.9,
        "longitude": 99,
        "nama": "KABUPATEN SIMALUNGUN",
        "doctype": "Kabupaten"
    },
    {
        "id": "1210",
        "province_id": "12",
        "name": "KABUPATEN DAIRI",
        "alt_name": "KABUPATEN DAIRI",
        "latitude": 2.86667,
        "longitude": 98.23333,
        "nama": "KABUPATEN DAIRI",
        "doctype": "Kabupaten"
    },
    {
        "id": "1211",
        "province_id": "12",
        "name": "KABUPATEN KARO",
        "alt_name": "KABUPATEN KARO",
        "latitude": 3.11667,
        "longitude": 98.3,
        "nama": "KABUPATEN KARO",
        "doctype": "Kabupaten"
    },
    {
        "id": "1212",
        "province_id": "12",
        "name": "KABUPATEN DELI SERDANG",
        "alt_name": "KABUPATEN DELI SERDANG",
        "latitude": 3.41667,
        "longitude": 98.66667,
        "nama": "KABUPATEN DELI SERDANG",
        "doctype": "Kabupaten"
    },
    {
        "id": "1213",
        "province_id": "12",
        "name": "KABUPATEN LANGKAT",
        "alt_name": "KABUPATEN LANGKAT",
        "latitude": 3.71667,
        "longitude": 98.21667,
        "nama": "KABUPATEN LANGKAT",
        "doctype": "Kabupaten"
    },
    {
        "id": "1214",
        "province_id": "12",
        "name": "KABUPATEN NIAS SELATAN",
        "alt_name": "KABUPATEN NIAS SELATAN",
        "latitude": 0.77,
        "longitude": 97.75,
        "nama": "KABUPATEN NIAS SELATAN",
        "doctype": "Kabupaten"
    },
    {
        "id": "1215",
        "province_id": "12",
        "name": "KABUPATEN HUMBANG HASUNDUTAN",
        "alt_name": "KABUPATEN HUMBANG HASUNDUTAN",
        "latitude": 2.26551,
        "longitude": 98.50376,
        "nama": "KABUPATEN HUMBANG HASUNDUTAN",
        "doctype": "Kabupaten"
    },
    {
        "id": "1216",
        "province_id": "12",
        "name": "KABUPATEN PAKPAK BHARAT",
        "alt_name": "KABUPATEN PAKPAK BHARAT",
        "latitude": 2.56667,
        "longitude": 98.28333,
        "nama": "KABUPATEN PAKPAK BHARAT",
        "doctype": "Kabupaten"
    },
    {
        "id": "1217",
        "province_id": "12",
        "name": "KABUPATEN SAMOSIR",
        "alt_name": "KABUPATEN SAMOSIR",
        "latitude": 2.64025,
        "longitude": 98.71525,
        "nama": "KABUPATEN SAMOSIR",
        "doctype": "Kabupaten"
    },
    {
        "id": "1218",
        "province_id": "12",
        "name": "KABUPATEN SERDANG BEDAGAI",
        "alt_name": "KABUPATEN SERDANG BEDAGAI",
        "latitude": 3.36667,
        "longitude": 99.03333,
        "nama": "KABUPATEN SERDANG BEDAGAI",
        "doctype": "Kabupaten"
    },
    {
        "id": "1219",
        "province_id": "12",
        "name": "KABUPATEN BATU BARA",
        "alt_name": "KABUPATEN BATU BARA",
        "latitude": 3.16166,
        "longitude": 99.52652,
        "nama": "KABUPATEN BATU BARA",
        "doctype": "Kabupaten"
    },
    {
        "id": "1220",
        "province_id": "12",
        "name": "KABUPATEN PADANG LAWAS UTARA",
        "alt_name": "KABUPATEN PADANG LAWAS UTARA",
        "latitude": 1.46011,
        "longitude": 99.67346,
        "nama": "KABUPATEN PADANG LAWAS UTARA",
        "doctype": "Kabupaten"
    },
    {
        "id": "1221",
        "province_id": "12",
        "name": "KABUPATEN PADANG LAWAS",
        "alt_name": "KABUPATEN PADANG LAWAS",
        "latitude": 1.44684,
        "longitude": 99.99207,
        "nama": "KABUPATEN PADANG LAWAS",
        "doctype": "Kabupaten"
    },
    {
        "id": "1222",
        "province_id": "12",
        "name": "KABUPATEN LABUHAN BATU SELATAN",
        "alt_name": "KABUPATEN LABUHAN BATU SELATAN",
        "latitude": 1.983,
        "longitude": 100.0976,
        "nama": "KABUPATEN LABUHAN BATU SELATAN",
        "doctype": "Kabupaten"
    },
    {
        "id": "1223",
        "province_id": "12",
        "name": "KABUPATEN LABUHAN BATU UTARA",
        "alt_name": "KABUPATEN LABUHAN BATU UTARA",
        "latitude": 2.33349,
        "longitude": 99.63776,
        "nama": "KABUPATEN LABUHAN BATU UTARA",
        "doctype": "Kabupaten"
    },
    {
        "id": "1224",
        "province_id": "12",
        "name": "KABUPATEN NIAS UTARA",
        "alt_name": "KABUPATEN NIAS UTARA",
        "latitude": 1.33037,
        "longitude": 97.31964,
        "nama": "KABUPATEN NIAS UTARA",
        "doctype": "Kabupaten"
    },
    {
        "id": "1225",
        "province_id": "12",
        "name": "KABUPATEN NIAS BARAT",
        "alt_name": "KABUPATEN NIAS BARAT",
        "latitude": 1.05966,
        "longitude": 97.58606,
        "nama": "KABUPATEN NIAS BARAT",
        "doctype": "Kabupaten"
    },
    {
        "id": "1271",
        "province_id": "12",
        "name": "KOTA SIBOLGA",
        "alt_name": "KOTA SIBOLGA",
        "latitude": 1.73333,
        "longitude": 98.8,
        "nama": "KOTA SIBOLGA",
        "doctype": "Kabupaten"
    },
    {
        "id": "1272",
        "province_id": "12",
        "name": "KOTA TANJUNG BALAI",
        "alt_name": "KOTA TANJUNG BALAI",
        "latitude": 2.95833,
        "longitude": 99.79167,
        "nama": "KOTA TANJUNG BALAI",
        "doctype": "Kabupaten"
    },
    {
        "id": "1273",
        "province_id": "12",
        "name": "KOTA PEMATANG SIANTAR",
        "alt_name": "KOTA PEMATANG SIANTAR",
        "latitude": 2.96667,
        "longitude": 99.05,
        "nama": "KOTA PEMATANG SIANTAR",
        "doctype": "Kabupaten"
    },
    {
        "id": "1274",
        "province_id": "12",
        "name": "KOTA TEBING TINGGI",
        "alt_name": "KOTA TEBING TINGGI",
        "latitude": 3.325,
        "longitude": 99.14167,
        "nama": "KOTA TEBING TINGGI",
        "doctype": "Kabupaten"
    },
    {
        "id": "1275",
        "province_id": "12",
        "name": "KOTA MEDAN",
        "alt_name": "KOTA MEDAN",
        "latitude": 3.65,
        "longitude": 98.66667,
        "nama": "KOTA MEDAN",
        "doctype": "Kabupaten"
    },
    {
        "id": "1276",
        "province_id": "12",
        "name": "KOTA BINJAI",
        "alt_name": "KOTA BINJAI",
        "latitude": 3.8,
        "longitude": 108.23333,
        "nama": "KOTA BINJAI",
        "doctype": "Kabupaten"
    },
    {
        "id": "1277",
        "province_id": "12",
        "name": "KOTA PADANG SIDEMPUAN",
        "alt_name": "KOTA PADANG SIDEMPUAN",
        "latitude": 1.37375,
        "longitude": 99.26843,
        "nama": "KOTA PADANG SIDEMPUAN",
        "doctype": "Kabupaten"
    },
    {
        "id": "1278",
        "province_id": "12",
        "name": "KOTA GUNUNGSITOLI",
        "alt_name": "KOTA GUNUNGSITOLI",
        "latitude": 1.32731,
        "longitude": 97.55018,
        "nama": "KOTA GUNUNGSITOLI",
        "doctype": "Kabupaten"
    },
    {
        "id": "1301",
        "province_id": "13",
        "name": "KABUPATEN KEPULAUAN MENTAWAI",
        "alt_name": "KABUPATEN KEPULAUAN MENTAWAI",
        "latitude": 1.98917,
        "longitude": 99.51889,
        "nama": "KABUPATEN KEPULAUAN MENTAWAI",
        "doctype": "Kabupaten"
    },
    {
        "id": "1302",
        "province_id": "13",
        "name": "KABUPATEN PESISIR SELATAN",
        "alt_name": "KABUPATEN PESISIR SELATAN",
        "latitude": -1.58333,
        "longitude": 100.85,
        "nama": "KABUPATEN PESISIR SELATAN",
        "doctype": "Kabupaten"
    },
    {
        "id": "1303",
        "province_id": "13",
        "name": "KABUPATEN SOLOK",
        "alt_name": "KABUPATEN SOLOK",
        "latitude": -0.96667,
        "longitude": 100.81667,
        "nama": "KABUPATEN SOLOK",
        "doctype": "Kabupaten"
    },
    {
        "id": "1304",
        "province_id": "13",
        "name": "KABUPATEN SIJUNJUNG",
        "alt_name": "KABUPATEN SIJUNJUNG",
        "latitude": -1.1827,
        "longitude": 101.6056,
        "nama": "KABUPATEN SIJUNJUNG",
        "doctype": "Kabupaten"
    },
    {
        "id": "1305",
        "province_id": "13",
        "name": "KABUPATEN TANAH DATAR",
        "alt_name": "KABUPATEN TANAH DATAR",
        "latitude": -0.4555,
        "longitude": 100.5771,
        "nama": "KABUPATEN TANAH DATAR",
        "doctype": "Kabupaten"
    },
    {
        "id": "1306",
        "province_id": "13",
        "name": "KABUPATEN PADANG PARIAMAN",
        "alt_name": "KABUPATEN PADANG PARIAMAN",
        "latitude": -0.6,
        "longitude": 100.28333,
        "nama": "KABUPATEN PADANG PARIAMAN",
        "doctype": "Kabupaten"
    },
    {
        "id": "1307",
        "province_id": "13",
        "name": "KABUPATEN AGAM",
        "alt_name": "KABUPATEN AGAM",
        "latitude": -0.25,
        "longitude": 100.16667,
        "nama": "KABUPATEN AGAM",
        "doctype": "Kabupaten"
    },
    {
        "id": "1308",
        "province_id": "13",
        "name": "KABUPATEN LIMA PULUH KOTA",
        "alt_name": "KABUPATEN LIMA PULUH KOTA",
        "latitude": -0.0168,
        "longitude": 100.5872,
        "nama": "KABUPATEN LIMA PULUH KOTA",
        "doctype": "Kabupaten"
    },
    {
        "id": "1309",
        "province_id": "13",
        "name": "KABUPATEN PASAMAN",
        "alt_name": "KABUPATEN PASAMAN",
        "latitude": 0.42503,
        "longitude": 99.94606,
        "nama": "KABUPATEN PASAMAN",
        "doctype": "Kabupaten"
    },
    {
        "id": "1310",
        "province_id": "13",
        "name": "KABUPATEN SOLOK SELATAN",
        "alt_name": "KABUPATEN SOLOK SELATAN",
        "latitude": -1.23333,
        "longitude": 101.417,
        "nama": "KABUPATEN SOLOK SELATAN",
        "doctype": "Kabupaten"
    },
    {
        "id": "1311",
        "province_id": "13",
        "name": "KABUPATEN DHARMASRAYA",
        "alt_name": "KABUPATEN DHARMASRAYA",
        "latitude": -1.05,
        "longitude": 101.367,
        "nama": "KABUPATEN DHARMASRAYA",
        "doctype": "Kabupaten"
    },
    {
        "id": "1312",
        "province_id": "13",
        "name": "KABUPATEN PASAMAN BARAT",
        "alt_name": "KABUPATEN PASAMAN BARAT",
        "latitude": 0.28152,
        "longitude": 99.51965,
        "nama": "KABUPATEN PASAMAN BARAT",
        "doctype": "Kabupaten"
    },
    {
        "id": "1371",
        "province_id": "13",
        "name": "KOTA PADANG",
        "alt_name": "KOTA PADANG",
        "latitude": -0.98333,
        "longitude": 100.45,
        "nama": "KOTA PADANG",
        "doctype": "Kabupaten"
    },
    {
        "id": "1372",
        "province_id": "13",
        "name": "KOTA SOLOK",
        "alt_name": "KOTA SOLOK",
        "latitude": -0.76667,
        "longitude": 100.61667,
        "nama": "KOTA SOLOK",
        "doctype": "Kabupaten"
    },
    {
        "id": "1373",
        "province_id": "13",
        "name": "KOTA SAWAH LUNTO",
        "alt_name": "KOTA SAWAH LUNTO",
        "latitude": -0.6,
        "longitude": 100.75,
        "nama": "KOTA SAWAH LUNTO",
        "doctype": "Kabupaten"
    },
    {
        "id": "1374",
        "province_id": "13",
        "name": "KOTA PADANG PANJANG",
        "alt_name": "KOTA PADANG PANJANG",
        "latitude": -0.45,
        "longitude": 100.43333,
        "nama": "KOTA PADANG PANJANG",
        "doctype": "Kabupaten"
    },
    {
        "id": "1375",
        "province_id": "13",
        "name": "KOTA BUKITTINGGI",
        "alt_name": "KOTA BUKITTINGGI",
        "latitude": -0.275,
        "longitude": 100.375,
        "nama": "KOTA BUKITTINGGI",
        "doctype": "Kabupaten"
    },
    {
        "id": "1376",
        "province_id": "13",
        "name": "KOTA PAYAKUMBUH",
        "alt_name": "KOTA PAYAKUMBUH",
        "latitude": -0.23333,
        "longitude": 100.63333,
        "nama": "KOTA PAYAKUMBUH",
        "doctype": "Kabupaten"
    },
    {
        "id": "1377",
        "province_id": "13",
        "name": "KOTA PARIAMAN",
        "alt_name": "KOTA PARIAMAN",
        "latitude": -0.62682,
        "longitude": 100.12047,
        "nama": "KOTA PARIAMAN",
        "doctype": "Kabupaten"
    },
    {
        "id": "1401",
        "province_id": "14",
        "name": "KABUPATEN KUANTAN SINGINGI",
        "alt_name": "KABUPATEN KUANTAN SINGINGI",
        "latitude": -0.47532,
        "longitude": 101.45857,
        "nama": "KABUPATEN KUANTAN SINGINGI",
        "doctype": "Kabupaten"
    },
    {
        "id": "1402",
        "province_id": "14",
        "name": "KABUPATEN INDRAGIRI HULU",
        "alt_name": "KABUPATEN INDRAGIRI HULU",
        "latitude": -0.55,
        "longitude": 102.31667,
        "nama": "KABUPATEN INDRAGIRI HULU",
        "doctype": "Kabupaten"
    },
    {
        "id": "1403",
        "province_id": "14",
        "name": "KABUPATEN INDRAGIRI HILIR",
        "alt_name": "KABUPATEN INDRAGIRI HILIR",
        "latitude": -0.33333,
        "longitude": 103.16667,
        "nama": "KABUPATEN INDRAGIRI HILIR",
        "doctype": "Kabupaten"
    },
    {
        "id": "1404",
        "province_id": "14",
        "name": "KABUPATEN PELALAWAN",
        "alt_name": "KABUPATEN PELALAWAN",
        "latitude": 0.20822,
        "longitude": 102.18607,
        "nama": "KABUPATEN PELALAWAN",
        "doctype": "Kabupaten"
    },
    {
        "id": "1405",
        "province_id": "14",
        "name": "KABUPATEN SIAK",
        "alt_name": "KABUPATEN SIAK",
        "latitude": 0.97453,
        "longitude": 102.01355,
        "nama": "KABUPATEN SIAK",
        "doctype": "Kabupaten"
    },
    {
        "id": "1406",
        "province_id": "14",
        "name": "KABUPATEN KAMPAR",
        "alt_name": "KABUPATEN KAMPAR",
        "latitude": 0.2344,
        "longitude": 101.2131,
        "nama": "KABUPATEN KAMPAR",
        "doctype": "Kabupaten"
    },
    {
        "id": "1407",
        "province_id": "14",
        "name": "KABUPATEN ROKAN HULU",
        "alt_name": "KABUPATEN ROKAN HULU",
        "latitude": 0.88333,
        "longitude": 100.48333,
        "nama": "KABUPATEN ROKAN HULU",
        "doctype": "Kabupaten"
    },
    {
        "id": "1408",
        "province_id": "14",
        "name": "KABUPATEN BENGKALIS",
        "alt_name": "KABUPATEN BENGKALIS",
        "latitude": 0.9838,
        "longitude": 102.5096,
        "nama": "KABUPATEN BENGKALIS",
        "doctype": "Kabupaten"
    },
    {
        "id": "1409",
        "province_id": "14",
        "name": "KABUPATEN ROKAN HILIR",
        "alt_name": "KABUPATEN ROKAN HILIR",
        "latitude": 2.16599,
        "longitude": 100.82514,
        "nama": "KABUPATEN ROKAN HILIR",
        "doctype": "Kabupaten"
    },
    {
        "id": "1410",
        "province_id": "14",
        "name": "KABUPATEN KEPULAUAN MERANTI",
        "alt_name": "KABUPATEN KEPULAUAN MERANTI",
        "latitude": 0.97488,
        "longitude": 102.69539,
        "nama": "KABUPATEN KEPULAUAN MERANTI",
        "doctype": "Kabupaten"
    },
    {
        "id": "1471",
        "province_id": "14",
        "name": "KOTA PEKANBARU",
        "alt_name": "KOTA PEKANBARU",
        "latitude": 0.53333,
        "longitude": 101.46667,
        "nama": "KOTA PEKANBARU",
        "doctype": "Kabupaten"
    },
    {
        "id": "1473",
        "province_id": "14",
        "name": "KOTA DUMAI",
        "alt_name": "KOTA DUMAI",
        "latitude": 1.61592,
        "longitude": 101.4917,
        "nama": "KOTA DUMAI",
        "doctype": "Kabupaten"
    },
    {
        "id": "1501",
        "province_id": "15",
        "name": "KABUPATEN KERINCI",
        "alt_name": "KABUPATEN KERINCI",
        "latitude": -2.03333,
        "longitude": 101.53333,
        "nama": "KABUPATEN KERINCI",
        "doctype": "Kabupaten"
    },
    {
        "id": "1502",
        "province_id": "15",
        "name": "KABUPATEN MERANGIN",
        "alt_name": "KABUPATEN MERANGIN",
        "latitude": -2.06933,
        "longitude": 102.13303,
        "nama": "KABUPATEN MERANGIN",
        "doctype": "Kabupaten"
    },
    {
        "id": "1503",
        "province_id": "15",
        "name": "KABUPATEN SAROLANGUN",
        "alt_name": "KABUPATEN SAROLANGUN",
        "latitude": -2.3,
        "longitude": 102.65,
        "nama": "KABUPATEN SAROLANGUN",
        "doctype": "Kabupaten"
    },
    {
        "id": "1504",
        "province_id": "15",
        "name": "KABUPATEN BATANG HARI",
        "alt_name": "KABUPATEN BATANG HARI",
        "latitude": -1.75,
        "longitude": 103.11667,
        "nama": "KABUPATEN BATANG HARI",
        "doctype": "Kabupaten"
    },
    {
        "id": "1505",
        "province_id": "15",
        "name": "KABUPATEN MUARO JAMBI",
        "alt_name": "KABUPATEN MUARO JAMBI",
        "latitude": -1.55214,
        "longitude": 103.82163,
        "nama": "KABUPATEN MUARO JAMBI",
        "doctype": "Kabupaten"
    },
    {
        "id": "1506",
        "province_id": "15",
        "name": "KABUPATEN TANJUNG JABUNG TIMUR",
        "alt_name": "KABUPATEN TANJUNG JABUNG TIMUR",
        "latitude": -1.13198,
        "longitude": 103.61755,
        "nama": "KABUPATEN TANJUNG JABUNG TIMUR",
        "doctype": "Kabupaten"
    },
    {
        "id": "1507",
        "province_id": "15",
        "name": "KABUPATEN TANJUNG JABUNG BARAT",
        "alt_name": "KABUPATEN TANJUNG JABUNG BARAT",
        "latitude": -1.1544,
        "longitude": 103.24402,
        "nama": "KABUPATEN TANJUNG JABUNG BARAT",
        "doctype": "Kabupaten"
    },
    {
        "id": "1508",
        "province_id": "15",
        "name": "KABUPATEN TEBO",
        "alt_name": "KABUPATEN TEBO",
        "latitude": -1.45576,
        "longitude": 102.37473,
        "nama": "KABUPATEN TEBO",
        "doctype": "Kabupaten"
    },
    {
        "id": "1509",
        "province_id": "15",
        "name": "KABUPATEN BUNGO",
        "alt_name": "KABUPATEN BUNGO",
        "latitude": -1.50222,
        "longitude": 101.96,
        "nama": "KABUPATEN BUNGO",
        "doctype": "Kabupaten"
    },
    {
        "id": "1571",
        "province_id": "15",
        "name": "KOTA JAMBI",
        "alt_name": "KOTA JAMBI",
        "latitude": -1.61667,
        "longitude": 103.65,
        "nama": "KOTA JAMBI",
        "doctype": "Kabupaten"
    },
    {
        "id": "1572",
        "province_id": "15",
        "name": "KOTA SUNGAI PENUH",
        "alt_name": "KOTA SUNGAI PENUH",
        "latitude": -2.10896,
        "longitude": 101.32175,
        "nama": "KOTA SUNGAI PENUH",
        "doctype": "Kabupaten"
    },
    {
        "id": "1601",
        "province_id": "16",
        "name": "KABUPATEN OGAN KOMERING ULU",
        "alt_name": "KABUPATEN OGAN KOMERING ULU",
        "latitude": -4.13333,
        "longitude": 104.03333,
        "nama": "KABUPATEN OGAN KOMERING ULU",
        "doctype": "Kabupaten"
    },
    {
        "id": "1602",
        "province_id": "16",
        "name": "KABUPATEN OGAN KOMERING ILIR",
        "alt_name": "KABUPATEN OGAN KOMERING ILIR",
        "latitude": -3.36667,
        "longitude": 105.36667,
        "nama": "KABUPATEN OGAN KOMERING ILIR",
        "doctype": "Kabupaten"
    },
    {
        "id": "1603",
        "province_id": "16",
        "name": "KABUPATEN MUARA ENIM",
        "alt_name": "KABUPATEN MUARA ENIM",
        "latitude": -4.2327,
        "longitude": 103.6141,
        "nama": "KABUPATEN MUARA ENIM",
        "doctype": "Kabupaten"
    },
    {
        "id": "1604",
        "province_id": "16",
        "name": "KABUPATEN LAHAT",
        "alt_name": "KABUPATEN LAHAT",
        "latitude": -3.7864,
        "longitude": 103.5428,
        "nama": "KABUPATEN LAHAT",
        "doctype": "Kabupaten"
    },
    {
        "id": "1605",
        "province_id": "16",
        "name": "KABUPATEN MUSI RAWAS",
        "alt_name": "KABUPATEN MUSI RAWAS",
        "latitude": -3.08333,
        "longitude": 103.2,
        "nama": "KABUPATEN MUSI RAWAS",
        "doctype": "Kabupaten"
    },
    {
        "id": "1606",
        "province_id": "16",
        "name": "KABUPATEN MUSI BANYU ASIN",
        "alt_name": "KABUPATEN MUSI BANYU ASIN",
        "latitude": -2.41667,
        "longitude": 103.75,
        "nama": "KABUPATEN MUSI BANYU ASIN",
        "doctype": "Kabupaten"
    },
    {
        "id": "1607",
        "province_id": "16",
        "name": "KABUPATEN BANYU ASIN",
        "alt_name": "KABUPATEN BANYU ASIN",
        "latitude": -2.88333,
        "longitude": 104.38306,
        "nama": "KABUPATEN BANYU ASIN",
        "doctype": "Kabupaten"
    },
    {
        "id": "1608",
        "province_id": "16",
        "name": "KABUPATEN OGAN KOMERING ULU SELATAN",
        "alt_name": "KABUPATEN OGAN KOMERING ULU SELATAN",
        "latitude": -4.65728,
        "longitude": 104.00659,
        "nama": "KABUPATEN OGAN KOMERING ULU SELATAN",
        "doctype": "Kabupaten"
    },
    {
        "id": "1609",
        "province_id": "16",
        "name": "KABUPATEN OGAN KOMERING ULU TIMUR",
        "alt_name": "KABUPATEN OGAN KOMERING ULU TIMUR",
        "latitude": -3.85679,
        "longitude": 104.75209,
        "nama": "KABUPATEN OGAN KOMERING ULU TIMUR",
        "doctype": "Kabupaten"
    },
    {
        "id": "1610",
        "province_id": "16",
        "name": "KABUPATEN OGAN ILIR",
        "alt_name": "KABUPATEN OGAN ILIR",
        "latitude": -3.43186,
        "longitude": 104.62727,
        "nama": "KABUPATEN OGAN ILIR",
        "doctype": "Kabupaten"
    },
    {
        "id": "1611",
        "province_id": "16",
        "name": "KABUPATEN EMPAT LAWANG",
        "alt_name": "KABUPATEN EMPAT LAWANG",
        "latitude": 3.22667,
        "longitude": 99.09256,
        "nama": "KABUPATEN EMPAT LAWANG",
        "doctype": "Kabupaten"
    },
    {
        "id": "1612",
        "province_id": "16",
        "name": "KABUPATEN PENUKAL ABAB LEMATANG ILIR",
        "alt_name": "KABUPATEN PENUKAL ABAB LEMATANG ILIR",
        "latitude": -3.21342,
        "longitude": 104.08722,
        "nama": "KABUPATEN PENUKAL ABAB LEMATANG ILIR",
        "doctype": "Kabupaten"
    },
    {
        "id": "1613",
        "province_id": "16",
        "name": "KABUPATEN MUSI RAWAS UTARA",
        "alt_name": "KABUPATEN MUSI RAWAS UTARA",
        "latitude": -2.48533,
        "longitude": 103.29346,
        "nama": "KABUPATEN MUSI RAWAS UTARA",
        "doctype": "Kabupaten"
    },
    {
        "id": "1671",
        "province_id": "16",
        "name": "KOTA PALEMBANG",
        "alt_name": "KOTA PALEMBANG",
        "latitude": -3,
        "longitude": 104.71667,
        "nama": "KOTA PALEMBANG",
        "doctype": "Kabupaten"
    },
    {
        "id": "1672",
        "province_id": "16",
        "name": "KOTA PRABUMULIH",
        "alt_name": "KOTA PRABUMULIH",
        "latitude": -3.46202,
        "longitude": 104.2229,
        "nama": "KOTA PRABUMULIH",
        "doctype": "Kabupaten"
    },
    {
        "id": "1673",
        "province_id": "16",
        "name": "KOTA PAGAR ALAM",
        "alt_name": "KOTA PAGAR ALAM",
        "latitude": -4.13055,
        "longitude": 103.26822,
        "nama": "KOTA PAGAR ALAM",
        "doctype": "Kabupaten"
    },
    {
        "id": "1674",
        "province_id": "16",
        "name": "KOTA LUBUK LINGGAU",
        "alt_name": "KOTA LUBUK LINGGAU",
        "latitude": -3.29308,
        "longitude": 102.85503,
        "nama": "KOTA LUBUK LINGGAU",
        "doctype": "Kabupaten"
    },
    {
        "id": "1701",
        "province_id": "17",
        "name": "KABUPATEN BENGKULU SELATAN",
        "alt_name": "KABUPATEN BENGKULU SELATAN",
        "latitude": -4.35,
        "longitude": 103.03333,
        "nama": "KABUPATEN BENGKULU SELATAN",
        "doctype": "Kabupaten"
    },
    {
        "id": "1702",
        "province_id": "17",
        "name": "KABUPATEN REJANG LEBONG",
        "alt_name": "KABUPATEN REJANG LEBONG",
        "latitude": -3.43333,
        "longitude": 102.71667,
        "nama": "KABUPATEN REJANG LEBONG",
        "doctype": "Kabupaten"
    },
    {
        "id": "1703",
        "province_id": "17",
        "name": "KABUPATEN BENGKULU UTARA",
        "alt_name": "KABUPATEN BENGKULU UTARA",
        "latitude": -3.33333,
        "longitude": 102.05,
        "nama": "KABUPATEN BENGKULU UTARA",
        "doctype": "Kabupaten"
    },
    {
        "id": "1704",
        "province_id": "17",
        "name": "KABUPATEN KAUR",
        "alt_name": "KABUPATEN KAUR",
        "latitude": -4.78179,
        "longitude": 103.36109,
        "nama": "KABUPATEN KAUR",
        "doctype": "Kabupaten"
    },
    {
        "id": "1705",
        "province_id": "17",
        "name": "KABUPATEN SELUMA",
        "alt_name": "KABUPATEN SELUMA",
        "latitude": -3.96644,
        "longitude": 102.47429,
        "nama": "KABUPATEN SELUMA",
        "doctype": "Kabupaten"
    },
    {
        "id": "1706",
        "province_id": "17",
        "name": "KABUPATEN MUKOMUKO",
        "alt_name": "KABUPATEN MUKOMUKO",
        "latitude": -3.07438,
        "longitude": 101.54766,
        "nama": "KABUPATEN MUKOMUKO",
        "doctype": "Kabupaten"
    },
    {
        "id": "1707",
        "province_id": "17",
        "name": "KABUPATEN LEBONG",
        "alt_name": "KABUPATEN LEBONG",
        "latitude": -3.24278,
        "longitude": 102.3349,
        "nama": "KABUPATEN LEBONG",
        "doctype": "Kabupaten"
    },
    {
        "id": "1708",
        "province_id": "17",
        "name": "KABUPATEN KEPAHIANG",
        "alt_name": "KABUPATEN KEPAHIANG",
        "latitude": -3.60194,
        "longitude": 102.56424,
        "nama": "KABUPATEN KEPAHIANG",
        "doctype": "Kabupaten"
    },
    {
        "id": "1709",
        "province_id": "17",
        "name": "KABUPATEN BENGKULU TENGAH",
        "alt_name": "KABUPATEN BENGKULU TENGAH",
        "latitude": -3.20679,
        "longitude": 102.12616,
        "nama": "KABUPATEN BENGKULU TENGAH",
        "doctype": "Kabupaten"
    },
    {
        "id": "1771",
        "province_id": "17",
        "name": "KOTA BENGKULU",
        "alt_name": "KOTA BENGKULU",
        "latitude": -3.81667,
        "longitude": 102.31667,
        "nama": "KOTA BENGKULU",
        "doctype": "Kabupaten"
    },
    {
        "id": "1801",
        "province_id": "18",
        "name": "KABUPATEN LAMPUNG BARAT",
        "alt_name": "KABUPATEN LAMPUNG BARAT",
        "latitude": -5.14904,
        "longitude": 104.19309,
        "nama": "KABUPATEN LAMPUNG BARAT",
        "doctype": "Kabupaten"
    },
    {
        "id": "1802",
        "province_id": "18",
        "name": "KABUPATEN TANGGAMUS",
        "alt_name": "KABUPATEN TANGGAMUS",
        "latitude": -5.38508,
        "longitude": 104.62349,
        "nama": "KABUPATEN TANGGAMUS",
        "doctype": "Kabupaten"
    },
    {
        "id": "1803",
        "province_id": "18",
        "name": "KABUPATEN LAMPUNG SELATAN",
        "alt_name": "KABUPATEN LAMPUNG SELATAN",
        "latitude": -5.4531,
        "longitude": 104.9877,
        "nama": "KABUPATEN LAMPUNG SELATAN",
        "doctype": "Kabupaten"
    },
    {
        "id": "1804",
        "province_id": "18",
        "name": "KABUPATEN LAMPUNG TIMUR",
        "alt_name": "KABUPATEN LAMPUNG TIMUR",
        "latitude": -5.10273,
        "longitude": 105.68003,
        "nama": "KABUPATEN LAMPUNG TIMUR",
        "doctype": "Kabupaten"
    },
    {
        "id": "1805",
        "province_id": "18",
        "name": "KABUPATEN LAMPUNG TENGAH",
        "alt_name": "KABUPATEN LAMPUNG TENGAH",
        "latitude": -4.86667,
        "longitude": 105.26667,
        "nama": "KABUPATEN LAMPUNG TENGAH",
        "doctype": "Kabupaten"
    },
    {
        "id": "1806",
        "province_id": "18",
        "name": "KABUPATEN LAMPUNG UTARA",
        "alt_name": "KABUPATEN LAMPUNG UTARA",
        "latitude": -4.81667,
        "longitude": 104.8,
        "nama": "KABUPATEN LAMPUNG UTARA",
        "doctype": "Kabupaten"
    },
    {
        "id": "1807",
        "province_id": "18",
        "name": "KABUPATEN WAY KANAN",
        "alt_name": "KABUPATEN WAY KANAN",
        "latitude": -4.44705,
        "longitude": 104.52753,
        "nama": "KABUPATEN WAY KANAN",
        "doctype": "Kabupaten"
    },
    {
        "id": "1808",
        "province_id": "18",
        "name": "KABUPATEN TULANGBAWANG",
        "alt_name": "KABUPATEN TULANGBAWANG",
        "latitude": -4.20604,
        "longitude": 105.57999,
        "nama": "KABUPATEN TULANGBAWANG",
        "doctype": "Kabupaten"
    },
    {
        "id": "1809",
        "province_id": "18",
        "name": "KABUPATEN PESAWARAN",
        "alt_name": "KABUPATEN PESAWARAN",
        "latitude": -5.4298,
        "longitude": 105.17899,
        "nama": "KABUPATEN PESAWARAN",
        "doctype": "Kabupaten"
    },
    {
        "id": "1810",
        "province_id": "18",
        "name": "KABUPATEN PRINGSEWU",
        "alt_name": "KABUPATEN PRINGSEWU",
        "latitude": -5.42211,
        "longitude": 104.93454,
        "nama": "KABUPATEN PRINGSEWU",
        "doctype": "Kabupaten"
    },
    {
        "id": "1811",
        "province_id": "18",
        "name": "KABUPATEN MESUJI",
        "alt_name": "KABUPATEN MESUJI",
        "latitude": -4.0439,
        "longitude": 105.4013,
        "nama": "KABUPATEN MESUJI",
        "doctype": "Kabupaten"
    },
    {
        "id": "1812",
        "province_id": "18",
        "name": "KABUPATEN TULANG BAWANG BARAT",
        "alt_name": "KABUPATEN TULANG BAWANG BARAT",
        "latitude": -4.43975,
        "longitude": 105.0444,
        "nama": "KABUPATEN TULANG BAWANG BARAT",
        "doctype": "Kabupaten"
    },
    {
        "id": "1813",
        "province_id": "18",
        "name": "KABUPATEN PESISIR BARAT",
        "alt_name": "KABUPATEN PESISIR BARAT",
        "latitude": -5.19323,
        "longitude": 103.93976,
        "nama": "KABUPATEN PESISIR BARAT",
        "doctype": "Kabupaten"
    },
    {
        "id": "1871",
        "province_id": "18",
        "name": "KOTA BANDAR LAMPUNG",
        "alt_name": "KOTA BANDAR LAMPUNG",
        "latitude": -5.41667,
        "longitude": 105.25,
        "nama": "KOTA BANDAR LAMPUNG",
        "doctype": "Kabupaten"
    },
    {
        "id": "1872",
        "province_id": "18",
        "name": "KOTA METRO",
        "alt_name": "KOTA METRO",
        "latitude": -5.11856,
        "longitude": 105.29949,
        "nama": "KOTA METRO",
        "doctype": "Kabupaten"
    },
    {
        "id": "1901",
        "province_id": "19",
        "name": "KABUPATEN BANGKA",
        "alt_name": "KABUPATEN BANGKA",
        "latitude": -1.91667,
        "longitude": 105.93333,
        "nama": "KABUPATEN BANGKA",
        "doctype": "Kabupaten"
    },
    {
        "id": "1902",
        "province_id": "19",
        "name": "KABUPATEN BELITUNG",
        "alt_name": "KABUPATEN BELITUNG",
        "latitude": -2.86667,
        "longitude": 107.7,
        "nama": "KABUPATEN BELITUNG",
        "doctype": "Kabupaten"
    },
    {
        "id": "1903",
        "province_id": "19",
        "name": "KABUPATEN BANGKA BARAT",
        "alt_name": "KABUPATEN BANGKA BARAT",
        "latitude": -1.95839,
        "longitude": 105.53741,
        "nama": "KABUPATEN BANGKA BARAT",
        "doctype": "Kabupaten"
    },
    {
        "id": "1904",
        "province_id": "19",
        "name": "KABUPATEN BANGKA TENGAH",
        "alt_name": "KABUPATEN BANGKA TENGAH",
        "latitude": -2.33989,
        "longitude": 106.1142,
        "nama": "KABUPATEN BANGKA TENGAH",
        "doctype": "Kabupaten"
    },
    {
        "id": "1905",
        "province_id": "19",
        "name": "KABUPATEN BANGKA SELATAN",
        "alt_name": "KABUPATEN BANGKA SELATAN",
        "latitude": -2.66803,
        "longitude": 106.01257,
        "nama": "KABUPATEN BANGKA SELATAN",
        "doctype": "Kabupaten"
    },
    {
        "id": "1906",
        "province_id": "19",
        "name": "KABUPATEN BELITUNG TIMUR",
        "alt_name": "KABUPATEN BELITUNG TIMUR",
        "latitude": -2.9627,
        "longitude": 108.15216,
        "nama": "KABUPATEN BELITUNG TIMUR",
        "doctype": "Kabupaten"
    },
    {
        "id": "1971",
        "province_id": "19",
        "name": "KOTA PANGKAL PINANG",
        "alt_name": "KOTA PANGKAL PINANG",
        "latitude": -2.13333,
        "longitude": 106.13333,
        "nama": "KOTA PANGKAL PINANG",
        "doctype": "Kabupaten"
    },
    {
        "id": "2101",
        "province_id": "21",
        "name": "KABUPATEN KARIMUN",
        "alt_name": "KABUPATEN KARIMUN",
        "latitude": 0.80764,
        "longitude": 103.41911,
        "nama": "KABUPATEN KARIMUN",
        "doctype": "Kabupaten"
    },
    {
        "id": "2102",
        "province_id": "21",
        "name": "KABUPATEN BINTAN",
        "alt_name": "KABUPATEN BINTAN",
        "latitude": 0.95,
        "longitude": 104.61944,
        "nama": "KABUPATEN BINTAN",
        "doctype": "Kabupaten"
    },
    {
        "id": "2103",
        "province_id": "21",
        "name": "KABUPATEN NATUNA",
        "alt_name": "KABUPATEN NATUNA",
        "latitude": 4.71417,
        "longitude": 107.97639,
        "nama": "KABUPATEN NATUNA",
        "doctype": "Kabupaten"
    },
    {
        "id": "2104",
        "province_id": "21",
        "name": "KABUPATEN LINGGA",
        "alt_name": "KABUPATEN LINGGA",
        "latitude": 0.2,
        "longitude": 104.61667,
        "nama": "KABUPATEN LINGGA",
        "doctype": "Kabupaten"
    },
    {
        "id": "2105",
        "province_id": "21",
        "name": "KABUPATEN KEPULAUAN ANAMBAS",
        "alt_name": "KABUPATEN KEPULAUAN ANAMBAS",
        "latitude": 3,
        "longitude": 106,
        "nama": "KABUPATEN KEPULAUAN ANAMBAS",
        "doctype": "Kabupaten"
    },
    {
        "id": "2171",
        "province_id": "21",
        "name": "KOTA BATAM",
        "alt_name": "KOTA BATAM",
        "latitude": 1.05211,
        "longitude": 104.02851,
        "nama": "KOTA BATAM",
        "doctype": "Kabupaten"
    },
    {
        "id": "2172",
        "province_id": "21",
        "name": "KOTA TANJUNG PINANG",
        "alt_name": "KOTA TANJUNG PINANG",
        "latitude": 0.91683,
        "longitude": 104.44329,
        "nama": "KOTA TANJUNG PINANG",
        "doctype": "Kabupaten"
    },
    {
        "id": "3101",
        "province_id": "31",
        "name": "KABUPATEN KEPULAUAN SERIBU",
        "alt_name": "KABUPATEN KEPULAUAN SERIBU",
        "latitude": -5.5985,
        "longitude": 106.55271,
        "nama": "KABUPATEN KEPULAUAN SERIBU",
        "doctype": "Kabupaten"
    },
    {
        "id": "3171",
        "province_id": "31",
        "name": "KOTA JAKARTA SELATAN",
        "alt_name": "KOTA JAKARTA SELATAN",
        "latitude": -6.266,
        "longitude": 106.8135,
        "nama": "KOTA JAKARTA SELATAN",
        "doctype": "Kabupaten"
    },
    {
        "id": "3172",
        "province_id": "31",
        "name": "KOTA JAKARTA TIMUR",
        "alt_name": "KOTA JAKARTA TIMUR",
        "latitude": -6.2521,
        "longitude": 106.884,
        "nama": "KOTA JAKARTA TIMUR",
        "doctype": "Kabupaten"
    },
    {
        "id": "3173",
        "province_id": "31",
        "name": "KOTA JAKARTA PUSAT",
        "alt_name": "KOTA JAKARTA PUSAT",
        "latitude": -6.1777,
        "longitude": 106.8403,
        "nama": "KOTA JAKARTA PUSAT",
        "doctype": "Kabupaten"
    },
    {
        "id": "3174",
        "province_id": "31",
        "name": "KOTA JAKARTA BARAT",
        "alt_name": "KOTA JAKARTA BARAT",
        "latitude": -6.1676,
        "longitude": 106.7673,
        "nama": "KOTA JAKARTA BARAT",
        "doctype": "Kabupaten"
    },
    {
        "id": "3175",
        "province_id": "31",
        "name": "KOTA JAKARTA UTARA",
        "alt_name": "KOTA JAKARTA UTARA",
        "latitude": -6.1339,
        "longitude": 106.8823,
        "nama": "KOTA JAKARTA UTARA",
        "doctype": "Kabupaten"
    },
    {
        "id": "3201",
        "province_id": "32",
        "name": "KABUPATEN BOGOR",
        "alt_name": "KABUPATEN BOGOR",
        "latitude": -6.58333,
        "longitude": 106.71667,
        "nama": "KABUPATEN BOGOR",
        "doctype": "Kabupaten"
    },
    {
        "id": "3202",
        "province_id": "32",
        "name": "KABUPATEN SUKABUMI",
        "alt_name": "KABUPATEN SUKABUMI",
        "latitude": -7.06667,
        "longitude": 106.7,
        "nama": "KABUPATEN SUKABUMI",
        "doctype": "Kabupaten"
    },
    {
        "id": "3203",
        "province_id": "32",
        "name": "KABUPATEN CIANJUR",
        "alt_name": "KABUPATEN CIANJUR",
        "latitude": -6.7725,
        "longitude": 107.08306,
        "nama": "KABUPATEN CIANJUR",
        "doctype": "Kabupaten"
    },
    {
        "id": "3204",
        "province_id": "32",
        "name": "KABUPATEN BANDUNG",
        "alt_name": "KABUPATEN BANDUNG",
        "latitude": -7.1,
        "longitude": 107.6,
        "nama": "KABUPATEN BANDUNG",
        "doctype": "Kabupaten"
    },
    {
        "id": "3205",
        "province_id": "32",
        "name": "KABUPATEN GARUT",
        "alt_name": "KABUPATEN GARUT",
        "latitude": -7.38333,
        "longitude": 107.76667,
        "nama": "KABUPATEN GARUT",
        "doctype": "Kabupaten"
    },
    {
        "id": "3206",
        "province_id": "32",
        "name": "KABUPATEN TASIKMALAYA",
        "alt_name": "KABUPATEN TASIKMALAYA",
        "latitude": -7.5,
        "longitude": 108.13333,
        "nama": "KABUPATEN TASIKMALAYA",
        "doctype": "Kabupaten"
    },
    {
        "id": "3207",
        "province_id": "32",
        "name": "KABUPATEN CIAMIS",
        "alt_name": "KABUPATEN CIAMIS",
        "latitude": -7.28333,
        "longitude": 108.41667,
        "nama": "KABUPATEN CIAMIS",
        "doctype": "Kabupaten"
    },
    {
        "id": "3208",
        "province_id": "32",
        "name": "KABUPATEN KUNINGAN",
        "alt_name": "KABUPATEN KUNINGAN",
        "latitude": -7,
        "longitude": 108.55,
        "nama": "KABUPATEN KUNINGAN",
        "doctype": "Kabupaten"
    },
    {
        "id": "3209",
        "province_id": "32",
        "name": "KABUPATEN CIREBON",
        "alt_name": "KABUPATEN CIREBON",
        "latitude": -6.8,
        "longitude": 108.56667,
        "nama": "KABUPATEN CIREBON",
        "doctype": "Kabupaten"
    },
    {
        "id": "3210",
        "province_id": "32",
        "name": "KABUPATEN MAJALENGKA",
        "alt_name": "KABUPATEN MAJALENGKA",
        "latitude": -6.81667,
        "longitude": 108.28333,
        "nama": "KABUPATEN MAJALENGKA",
        "doctype": "Kabupaten"
    },
    {
        "id": "3211",
        "province_id": "32",
        "name": "KABUPATEN SUMEDANG",
        "alt_name": "KABUPATEN SUMEDANG",
        "latitude": -6.81667,
        "longitude": 107.98333,
        "nama": "KABUPATEN SUMEDANG",
        "doctype": "Kabupaten"
    },
    {
        "id": "3212",
        "province_id": "32",
        "name": "KABUPATEN INDRAMAYU",
        "alt_name": "KABUPATEN INDRAMAYU",
        "latitude": -6.45,
        "longitude": 108.16667,
        "nama": "KABUPATEN INDRAMAYU",
        "doctype": "Kabupaten"
    },
    {
        "id": "3213",
        "province_id": "32",
        "name": "KABUPATEN SUBANG",
        "alt_name": "KABUPATEN SUBANG",
        "latitude": -6.50833,
        "longitude": 107.7025,
        "nama": "KABUPATEN SUBANG",
        "doctype": "Kabupaten"
    },
    {
        "id": "3214",
        "province_id": "32",
        "name": "KABUPATEN PURWAKARTA",
        "alt_name": "KABUPATEN PURWAKARTA",
        "latitude": -6.58333,
        "longitude": 107.45,
        "nama": "KABUPATEN PURWAKARTA",
        "doctype": "Kabupaten"
    },
    {
        "id": "3215",
        "province_id": "32",
        "name": "KABUPATEN KARAWANG",
        "alt_name": "KABUPATEN KARAWANG",
        "latitude": -6.26667,
        "longitude": 107.41667,
        "nama": "KABUPATEN KARAWANG",
        "doctype": "Kabupaten"
    },
    {
        "id": "3216",
        "province_id": "32",
        "name": "KABUPATEN BEKASI",
        "alt_name": "KABUPATEN BEKASI",
        "latitude": -6.24667,
        "longitude": 107.10833,
        "nama": "KABUPATEN BEKASI",
        "doctype": "Kabupaten"
    },
    {
        "id": "3217",
        "province_id": "32",
        "name": "KABUPATEN BANDUNG BARAT",
        "alt_name": "KABUPATEN BANDUNG BARAT",
        "latitude": -6.83333,
        "longitude": 107.48333,
        "nama": "KABUPATEN BANDUNG BARAT",
        "doctype": "Kabupaten"
    },
    {
        "id": "3218",
        "province_id": "32",
        "name": "KABUPATEN PANGANDARAN",
        "alt_name": "KABUPATEN PANGANDARAN",
        "latitude": -7.6673,
        "longitude": 108.64037,
        "nama": "KABUPATEN PANGANDARAN",
        "doctype": "Kabupaten"
    },
    {
        "id": "3271",
        "province_id": "32",
        "name": "KOTA BOGOR",
        "alt_name": "KOTA BOGOR",
        "latitude": -6.59167,
        "longitude": 106.8,
        "nama": "KOTA BOGOR",
        "doctype": "Kabupaten"
    },
    {
        "id": "3272",
        "province_id": "32",
        "name": "KOTA SUKABUMI",
        "alt_name": "KOTA SUKABUMI",
        "latitude": -6.95,
        "longitude": 106.93333,
        "nama": "KOTA SUKABUMI",
        "doctype": "Kabupaten"
    },
    {
        "id": "3273",
        "province_id": "32",
        "name": "KOTA BANDUNG",
        "alt_name": "KOTA BANDUNG",
        "latitude": -6.9175,
        "longitude": 107.62444,
        "nama": "KOTA BANDUNG",
        "doctype": "Kabupaten"
    },
    {
        "id": "3274",
        "province_id": "32",
        "name": "KOTA CIREBON",
        "alt_name": "KOTA CIREBON",
        "latitude": -6.75,
        "longitude": 108.55,
        "nama": "KOTA CIREBON",
        "doctype": "Kabupaten"
    },
    {
        "id": "3275",
        "province_id": "32",
        "name": "KOTA BEKASI",
        "alt_name": "KOTA BEKASI",
        "latitude": -6.28333,
        "longitude": 106.98333,
        "nama": "KOTA BEKASI",
        "doctype": "Kabupaten"
    },
    {
        "id": "3276",
        "province_id": "32",
        "name": "KOTA DEPOK",
        "alt_name": "KOTA DEPOK",
        "latitude": -6.4,
        "longitude": 106.81667,
        "nama": "KOTA DEPOK",
        "doctype": "Kabupaten"
    },
    {
        "id": "3277",
        "province_id": "32",
        "name": "KOTA CIMAHI",
        "alt_name": "KOTA CIMAHI",
        "latitude": -6.89167,
        "longitude": 107.55,
        "nama": "KOTA CIMAHI",
        "doctype": "Kabupaten"
    },
    {
        "id": "3278",
        "province_id": "32",
        "name": "KOTA TASIKMALAYA",
        "alt_name": "KOTA TASIKMALAYA",
        "latitude": -7.35,
        "longitude": 108.21667,
        "nama": "KOTA TASIKMALAYA",
        "doctype": "Kabupaten"
    },
    {
        "id": "3279",
        "province_id": "32",
        "name": "KOTA BANJAR",
        "alt_name": "KOTA BANJAR",
        "latitude": -7.36996,
        "longitude": 108.53209,
        "nama": "KOTA BANJAR",
        "doctype": "Kabupaten"
    },
    {
        "id": "3301",
        "province_id": "33",
        "name": "KABUPATEN CILACAP",
        "alt_name": "KABUPATEN CILACAP",
        "latitude": -7.57417,
        "longitude": 108.98861,
        "nama": "KABUPATEN CILACAP",
        "doctype": "Kabupaten"
    },
    {
        "id": "3302",
        "province_id": "33",
        "name": "KABUPATEN BANYUMAS",
        "alt_name": "KABUPATEN BANYUMAS",
        "latitude": -7.45,
        "longitude": 109.16667,
        "nama": "KABUPATEN BANYUMAS",
        "doctype": "Kabupaten"
    },
    {
        "id": "3303",
        "province_id": "33",
        "name": "KABUPATEN PURBALINGGA",
        "alt_name": "KABUPATEN PURBALINGGA",
        "latitude": -7.28417,
        "longitude": 109.35028,
        "nama": "KABUPATEN PURBALINGGA",
        "doctype": "Kabupaten"
    },
    {
        "id": "3304",
        "province_id": "33",
        "name": "KABUPATEN BANJARNEGARA",
        "alt_name": "KABUPATEN BANJARNEGARA",
        "latitude": -7.35111,
        "longitude": 109.5875,
        "nama": "KABUPATEN BANJARNEGARA",
        "doctype": "Kabupaten"
    },
    {
        "id": "3305",
        "province_id": "33",
        "name": "KABUPATEN KEBUMEN",
        "alt_name": "KABUPATEN KEBUMEN",
        "latitude": -7.63917,
        "longitude": 109.66056,
        "nama": "KABUPATEN KEBUMEN",
        "doctype": "Kabupaten"
    },
    {
        "id": "3306",
        "province_id": "33",
        "name": "KABUPATEN PURWOREJO",
        "alt_name": "KABUPATEN PURWOREJO",
        "latitude": -7.7,
        "longitude": 109.96667,
        "nama": "KABUPATEN PURWOREJO",
        "doctype": "Kabupaten"
    },
    {
        "id": "3307",
        "province_id": "33",
        "name": "KABUPATEN WONOSOBO",
        "alt_name": "KABUPATEN WONOSOBO",
        "latitude": -7.36139,
        "longitude": 109.92667,
        "nama": "KABUPATEN WONOSOBO",
        "doctype": "Kabupaten"
    },
    {
        "id": "3308",
        "province_id": "33",
        "name": "KABUPATEN MAGELANG",
        "alt_name": "KABUPATEN MAGELANG",
        "latitude": -7.4275,
        "longitude": 110.16194,
        "nama": "KABUPATEN MAGELANG",
        "doctype": "Kabupaten"
    },
    {
        "id": "3309",
        "province_id": "33",
        "name": "KABUPATEN BOYOLALI",
        "alt_name": "KABUPATEN BOYOLALI",
        "latitude": -7.5,
        "longitude": 110.7,
        "nama": "KABUPATEN BOYOLALI",
        "doctype": "Kabupaten"
    },
    {
        "id": "3310",
        "province_id": "33",
        "name": "KABUPATEN KLATEN",
        "alt_name": "KABUPATEN KLATEN",
        "latitude": -7.68333,
        "longitude": 110.61667,
        "nama": "KABUPATEN KLATEN",
        "doctype": "Kabupaten"
    },
    {
        "id": "3311",
        "province_id": "33",
        "name": "KABUPATEN SUKOHARJO",
        "alt_name": "KABUPATEN SUKOHARJO",
        "latitude": -7.68333,
        "longitude": 110.83333,
        "nama": "KABUPATEN SUKOHARJO",
        "doctype": "Kabupaten"
    },
    {
        "id": "3312",
        "province_id": "33",
        "name": "KABUPATEN WONOGIRI",
        "alt_name": "KABUPATEN WONOGIRI",
        "latitude": -7.91667,
        "longitude": 111,
        "nama": "KABUPATEN WONOGIRI",
        "doctype": "Kabupaten"
    },
    {
        "id": "3313",
        "province_id": "33",
        "name": "KABUPATEN KARANGANYAR",
        "alt_name": "KABUPATEN KARANGANYAR",
        "latitude": -7.62806,
        "longitude": 111.0625,
        "nama": "KABUPATEN KARANGANYAR",
        "doctype": "Kabupaten"
    },
    {
        "id": "3314",
        "province_id": "33",
        "name": "KABUPATEN SRAGEN",
        "alt_name": "KABUPATEN SRAGEN",
        "latitude": -7.41278,
        "longitude": 110.935,
        "nama": "KABUPATEN SRAGEN",
        "doctype": "Kabupaten"
    },
    {
        "id": "3315",
        "province_id": "33",
        "name": "KABUPATEN GROBOGAN",
        "alt_name": "KABUPATEN GROBOGAN",
        "latitude": -7.11667,
        "longitude": 110.91667,
        "nama": "KABUPATEN GROBOGAN",
        "doctype": "Kabupaten"
    },
    {
        "id": "3316",
        "province_id": "33",
        "name": "KABUPATEN BLORA",
        "alt_name": "KABUPATEN BLORA",
        "latitude": -7.06667,
        "longitude": 111.38333,
        "nama": "KABUPATEN BLORA",
        "doctype": "Kabupaten"
    },
    {
        "id": "3317",
        "province_id": "33",
        "name": "KABUPATEN REMBANG",
        "alt_name": "KABUPATEN REMBANG",
        "latitude": -6.78333,
        "longitude": 111.46667,
        "nama": "KABUPATEN REMBANG",
        "doctype": "Kabupaten"
    },
    {
        "id": "3318",
        "province_id": "33",
        "name": "KABUPATEN PATI",
        "alt_name": "KABUPATEN PATI",
        "latitude": -6.76667,
        "longitude": 111.1,
        "nama": "KABUPATEN PATI",
        "doctype": "Kabupaten"
    },
    {
        "id": "3319",
        "province_id": "33",
        "name": "KABUPATEN KUDUS",
        "alt_name": "KABUPATEN KUDUS",
        "latitude": -6.8,
        "longitude": 110.86667,
        "nama": "KABUPATEN KUDUS",
        "doctype": "Kabupaten"
    },
    {
        "id": "3320",
        "province_id": "33",
        "name": "KABUPATEN JEPARA",
        "alt_name": "KABUPATEN JEPARA",
        "latitude": -6.58333,
        "longitude": 110.76667,
        "nama": "KABUPATEN JEPARA",
        "doctype": "Kabupaten"
    },
    {
        "id": "3321",
        "province_id": "33",
        "name": "KABUPATEN DEMAK",
        "alt_name": "KABUPATEN DEMAK",
        "latitude": -6.8993,
        "longitude": 110.6122,
        "nama": "KABUPATEN DEMAK",
        "doctype": "Kabupaten"
    },
    {
        "id": "3322",
        "province_id": "33",
        "name": "KABUPATEN SEMARANG",
        "alt_name": "KABUPATEN SEMARANG",
        "latitude": -7.20667,
        "longitude": 110.44139,
        "nama": "KABUPATEN SEMARANG",
        "doctype": "Kabupaten"
    },
    {
        "id": "3323",
        "province_id": "33",
        "name": "KABUPATEN TEMANGGUNG",
        "alt_name": "KABUPATEN TEMANGGUNG",
        "latitude": -7.25,
        "longitude": 110.11667,
        "nama": "KABUPATEN TEMANGGUNG",
        "doctype": "Kabupaten"
    },
    {
        "id": "3324",
        "province_id": "33",
        "name": "KABUPATEN KENDAL",
        "alt_name": "KABUPATEN KENDAL",
        "latitude": -7.0256,
        "longitude": 110.1685,
        "nama": "KABUPATEN KENDAL",
        "doctype": "Kabupaten"
    },
    {
        "id": "3325",
        "province_id": "33",
        "name": "KABUPATEN BATANG",
        "alt_name": "KABUPATEN BATANG",
        "latitude": -7.03333,
        "longitude": 109.88333,
        "nama": "KABUPATEN BATANG",
        "doctype": "Kabupaten"
    },
    {
        "id": "3326",
        "province_id": "33",
        "name": "KABUPATEN PEKALONGAN",
        "alt_name": "KABUPATEN PEKALONGAN",
        "latitude": -7.0319,
        "longitude": 109.624,
        "nama": "KABUPATEN PEKALONGAN",
        "doctype": "Kabupaten"
    },
    {
        "id": "3327",
        "province_id": "33",
        "name": "KABUPATEN PEMALANG",
        "alt_name": "KABUPATEN PEMALANG",
        "latitude": -7.03333,
        "longitude": 109.4,
        "nama": "KABUPATEN PEMALANG",
        "doctype": "Kabupaten"
    },
    {
        "id": "3328",
        "province_id": "33",
        "name": "KABUPATEN TEGAL",
        "alt_name": "KABUPATEN TEGAL",
        "latitude": -7.03333,
        "longitude": 109.16667,
        "nama": "KABUPATEN TEGAL",
        "doctype": "Kabupaten"
    },
    {
        "id": "3329",
        "province_id": "33",
        "name": "KABUPATEN BREBES",
        "alt_name": "KABUPATEN BREBES",
        "latitude": -7.05,
        "longitude": 108.9,
        "nama": "KABUPATEN BREBES",
        "doctype": "Kabupaten"
    },
    {
        "id": "3371",
        "province_id": "33",
        "name": "KOTA MAGELANG",
        "alt_name": "KOTA MAGELANG",
        "latitude": -7.5,
        "longitude": 110.225,
        "nama": "KOTA MAGELANG",
        "doctype": "Kabupaten"
    },
    {
        "id": "3372",
        "province_id": "33",
        "name": "KOTA SURAKARTA",
        "alt_name": "KOTA SURAKARTA",
        "latitude": -7.55,
        "longitude": 110.81667,
        "nama": "KOTA SURAKARTA",
        "doctype": "Kabupaten"
    },
    {
        "id": "3373",
        "province_id": "33",
        "name": "KOTA SALATIGA",
        "alt_name": "KOTA SALATIGA",
        "latitude": -7.33278,
        "longitude": 110.48333,
        "nama": "KOTA SALATIGA",
        "doctype": "Kabupaten"
    },
    {
        "id": "3374",
        "province_id": "33",
        "name": "KOTA SEMARANG",
        "alt_name": "KOTA SEMARANG",
        "latitude": -7.03333,
        "longitude": 110.38333,
        "nama": "KOTA SEMARANG",
        "doctype": "Kabupaten"
    },
    {
        "id": "3375",
        "province_id": "33",
        "name": "KOTA PEKALONGAN",
        "alt_name": "KOTA PEKALONGAN",
        "latitude": -6.9,
        "longitude": 109.68333,
        "nama": "KOTA PEKALONGAN",
        "doctype": "Kabupaten"
    },
    {
        "id": "3376",
        "province_id": "33",
        "name": "KOTA TEGAL",
        "alt_name": "KOTA TEGAL",
        "latitude": -6.8686,
        "longitude": 109.1129,
        "nama": "KOTA TEGAL",
        "doctype": "Kabupaten"
    },
    {
        "id": "3401",
        "province_id": "34",
        "name": "KABUPATEN KULON PROGO",
        "alt_name": "KABUPATEN KULON PROGO",
        "latitude": -7.645,
        "longitude": 110.02694,
        "nama": "KABUPATEN KULON PROGO",
        "doctype": "Kabupaten"
    },
    {
        "id": "3402",
        "province_id": "34",
        "name": "KABUPATEN BANTUL",
        "alt_name": "KABUPATEN BANTUL",
        "latitude": -7.9,
        "longitude": 110.36667,
        "nama": "KABUPATEN BANTUL",
        "doctype": "Kabupaten"
    },
    {
        "id": "3403",
        "province_id": "34",
        "name": "KABUPATEN GUNUNG KIDUL",
        "alt_name": "KABUPATEN GUNUNG KIDUL",
        "latitude": -7.98333,
        "longitude": 110.61667,
        "nama": "KABUPATEN GUNUNG KIDUL",
        "doctype": "Kabupaten"
    },
    {
        "id": "3404",
        "province_id": "34",
        "name": "KABUPATEN SLEMAN",
        "alt_name": "KABUPATEN SLEMAN",
        "latitude": -7.68167,
        "longitude": 110.32333,
        "nama": "KABUPATEN SLEMAN",
        "doctype": "Kabupaten"
    },
    {
        "id": "3471",
        "province_id": "34",
        "name": "KOTA YOGYAKARTA",
        "alt_name": "KOTA YOGYAKARTA",
        "latitude": -7.8,
        "longitude": 110.375,
        "nama": "KOTA YOGYAKARTA",
        "doctype": "Kabupaten"
    },
    {
        "id": "3501",
        "province_id": "35",
        "name": "KABUPATEN PACITAN",
        "alt_name": "KABUPATEN PACITAN",
        "latitude": -8.13333,
        "longitude": 111.16667,
        "nama": "KABUPATEN PACITAN",
        "doctype": "Kabupaten"
    },
    {
        "id": "3502",
        "province_id": "35",
        "name": "KABUPATEN PONOROGO",
        "alt_name": "KABUPATEN PONOROGO",
        "latitude": -7.93333,
        "longitude": 111.5,
        "nama": "KABUPATEN PONOROGO",
        "doctype": "Kabupaten"
    },
    {
        "id": "3503",
        "province_id": "35",
        "name": "KABUPATEN TRENGGALEK",
        "alt_name": "KABUPATEN TRENGGALEK",
        "latitude": -8.16667,
        "longitude": 111.61667,
        "nama": "KABUPATEN TRENGGALEK",
        "doctype": "Kabupaten"
    },
    {
        "id": "3504",
        "province_id": "35",
        "name": "KABUPATEN TULUNGAGUNG",
        "alt_name": "KABUPATEN TULUNGAGUNG",
        "latitude": -8.11667,
        "longitude": 111.91667,
        "nama": "KABUPATEN TULUNGAGUNG",
        "doctype": "Kabupaten"
    },
    {
        "id": "3505",
        "province_id": "35",
        "name": "KABUPATEN BLITAR",
        "alt_name": "KABUPATEN BLITAR",
        "latitude": -8.13333,
        "longitude": 112.25,
        "nama": "KABUPATEN BLITAR",
        "doctype": "Kabupaten"
    },
    {
        "id": "3506",
        "province_id": "35",
        "name": "KABUPATEN KEDIRI",
        "alt_name": "KABUPATEN KEDIRI",
        "latitude": -7.83333,
        "longitude": 112.16667,
        "nama": "KABUPATEN KEDIRI",
        "doctype": "Kabupaten"
    },
    {
        "id": "3507",
        "province_id": "35",
        "name": "KABUPATEN MALANG",
        "alt_name": "KABUPATEN MALANG",
        "latitude": -8.16667,
        "longitude": 112.66667,
        "nama": "KABUPATEN MALANG",
        "doctype": "Kabupaten"
    },
    {
        "id": "3508",
        "province_id": "35",
        "name": "KABUPATEN LUMAJANG",
        "alt_name": "KABUPATEN LUMAJANG",
        "latitude": -8.11667,
        "longitude": 113.15,
        "nama": "KABUPATEN LUMAJANG",
        "doctype": "Kabupaten"
    },
    {
        "id": "3509",
        "province_id": "35",
        "name": "KABUPATEN JEMBER",
        "alt_name": "KABUPATEN JEMBER",
        "latitude": -8.25,
        "longitude": 113.65,
        "nama": "KABUPATEN JEMBER",
        "doctype": "Kabupaten"
    },
    {
        "id": "3510",
        "province_id": "35",
        "name": "KABUPATEN BANYUWANGI",
        "alt_name": "KABUPATEN BANYUWANGI",
        "latitude": -8.33333,
        "longitude": 114.2,
        "nama": "KABUPATEN BANYUWANGI",
        "doctype": "Kabupaten"
    },
    {
        "id": "3511",
        "province_id": "35",
        "name": "KABUPATEN BONDOWOSO",
        "alt_name": "KABUPATEN BONDOWOSO",
        "latitude": -7.9404,
        "longitude": 113.9834,
        "nama": "KABUPATEN BONDOWOSO",
        "doctype": "Kabupaten"
    },
    {
        "id": "3512",
        "province_id": "35",
        "name": "KABUPATEN SITUBONDO",
        "alt_name": "KABUPATEN SITUBONDO",
        "latitude": -7.71667,
        "longitude": 114.05,
        "nama": "KABUPATEN SITUBONDO",
        "doctype": "Kabupaten"
    },
    {
        "id": "3513",
        "province_id": "35",
        "name": "KABUPATEN PROBOLINGGO",
        "alt_name": "KABUPATEN PROBOLINGGO",
        "latitude": -7.86667,
        "longitude": 113.31667,
        "nama": "KABUPATEN PROBOLINGGO",
        "doctype": "Kabupaten"
    },
    {
        "id": "3514",
        "province_id": "35",
        "name": "KABUPATEN PASURUAN",
        "alt_name": "KABUPATEN PASURUAN",
        "latitude": -7.73333,
        "longitude": 112.83333,
        "nama": "KABUPATEN PASURUAN",
        "doctype": "Kabupaten"
    },
    {
        "id": "3515",
        "province_id": "35",
        "name": "KABUPATEN SIDOARJO",
        "alt_name": "KABUPATEN SIDOARJO",
        "latitude": -7.45,
        "longitude": 112.7,
        "nama": "KABUPATEN SIDOARJO",
        "doctype": "Kabupaten"
    },
    {
        "id": "3516",
        "province_id": "35",
        "name": "KABUPATEN MOJOKERTO",
        "alt_name": "KABUPATEN MOJOKERTO",
        "latitude": -7.55,
        "longitude": 112.5,
        "nama": "KABUPATEN MOJOKERTO",
        "doctype": "Kabupaten"
    },
    {
        "id": "3517",
        "province_id": "35",
        "name": "KABUPATEN JOMBANG",
        "alt_name": "KABUPATEN JOMBANG",
        "latitude": -7.55,
        "longitude": 112.25,
        "nama": "KABUPATEN JOMBANG",
        "doctype": "Kabupaten"
    },
    {
        "id": "3518",
        "province_id": "35",
        "name": "KABUPATEN NGANJUK",
        "alt_name": "KABUPATEN NGANJUK",
        "latitude": -7.6,
        "longitude": 111.93333,
        "nama": "KABUPATEN NGANJUK",
        "doctype": "Kabupaten"
    },
    {
        "id": "3519",
        "province_id": "35",
        "name": "KABUPATEN MADIUN",
        "alt_name": "KABUPATEN MADIUN",
        "latitude": -7.61667,
        "longitude": 111.65,
        "nama": "KABUPATEN MADIUN",
        "doctype": "Kabupaten"
    },
    {
        "id": "3520",
        "province_id": "35",
        "name": "KABUPATEN MAGETAN",
        "alt_name": "KABUPATEN MAGETAN",
        "latitude": -7.64472,
        "longitude": 111.35917,
        "nama": "KABUPATEN MAGETAN",
        "doctype": "Kabupaten"
    },
    {
        "id": "3521",
        "province_id": "35",
        "name": "KABUPATEN NGAWI",
        "alt_name": "KABUPATEN NGAWI",
        "latitude": -7.47444,
        "longitude": 111.33444,
        "nama": "KABUPATEN NGAWI",
        "doctype": "Kabupaten"
    },
    {
        "id": "3522",
        "province_id": "35",
        "name": "KABUPATEN BOJONEGORO",
        "alt_name": "KABUPATEN BOJONEGORO",
        "latitude": -7.25,
        "longitude": 111.8,
        "nama": "KABUPATEN BOJONEGORO",
        "doctype": "Kabupaten"
    },
    {
        "id": "3523",
        "province_id": "35",
        "name": "KABUPATEN TUBAN",
        "alt_name": "KABUPATEN TUBAN",
        "latitude": -6.96667,
        "longitude": 111.9,
        "nama": "KABUPATEN TUBAN",
        "doctype": "Kabupaten"
    },
    {
        "id": "3524",
        "province_id": "35",
        "name": "KABUPATEN LAMONGAN",
        "alt_name": "KABUPATEN LAMONGAN",
        "latitude": -7.13333,
        "longitude": 112.31667,
        "nama": "KABUPATEN LAMONGAN",
        "doctype": "Kabupaten"
    },
    {
        "id": "3525",
        "province_id": "35",
        "name": "KABUPATEN GRESIK",
        "alt_name": "KABUPATEN GRESIK",
        "latitude": -7.1933,
        "longitude": 112.553,
        "nama": "KABUPATEN GRESIK",
        "doctype": "Kabupaten"
    },
    {
        "id": "3526",
        "province_id": "35",
        "name": "KABUPATEN BANGKALAN",
        "alt_name": "KABUPATEN BANGKALAN",
        "latitude": -7.05,
        "longitude": 112.93333,
        "nama": "KABUPATEN BANGKALAN",
        "doctype": "Kabupaten"
    },
    {
        "id": "3527",
        "province_id": "35",
        "name": "KABUPATEN SAMPANG",
        "alt_name": "KABUPATEN SAMPANG",
        "latitude": -7.05,
        "longitude": 113.25,
        "nama": "KABUPATEN SAMPANG",
        "doctype": "Kabupaten"
    },
    {
        "id": "3528",
        "province_id": "35",
        "name": "KABUPATEN PAMEKASAN",
        "alt_name": "KABUPATEN PAMEKASAN",
        "latitude": -7.06667,
        "longitude": 113.5,
        "nama": "KABUPATEN PAMEKASAN",
        "doctype": "Kabupaten"
    },
    {
        "id": "3529",
        "province_id": "35",
        "name": "KABUPATEN SUMENEP",
        "alt_name": "KABUPATEN SUMENEP",
        "latitude": -7.11667,
        "longitude": 114.33333,
        "nama": "KABUPATEN SUMENEP",
        "doctype": "Kabupaten"
    },
    {
        "id": "3571",
        "province_id": "35",
        "name": "KOTA KEDIRI",
        "alt_name": "KOTA KEDIRI",
        "latitude": -7.83333,
        "longitude": 112.01667,
        "nama": "KOTA KEDIRI",
        "doctype": "Kabupaten"
    },
    {
        "id": "3572",
        "province_id": "35",
        "name": "KOTA BLITAR",
        "alt_name": "KOTA BLITAR",
        "latitude": -8.1,
        "longitude": 112.16667,
        "nama": "KOTA BLITAR",
        "doctype": "Kabupaten"
    },
    {
        "id": "3573",
        "province_id": "35",
        "name": "KOTA MALANG",
        "alt_name": "KOTA MALANG",
        "latitude": -7.975,
        "longitude": 112.63333,
        "nama": "KOTA MALANG",
        "doctype": "Kabupaten"
    },
    {
        "id": "3574",
        "province_id": "35",
        "name": "KOTA PROBOLINGGO",
        "alt_name": "KOTA PROBOLINGGO",
        "latitude": -7.78333,
        "longitude": 113.21667,
        "nama": "KOTA PROBOLINGGO",
        "doctype": "Kabupaten"
    },
    {
        "id": "3575",
        "province_id": "35",
        "name": "KOTA PASURUAN",
        "alt_name": "KOTA PASURUAN",
        "latitude": -7.65,
        "longitude": 112.9,
        "nama": "KOTA PASURUAN",
        "doctype": "Kabupaten"
    },
    {
        "id": "3576",
        "province_id": "35",
        "name": "KOTA MOJOKERTO",
        "alt_name": "KOTA MOJOKERTO",
        "latitude": -7.46667,
        "longitude": 112.43333,
        "nama": "KOTA MOJOKERTO",
        "doctype": "Kabupaten"
    },
    {
        "id": "3577",
        "province_id": "35",
        "name": "KOTA MADIUN",
        "alt_name": "KOTA MADIUN",
        "latitude": -7.63333,
        "longitude": 111.53333,
        "nama": "KOTA MADIUN",
        "doctype": "Kabupaten"
    },
    {
        "id": "3578",
        "province_id": "35",
        "name": "KOTA SURABAYA",
        "alt_name": "KOTA SURABAYA",
        "latitude": -7.26667,
        "longitude": 112.71667,
        "nama": "KOTA SURABAYA",
        "doctype": "Kabupaten"
    },
    {
        "id": "3579",
        "province_id": "35",
        "name": "KOTA BATU",
        "alt_name": "KOTA BATU",
        "latitude": -7.83272,
        "longitude": 112.53751,
        "nama": "KOTA BATU",
        "doctype": "Kabupaten"
    },
    {
        "id": "3601",
        "province_id": "36",
        "name": "KABUPATEN PANDEGLANG",
        "alt_name": "KABUPATEN PANDEGLANG",
        "latitude": -6.63333,
        "longitude": 105.75,
        "nama": "KABUPATEN PANDEGLANG",
        "doctype": "Kabupaten"
    },
    {
        "id": "3602",
        "province_id": "36",
        "name": "KABUPATEN LEBAK",
        "alt_name": "KABUPATEN LEBAK",
        "latitude": -6.65,
        "longitude": 106.21667,
        "nama": "KABUPATEN LEBAK",
        "doctype": "Kabupaten"
    },
    {
        "id": "3603",
        "province_id": "36",
        "name": "KABUPATEN TANGERANG",
        "alt_name": "KABUPATEN TANGERANG",
        "latitude": -6.2,
        "longitude": 106.46667,
        "nama": "KABUPATEN TANGERANG",
        "doctype": "Kabupaten"
    },
    {
        "id": "3604",
        "province_id": "36",
        "name": "KABUPATEN SERANG",
        "alt_name": "KABUPATEN SERANG",
        "latitude": -6.15,
        "longitude": 106,
        "nama": "KABUPATEN SERANG",
        "doctype": "Kabupaten"
    },
    {
        "id": "3671",
        "province_id": "36",
        "name": "KOTA TANGERANG",
        "alt_name": "KOTA TANGERANG",
        "latitude": -6.17944,
        "longitude": 106.62991,
        "nama": "KOTA TANGERANG",
        "doctype": "Kabupaten"
    },
    {
        "id": "3672",
        "province_id": "36",
        "name": "KOTA CILEGON",
        "alt_name": "KOTA CILEGON",
        "latitude": -6.01667,
        "longitude": 106.01667,
        "nama": "KOTA CILEGON",
        "doctype": "Kabupaten"
    },
    {
        "id": "3673",
        "province_id": "36",
        "name": "KOTA SERANG",
        "alt_name": "KOTA SERANG",
        "latitude": -6.12563,
        "longitude": 106.14999,
        "nama": "KOTA SERANG",
        "doctype": "Kabupaten"
    },
    {
        "id": "3674",
        "province_id": "36",
        "name": "KOTA TANGERANG SELATAN",
        "alt_name": "KOTA TANGERANG SELATAN",
        "latitude": -6.29373,
        "longitude": 106.71244,
        "nama": "KOTA TANGERANG SELATAN",
        "doctype": "Kabupaten"
    },
    {
        "id": "5101",
        "province_id": "51",
        "name": "KABUPATEN JEMBRANA",
        "alt_name": "KABUPATEN JEMBRANA",
        "latitude": -8.3,
        "longitude": 114.66667,
        "nama": "KABUPATEN JEMBRANA",
        "doctype": "Kabupaten"
    },
    {
        "id": "5102",
        "province_id": "51",
        "name": "KABUPATEN TABANAN",
        "alt_name": "KABUPATEN TABANAN",
        "latitude": -8.43333,
        "longitude": 115.06667,
        "nama": "KABUPATEN TABANAN",
        "doctype": "Kabupaten"
    },
    {
        "id": "5103",
        "province_id": "51",
        "name": "KABUPATEN BADUNG",
        "alt_name": "KABUPATEN BADUNG",
        "latitude": -8.51667,
        "longitude": 115.2,
        "nama": "KABUPATEN BADUNG",
        "doctype": "Kabupaten"
    },
    {
        "id": "5104",
        "province_id": "51",
        "name": "KABUPATEN GIANYAR",
        "alt_name": "KABUPATEN GIANYAR",
        "latitude": -8.46667,
        "longitude": 115.28333,
        "nama": "KABUPATEN GIANYAR",
        "doctype": "Kabupaten"
    },
    {
        "id": "5105",
        "province_id": "51",
        "name": "KABUPATEN KLUNGKUNG",
        "alt_name": "KABUPATEN KLUNGKUNG",
        "latitude": -8.55,
        "longitude": 115.4,
        "nama": "KABUPATEN KLUNGKUNG",
        "doctype": "Kabupaten"
    },
    {
        "id": "5106",
        "province_id": "51",
        "name": "KABUPATEN BANGLI",
        "alt_name": "KABUPATEN BANGLI",
        "latitude": -8.28333,
        "longitude": 115.35,
        "nama": "KABUPATEN BANGLI",
        "doctype": "Kabupaten"
    },
    {
        "id": "5107",
        "province_id": "51",
        "name": "KABUPATEN KARANG ASEM",
        "alt_name": "KABUPATEN KARANG ASEM",
        "latitude": -8.3891,
        "longitude": 115.5393,
        "nama": "KABUPATEN KARANG ASEM",
        "doctype": "Kabupaten"
    },
    {
        "id": "5108",
        "province_id": "51",
        "name": "KABUPATEN BULELENG",
        "alt_name": "KABUPATEN BULELENG",
        "latitude": -8.25,
        "longitude": 114.96667,
        "nama": "KABUPATEN BULELENG",
        "doctype": "Kabupaten"
    },
    {
        "id": "5171",
        "province_id": "51",
        "name": "KOTA DENPASAR",
        "alt_name": "KOTA DENPASAR",
        "latitude": -8.66667,
        "longitude": 115.21663,
        "nama": "KOTA DENPASAR",
        "doctype": "Kabupaten"
    },
    {
        "id": "5201",
        "province_id": "52",
        "name": "KABUPATEN LOMBOK BARAT",
        "alt_name": "KABUPATEN LOMBOK BARAT",
        "latitude": -8.69583,
        "longitude": 116.11667,
        "nama": "KABUPATEN LOMBOK BARAT",
        "doctype": "Kabupaten"
    },
    {
        "id": "5202",
        "province_id": "52",
        "name": "KABUPATEN LOMBOK TENGAH",
        "alt_name": "KABUPATEN LOMBOK TENGAH",
        "latitude": -8.7,
        "longitude": 116.3,
        "nama": "KABUPATEN LOMBOK TENGAH",
        "doctype": "Kabupaten"
    },
    {
        "id": "5203",
        "province_id": "52",
        "name": "KABUPATEN LOMBOK TIMUR",
        "alt_name": "KABUPATEN LOMBOK TIMUR",
        "latitude": -8.53333,
        "longitude": 116.53333,
        "nama": "KABUPATEN LOMBOK TIMUR",
        "doctype": "Kabupaten"
    },
    {
        "id": "5204",
        "province_id": "52",
        "name": "KABUPATEN SUMBAWA",
        "alt_name": "KABUPATEN SUMBAWA",
        "latitude": -8.7439,
        "longitude": 117.3324,
        "nama": "KABUPATEN SUMBAWA",
        "doctype": "Kabupaten"
    },
    {
        "id": "5205",
        "province_id": "52",
        "name": "KABUPATEN DOMPU",
        "alt_name": "KABUPATEN DOMPU",
        "latitude": -8.5094,
        "longitude": 118.4816,
        "nama": "KABUPATEN DOMPU",
        "doctype": "Kabupaten"
    },
    {
        "id": "5206",
        "province_id": "52",
        "name": "KABUPATEN BIMA",
        "alt_name": "KABUPATEN BIMA",
        "latitude": -8.6,
        "longitude": 118.61667,
        "nama": "KABUPATEN BIMA",
        "doctype": "Kabupaten"
    },
    {
        "id": "5207",
        "province_id": "52",
        "name": "KABUPATEN SUMBAWA BARAT",
        "alt_name": "KABUPATEN SUMBAWA BARAT",
        "latitude": -8.75159,
        "longitude": 116.92132,
        "nama": "KABUPATEN SUMBAWA BARAT",
        "doctype": "Kabupaten"
    },
    {
        "id": "5208",
        "province_id": "52",
        "name": "KABUPATEN LOMBOK UTARA",
        "alt_name": "KABUPATEN LOMBOK UTARA",
        "latitude": -8.35214,
        "longitude": 116.40152,
        "nama": "KABUPATEN LOMBOK UTARA",
        "doctype": "Kabupaten"
    },
    {
        "id": "5271",
        "province_id": "52",
        "name": "KOTA MATARAM",
        "alt_name": "KOTA MATARAM",
        "latitude": -8.5833,
        "longitude": 116.1167,
        "nama": "KOTA MATARAM",
        "doctype": "Kabupaten"
    },
    {
        "id": "5272",
        "province_id": "52",
        "name": "KOTA BIMA",
        "alt_name": "KOTA BIMA",
        "latitude": -8.46728,
        "longitude": 118.75259,
        "nama": "KOTA BIMA",
        "doctype": "Kabupaten"
    },
    {
        "id": "5301",
        "province_id": "53",
        "name": "KABUPATEN SUMBA BARAT",
        "alt_name": "KABUPATEN SUMBA BARAT",
        "latitude": -9.56667,
        "longitude": 119.45,
        "nama": "KABUPATEN SUMBA BARAT",
        "doctype": "Kabupaten"
    },
    {
        "id": "5302",
        "province_id": "53",
        "name": "KABUPATEN SUMBA TIMUR",
        "alt_name": "KABUPATEN SUMBA TIMUR",
        "latitude": -9.88333,
        "longitude": 120.25,
        "nama": "KABUPATEN SUMBA TIMUR",
        "doctype": "Kabupaten"
    },
    {
        "id": "5303",
        "province_id": "53",
        "name": "KABUPATEN KUPANG",
        "alt_name": "KABUPATEN KUPANG",
        "latitude": -9.91667,
        "longitude": 123.83333,
        "nama": "KABUPATEN KUPANG",
        "doctype": "Kabupaten"
    },
    {
        "id": "5304",
        "province_id": "53",
        "name": "KABUPATEN TIMOR TENGAH SELATAN",
        "alt_name": "KABUPATEN TIMOR TENGAH SELATAN",
        "latitude": -9.83333,
        "longitude": 124.4,
        "nama": "KABUPATEN TIMOR TENGAH SELATAN",
        "doctype": "Kabupaten"
    },
    {
        "id": "5305",
        "province_id": "53",
        "name": "KABUPATEN TIMOR TENGAH UTARA",
        "alt_name": "KABUPATEN TIMOR TENGAH UTARA",
        "latitude": -9.33136,
        "longitude": 124.51904,
        "nama": "KABUPATEN TIMOR TENGAH UTARA",
        "doctype": "Kabupaten"
    },
    {
        "id": "5306",
        "province_id": "53",
        "name": "KABUPATEN BELU",
        "alt_name": "KABUPATEN BELU",
        "latitude": -9.41258,
        "longitude": 124.95066,
        "nama": "KABUPATEN BELU",
        "doctype": "Kabupaten"
    },
    {
        "id": "5307",
        "province_id": "53",
        "name": "KABUPATEN ALOR",
        "alt_name": "KABUPATEN ALOR",
        "latitude": -8.3,
        "longitude": 124.56667,
        "nama": "KABUPATEN ALOR",
        "doctype": "Kabupaten"
    },
    {
        "id": "5308",
        "province_id": "53",
        "name": "KABUPATEN LEMBATA",
        "alt_name": "KABUPATEN LEMBATA",
        "latitude": -8.41396,
        "longitude": 123.55225,
        "nama": "KABUPATEN LEMBATA",
        "doctype": "Kabupaten"
    },
    {
        "id": "5309",
        "province_id": "53",
        "name": "KABUPATEN FLORES TIMUR",
        "alt_name": "KABUPATEN FLORES TIMUR",
        "latitude": -8.24224,
        "longitude": 122.96817,
        "nama": "KABUPATEN FLORES TIMUR",
        "doctype": "Kabupaten"
    },
    {
        "id": "5310",
        "province_id": "53",
        "name": "KABUPATEN SIKKA",
        "alt_name": "KABUPATEN SIKKA",
        "latitude": -8.66667,
        "longitude": 122.36667,
        "nama": "KABUPATEN SIKKA",
        "doctype": "Kabupaten"
    },
    {
        "id": "5311",
        "province_id": "53",
        "name": "KABUPATEN ENDE",
        "alt_name": "KABUPATEN ENDE",
        "latitude": -8.84056,
        "longitude": 121.66389,
        "nama": "KABUPATEN ENDE",
        "doctype": "Kabupaten"
    },
    {
        "id": "5312",
        "province_id": "53",
        "name": "KABUPATEN NGADA",
        "alt_name": "KABUPATEN NGADA",
        "latitude": -8.66667,
        "longitude": 121,
        "nama": "KABUPATEN NGADA",
        "doctype": "Kabupaten"
    },
    {
        "id": "5313",
        "province_id": "53",
        "name": "KABUPATEN MANGGARAI",
        "alt_name": "KABUPATEN MANGGARAI",
        "latitude": -8.56667,
        "longitude": 120.41667,
        "nama": "KABUPATEN MANGGARAI",
        "doctype": "Kabupaten"
    },
    {
        "id": "5314",
        "province_id": "53",
        "name": "KABUPATEN ROTE NDAO",
        "alt_name": "KABUPATEN ROTE NDAO",
        "latitude": -10.73617,
        "longitude": 123.12054,
        "nama": "KABUPATEN ROTE NDAO",
        "doctype": "Kabupaten"
    },
    {
        "id": "5315",
        "province_id": "53",
        "name": "KABUPATEN MANGGARAI BARAT",
        "alt_name": "KABUPATEN MANGGARAI BARAT",
        "latitude": -8.64484,
        "longitude": 119.88281,
        "nama": "KABUPATEN MANGGARAI BARAT",
        "doctype": "Kabupaten"
    },
    {
        "id": "5316",
        "province_id": "53",
        "name": "KABUPATEN SUMBA TENGAH",
        "alt_name": "KABUPATEN SUMBA TENGAH",
        "latitude": -9.62941,
        "longitude": 119.61914,
        "nama": "KABUPATEN SUMBA TENGAH",
        "doctype": "Kabupaten"
    },
    {
        "id": "5317",
        "province_id": "53",
        "name": "KABUPATEN SUMBA BARAT DAYA",
        "alt_name": "KABUPATEN SUMBA BARAT DAYA",
        "latitude": -9.56216,
        "longitude": 119.08905,
        "nama": "KABUPATEN SUMBA BARAT DAYA",
        "doctype": "Kabupaten"
    },
    {
        "id": "5318",
        "province_id": "53",
        "name": "KABUPATEN NAGEKEO",
        "alt_name": "KABUPATEN NAGEKEO",
        "latitude": -8.8721,
        "longitude": 121.20963,
        "nama": "KABUPATEN NAGEKEO",
        "doctype": "Kabupaten"
    },
    {
        "id": "5319",
        "province_id": "53",
        "name": "KABUPATEN MANGGARAI TIMUR",
        "alt_name": "KABUPATEN MANGGARAI TIMUR",
        "latitude": -8.55533,
        "longitude": 120.59761,
        "nama": "KABUPATEN MANGGARAI TIMUR",
        "doctype": "Kabupaten"
    },
    {
        "id": "5320",
        "province_id": "53",
        "name": "KABUPATEN SABU RAIJUA",
        "alt_name": "KABUPATEN SABU RAIJUA",
        "latitude": -10.56286,
        "longitude": 121.78894,
        "nama": "KABUPATEN SABU RAIJUA",
        "doctype": "Kabupaten"
    },
    {
        "id": "5321",
        "province_id": "53",
        "name": "KABUPATEN MALAKA",
        "alt_name": "KABUPATEN MALAKA",
        "latitude": -9.5632,
        "longitude": 124.89481,
        "nama": "KABUPATEN MALAKA",
        "doctype": "Kabupaten"
    },
    {
        "id": "5371",
        "province_id": "53",
        "name": "KOTA KUPANG",
        "alt_name": "KOTA KUPANG",
        "latitude": -10.21667,
        "longitude": 123.6,
        "nama": "KOTA KUPANG",
        "doctype": "Kabupaten"
    },
    {
        "id": "6101",
        "province_id": "61",
        "name": "KABUPATEN SAMBAS",
        "alt_name": "KABUPATEN SAMBAS",
        "latitude": 1.41667,
        "longitude": 109.33333,
        "nama": "KABUPATEN SAMBAS",
        "doctype": "Kabupaten"
    },
    {
        "id": "6102",
        "province_id": "61",
        "name": "KABUPATEN BENGKAYANG",
        "alt_name": "KABUPATEN BENGKAYANG",
        "latitude": 1.06911,
        "longitude": 109.66393,
        "nama": "KABUPATEN BENGKAYANG",
        "doctype": "Kabupaten"
    },
    {
        "id": "6103",
        "province_id": "61",
        "name": "KABUPATEN LANDAK",
        "alt_name": "KABUPATEN LANDAK",
        "latitude": 0.42373,
        "longitude": 109.75917,
        "nama": "KABUPATEN LANDAK",
        "doctype": "Kabupaten"
    },
    {
        "id": "6104",
        "province_id": "61",
        "name": "KABUPATEN MEMPAWAH",
        "alt_name": "KABUPATEN MEMPAWAH",
        "latitude": 0.25,
        "longitude": 109.16667,
        "nama": "KABUPATEN MEMPAWAH",
        "doctype": "Kabupaten"
    },
    {
        "id": "6105",
        "province_id": "61",
        "name": "KABUPATEN SANGGAU",
        "alt_name": "KABUPATEN SANGGAU",
        "latitude": 0.25472,
        "longitude": 110.45,
        "nama": "KABUPATEN SANGGAU",
        "doctype": "Kabupaten"
    },
    {
        "id": "6106",
        "province_id": "61",
        "name": "KABUPATEN KETAPANG",
        "alt_name": "KABUPATEN KETAPANG",
        "latitude": -1.58333,
        "longitude": 110.5,
        "nama": "KABUPATEN KETAPANG",
        "doctype": "Kabupaten"
    },
    {
        "id": "6107",
        "province_id": "61",
        "name": "KABUPATEN SINTANG",
        "alt_name": "KABUPATEN SINTANG",
        "latitude": -0.08333,
        "longitude": 112.08333,
        "nama": "KABUPATEN SINTANG",
        "doctype": "Kabupaten"
    },
    {
        "id": "6108",
        "province_id": "61",
        "name": "KABUPATEN KAPUAS HULU",
        "alt_name": "KABUPATEN KAPUAS HULU",
        "latitude": 0.81667,
        "longitude": 112.76667,
        "nama": "KABUPATEN KAPUAS HULU",
        "doctype": "Kabupaten"
    },
    {
        "id": "6109",
        "province_id": "61",
        "name": "KABUPATEN SEKADAU",
        "alt_name": "KABUPATEN SEKADAU",
        "latitude": 0.03485,
        "longitude": 110.95066,
        "nama": "KABUPATEN SEKADAU",
        "doctype": "Kabupaten"
    },
    {
        "id": "6110",
        "province_id": "61",
        "name": "KABUPATEN MELAWI",
        "alt_name": "KABUPATEN MELAWI",
        "latitude": -0.33617,
        "longitude": 111.698,
        "nama": "KABUPATEN MELAWI",
        "doctype": "Kabupaten"
    },
    {
        "id": "6111",
        "province_id": "61",
        "name": "KABUPATEN KAYONG UTARA",
        "alt_name": "KABUPATEN KAYONG UTARA",
        "latitude": -1.43711,
        "longitude": 110.79781,
        "nama": "KABUPATEN KAYONG UTARA",
        "doctype": "Kabupaten"
    },
    {
        "id": "6112",
        "province_id": "61",
        "name": "KABUPATEN KUBU RAYA",
        "alt_name": "KABUPATEN KUBU RAYA",
        "latitude": 0.01637,
        "longitude": 109.33731,
        "nama": "KABUPATEN KUBU RAYA",
        "doctype": "Kabupaten"
    },
    {
        "id": "6171",
        "province_id": "61",
        "name": "KOTA PONTIANAK",
        "alt_name": "KOTA PONTIANAK",
        "latitude": -0.08333,
        "longitude": 109.36667,
        "nama": "KOTA PONTIANAK",
        "doctype": "Kabupaten"
    },
    {
        "id": "6172",
        "province_id": "61",
        "name": "KOTA SINGKAWANG",
        "alt_name": "KOTA SINGKAWANG",
        "latitude": 0.90734,
        "longitude": 109.00103,
        "nama": "KOTA SINGKAWANG",
        "doctype": "Kabupaten"
    },
    {
        "id": "6201",
        "province_id": "62",
        "name": "KABUPATEN KOTAWARINGIN BARAT",
        "alt_name": "KABUPATEN KOTAWARINGIN BARAT",
        "latitude": -2.4,
        "longitude": 111.73333,
        "nama": "KABUPATEN KOTAWARINGIN BARAT",
        "doctype": "Kabupaten"
    },
    {
        "id": "6202",
        "province_id": "62",
        "name": "KABUPATEN KOTAWARINGIN TIMUR",
        "alt_name": "KABUPATEN KOTAWARINGIN TIMUR",
        "latitude": -2.08333,
        "longitude": 112.75,
        "nama": "KABUPATEN KOTAWARINGIN TIMUR",
        "doctype": "Kabupaten"
    },
    {
        "id": "6203",
        "province_id": "62",
        "name": "KABUPATEN KAPUAS",
        "alt_name": "KABUPATEN KAPUAS",
        "latitude": -2.01667,
        "longitude": 114.38333,
        "nama": "KABUPATEN KAPUAS",
        "doctype": "Kabupaten"
    },
    {
        "id": "6204",
        "province_id": "62",
        "name": "KABUPATEN BARITO SELATAN",
        "alt_name": "KABUPATEN BARITO SELATAN",
        "latitude": -1.86667,
        "longitude": 114.73333,
        "nama": "KABUPATEN BARITO SELATAN",
        "doctype": "Kabupaten"
    },
    {
        "id": "6205",
        "province_id": "62",
        "name": "KABUPATEN BARITO UTARA",
        "alt_name": "KABUPATEN BARITO UTARA",
        "latitude": -0.98333,
        "longitude": 115.1,
        "nama": "KABUPATEN BARITO UTARA",
        "doctype": "Kabupaten"
    },
    {
        "id": "6206",
        "province_id": "62",
        "name": "KABUPATEN SUKAMARA",
        "alt_name": "KABUPATEN SUKAMARA",
        "latitude": -2.62675,
        "longitude": 111.23681,
        "nama": "KABUPATEN SUKAMARA",
        "doctype": "Kabupaten"
    },
    {
        "id": "6207",
        "province_id": "62",
        "name": "KABUPATEN LAMANDAU",
        "alt_name": "KABUPATEN LAMANDAU",
        "latitude": -1.83828,
        "longitude": 111.2869,
        "nama": "KABUPATEN LAMANDAU",
        "doctype": "Kabupaten"
    },
    {
        "id": "6208",
        "province_id": "62",
        "name": "KABUPATEN SERUYAN",
        "alt_name": "KABUPATEN SERUYAN",
        "latitude": -2.33333,
        "longitude": 112.25,
        "nama": "KABUPATEN SERUYAN",
        "doctype": "Kabupaten"
    },
    {
        "id": "6209",
        "province_id": "62",
        "name": "KABUPATEN KATINGAN",
        "alt_name": "KABUPATEN KATINGAN",
        "latitude": -2.06667,
        "longitude": 113.4,
        "nama": "KABUPATEN KATINGAN",
        "doctype": "Kabupaten"
    },
    {
        "id": "6210",
        "province_id": "62",
        "name": "KABUPATEN PULANG PISAU",
        "alt_name": "KABUPATEN PULANG PISAU",
        "latitude": -3.11858,
        "longitude": 113.8623,
        "nama": "KABUPATEN PULANG PISAU",
        "doctype": "Kabupaten"
    },
    {
        "id": "6211",
        "province_id": "62",
        "name": "KABUPATEN GUNUNG MAS",
        "alt_name": "KABUPATEN GUNUNG MAS",
        "latitude": -0.95,
        "longitude": 113.5,
        "nama": "KABUPATEN GUNUNG MAS",
        "doctype": "Kabupaten"
    },
    {
        "id": "6212",
        "province_id": "62",
        "name": "KABUPATEN BARITO TIMUR",
        "alt_name": "KABUPATEN BARITO TIMUR",
        "latitude": -1.93333,
        "longitude": 115.1,
        "nama": "KABUPATEN BARITO TIMUR",
        "doctype": "Kabupaten"
    },
    {
        "id": "6213",
        "province_id": "62",
        "name": "KABUPATEN MURUNG RAYA",
        "alt_name": "KABUPATEN MURUNG RAYA",
        "latitude": -0.01667,
        "longitude": 114.26667,
        "nama": "KABUPATEN MURUNG RAYA",
        "doctype": "Kabupaten"
    },
    {
        "id": "6271",
        "province_id": "62",
        "name": "KOTA PALANGKA RAYA",
        "alt_name": "KOTA PALANGKA RAYA",
        "latitude": -1.76979,
        "longitude": 113.73126,
        "nama": "KOTA PALANGKA RAYA",
        "doctype": "Kabupaten"
    },
    {
        "id": "6301",
        "province_id": "63",
        "name": "KABUPATEN TANAH LAUT",
        "alt_name": "KABUPATEN TANAH LAUT",
        "latitude": -3.88333,
        "longitude": 114.86667,
        "nama": "KABUPATEN TANAH LAUT",
        "doctype": "Kabupaten"
    },
    {
        "id": "6302",
        "province_id": "63",
        "name": "KABUPATEN KOTA BARU",
        "alt_name": "KABUPATEN KOTA BARU",
        "latitude": -3,
        "longitude": 116,
        "nama": "KABUPATEN KOTA BARU",
        "doctype": "Kabupaten"
    },
    {
        "id": "6303",
        "province_id": "63",
        "name": "KABUPATEN BANJAR",
        "alt_name": "KABUPATEN BANJAR",
        "latitude": -3.31667,
        "longitude": 115.08333,
        "nama": "KABUPATEN BANJAR",
        "doctype": "Kabupaten"
    },
    {
        "id": "6304",
        "province_id": "63",
        "name": "KABUPATEN BARITO KUALA",
        "alt_name": "KABUPATEN BARITO KUALA",
        "latitude": -3.08333,
        "longitude": 114.61667,
        "nama": "KABUPATEN BARITO KUALA",
        "doctype": "Kabupaten"
    },
    {
        "id": "6305",
        "province_id": "63",
        "name": "KABUPATEN TAPIN",
        "alt_name": "KABUPATEN TAPIN",
        "latitude": -2.91667,
        "longitude": 115.03333,
        "nama": "KABUPATEN TAPIN",
        "doctype": "Kabupaten"
    },
    {
        "id": "6306",
        "province_id": "63",
        "name": "KABUPATEN HULU SUNGAI SELATAN",
        "alt_name": "KABUPATEN HULU SUNGAI SELATAN",
        "latitude": -2.75,
        "longitude": 115.2,
        "nama": "KABUPATEN HULU SUNGAI SELATAN",
        "doctype": "Kabupaten"
    },
    {
        "id": "6307",
        "province_id": "63",
        "name": "KABUPATEN HULU SUNGAI TENGAH",
        "alt_name": "KABUPATEN HULU SUNGAI TENGAH",
        "latitude": -2.61667,
        "longitude": 115.41667,
        "nama": "KABUPATEN HULU SUNGAI TENGAH",
        "doctype": "Kabupaten"
    },
    {
        "id": "6308",
        "province_id": "63",
        "name": "KABUPATEN HULU SUNGAI UTARA",
        "alt_name": "KABUPATEN HULU SUNGAI UTARA",
        "latitude": -2.45,
        "longitude": 115.13333,
        "nama": "KABUPATEN HULU SUNGAI UTARA",
        "doctype": "Kabupaten"
    },
    {
        "id": "6309",
        "province_id": "63",
        "name": "KABUPATEN TABALONG",
        "alt_name": "KABUPATEN TABALONG",
        "latitude": -1.88333,
        "longitude": 115.5,
        "nama": "KABUPATEN TABALONG",
        "doctype": "Kabupaten"
    },
    {
        "id": "6310",
        "province_id": "63",
        "name": "KABUPATEN TANAH BUMBU",
        "alt_name": "KABUPATEN TANAH BUMBU",
        "latitude": -3.45413,
        "longitude": 115.70372,
        "nama": "KABUPATEN TANAH BUMBU",
        "doctype": "Kabupaten"
    },
    {
        "id": "6311",
        "province_id": "63",
        "name": "KABUPATEN BALANGAN",
        "alt_name": "KABUPATEN BALANGAN",
        "latitude": -2.32314,
        "longitude": 115.62922,
        "nama": "KABUPATEN BALANGAN",
        "doctype": "Kabupaten"
    },
    {
        "id": "6371",
        "province_id": "63",
        "name": "KOTA BANJARMASIN",
        "alt_name": "KOTA BANJARMASIN",
        "latitude": -3.32444,
        "longitude": 114.59102,
        "nama": "KOTA BANJARMASIN",
        "doctype": "Kabupaten"
    },
    {
        "id": "6372",
        "province_id": "63",
        "name": "KOTA BANJAR BARU",
        "alt_name": "KOTA BANJAR BARU",
        "latitude": -3.41667,
        "longitude": 114.83333,
        "nama": "KOTA BANJAR BARU",
        "doctype": "Kabupaten"
    },
    {
        "id": "6401",
        "province_id": "64",
        "name": "KABUPATEN PASER",
        "alt_name": "KABUPATEN PASER",
        "latitude": -1.43517,
        "longitude": 116.23535,
        "nama": "KABUPATEN PASER",
        "doctype": "Kabupaten"
    },
    {
        "id": "6402",
        "province_id": "64",
        "name": "KABUPATEN KUTAI BARAT",
        "alt_name": "KABUPATEN KUTAI BARAT",
        "latitude": -0.59417,
        "longitude": 115.51575,
        "nama": "KABUPATEN KUTAI BARAT",
        "doctype": "Kabupaten"
    },
    {
        "id": "6403",
        "province_id": "64",
        "name": "KABUPATEN KUTAI KARTANEGARA",
        "alt_name": "KABUPATEN KUTAI KARTANEGARA",
        "latitude": -0.44019,
        "longitude": 116.98139,
        "nama": "KABUPATEN KUTAI KARTANEGARA",
        "doctype": "Kabupaten"
    },
    {
        "id": "6404",
        "province_id": "64",
        "name": "KABUPATEN KUTAI TIMUR",
        "alt_name": "KABUPATEN KUTAI TIMUR",
        "latitude": 1.03769,
        "longitude": 117.83112,
        "nama": "KABUPATEN KUTAI TIMUR",
        "doctype": "Kabupaten"
    },
    {
        "id": "6405",
        "province_id": "64",
        "name": "KABUPATEN BERAU",
        "alt_name": "KABUPATEN BERAU",
        "latitude": 2,
        "longitude": 117.3,
        "nama": "KABUPATEN BERAU",
        "doctype": "Kabupaten"
    },
    {
        "id": "6409",
        "province_id": "64",
        "name": "KABUPATEN PENAJAM PASER UTARA",
        "alt_name": "KABUPATEN PENAJAM PASER UTARA",
        "latitude": -1.25,
        "longitude": 116.83333,
        "nama": "KABUPATEN PENAJAM PASER UTARA",
        "doctype": "Kabupaten"
    },
    {
        "id": "6411",
        "province_id": "64",
        "name": "KABUPATEN MAHAKAM HULU",
        "alt_name": "KABUPATEN MAHAKAM HULU",
        "latitude": 0.37822,
        "longitude": 115.38048,
        "nama": "KABUPATEN MAHAKAM HULU",
        "doctype": "Kabupaten"
    },
    {
        "id": "6471",
        "province_id": "64",
        "name": "KOTA BALIKPAPAN",
        "alt_name": "KOTA BALIKPAPAN",
        "latitude": -1.16667,
        "longitude": 116.88333,
        "nama": "KOTA BALIKPAPAN",
        "doctype": "Kabupaten"
    },