[
 {
  "alt_name": "KABUPATEN SIMEULUE",
  "docstatus": 0,
  "doctype": "Kabupaten",
  "id": 1101,
  "latitude": "2.61667",
  "longitude": "96.08333",
  "modified": "2024-10-04 23:25:39.657878",
  "nama": "KABUPATEN SIMEULUE",
  "name": "KABUPATEN SIMEULUE",
  "province_id": "11"
 },
 {
  "alt_name": "KABUPATEN ACEH SINGKIL",
  "docstatus": 0,
  "doctype": "Kabupaten",
  "id": 1102,
  "latitude": "2.41667",
  "longitude": "97.91667",
  "modified": "2024-10-04 23:25:39.694916",
  "nama": "KABUPATEN ACEH SINGKIL",
  "name": "KABUPATEN ACEH SINGKIL",
  "province_id": "11"
 },
 {
  "alt_name": "KABUPATEN ACEH SELATAN",
  "docstatus": 0,
  "doctype": "Kabupaten",
  "id": 1103,
  "latitude": "3.16667",
  "longitude": "97.41667",
  "modified": "2024-10-04 23:25:39.704000",
  "nama": "KABUPATEN ACEH SELATAN",
  "name": "KABUPATEN ACEH SELATAN",
  "province_id": "11"
 },
 {
  "alt_name": "KABUPATEN ACEH TENGGARA",
  "docstatus": 0,
  "doctype": "Kabupaten",
  "id": 1104,
  "latitude": "3.36667",
  "longitude": "97.7",
  "modified": "2024-10-04 23:25:39.712306",
  "nama": "KABUPATEN ACEH TENGGARA",
  "name": "KABUPATEN ACEH TENGGARA",
  "province_id": "11"
 },
 {
  "alt_name": "KABUPATEN ACEH TIMUR",
  "docstatus": 0,
  "doctype": "Kabupaten",
  "id": 1105,
  "latitude": "4.63333",
  "longitude": "97.63333",
  "modified": "2024-10-04 23:25:39.721084",
  "nama": "KABUPATEN ACEH TIMUR",
  "name": "KABUPATEN ACEH TIMUR",
  "province_id": "11"
 },
 {
  "alt_name": "KABUPATEN ACEH TENGAH",
  "docstatus": 0,
  "doctype": "Kabupaten",
  "id": 1106,
  "latitude": "4.51",
  "longitude": "96.855",
  "modified": "2024-10-04 23:25:39.730026",
  "nama": "KABUPATEN ACEH TENGAH",
  "name": "KABUPATEN ACEH TENGAH",
  "province_id": "11"
 },
 {
  "alt_name": "KABUPATEN ACEH BARAT",
  "docstatus": 0,
  "doctype": "Kabupaten",
  "id": 1107,
  "latitude": "4.45",
  "longitude": "96.16667",
  "modified": "2024-10-04 23:25:39.739286",
  "nama": "KABUPATEN ACEH BARAT",
  "name": "KABUPATEN ACEH BARAT",
  "province_id": "11"
 },
 {
  "alt_name": "KABUPATEN ACEH BESAR",
  "docstatus": 0,
  "doctype": "Kabupaten",
  "id": 1108,
  "latitude": "5.38333",
  "longitude": "95.51667",
  "modified": "2024-10-04 23:25:39.749538",
  "nama": "KABUPATEN ACEH BESAR",
  "name": "KABUPATEN ACEH BESAR",
  "province_id": "11"
 },
 {
  "alt_name": "KABUPATEN PIDIE",
  "docstatus": 0,
  "doctype": "Kabupaten",
  "id": 1109,
  "latitude": "5.08",
  "longitude": "96.11",
  "modified": "2024-10-04 23:25:39.758252",
  "nama": "KABUPATEN PIDIE",
  "name": "KABUPATEN PIDIE",
  "province_id": "11"
 },
 {
  "alt_name": "KABUPATEN BIREUEN",
  "docstatus": 0,
  "doctype": "Kabupaten",
  "id": 1110,
  "latitude": "5.08333",
  "longitude": "96.58333",
  "modified": "2024-10-04 23:25:39.767584",
  "nama": "KABUPATEN BIREUEN",
  "name": "KABUPATEN BIREUEN",
  "province_id": "11"
 },
 {
  "alt_name": "KABUPATEN ACEH UTARA",
  "docstatus": 0,
  "doctype": "Kabupaten",
  "id": 1111,
  "latitude": "4.97",
  "longitude": "97.14",
  "modified": "2024-10-04 23:25:39.777619",
  "nama": "KABUPATEN ACEH UTARA",
  "name": "KABUPATEN ACEH UTARA",
  "province_id": "11"
 },
 {
  "alt_name": "KABUPATEN ACEH BARAT DAYA",
  "docstatus": 0,
  "doctype": "Kabupaten",
  "id": 1112,
  "latitude": "3.83333",
  "longitude": "96.88333",
  "modified": "2024-10-04 23:25:39.789409",
  "nama": "KABUPATEN ACEH BARAT DAYA",
  "name": "KABUPATEN ACEH BARAT DAYA",
  "province_id": "11"
 },
 {
  "alt_name": "KABUPATEN GAYO LUES",
  "docstatus": 0,
  "doctype": "Kabupaten",
  "id": 1113,
  "latitude": "3.95",
  "longitude": "97.39",
  "modified": "2024-10-04 23:25:39.797918",
  "nama": "KABUPATEN GAYO LUES",
  "name": "KABUPATEN GAYO LUES",
  "province_id": "11"
 },
 {
  "alt_name": "KABUPATEN ACEH TAMIANG",
  "docstatus": 0,
  "doctype": "Kabupaten",
  "id": 1114,
  "latitude": "4.25",
  "longitude": "97.96667",
  "modified": "2024-10-04 23:25:39.806631",
  "nama": "KABUPATEN ACEH TAMIANG",
  "name": "KABUPATEN ACEH TAMIANG",
  "province_id": "11"
 },
 {
  "alt_name": "KABUPATEN NAGAN RAYA",
  "docstatus": 0,
  "doctype": "Kabupaten",
  "id": 1115,
  "latitude": "4.16667",
  "longitude": "96.51667",
  "modified": "2024-10-04 23:25:39.815690",
  "nama": "KABUPATEN NAGAN RAYA",
  "name": "KABUPATEN NAGAN RAYA",
  "province_id": "11"
 },
 {
  "alt_name": "KABUPATEN ACEH JAYA",
  "docstatus": 0,
  "doctype": "Kabupaten",
  "id": 1116,
  "latitude": "4.86",
  "longitude": "95.64",
  "modified": "2024-10-04 23:25:39.824298",
  "nama": "KABUPATEN ACEH JAYA",
  "name": "KABUPATEN ACEH JAYA",
  "province_id": "11"
 },
 {
  "alt_name": "KABUPATEN BENER MERIAH",
  "docstatus": 0,
  "doctype": "Kabupaten",
  "id": 1117,
  "latitude": "4.73015",
  "longitude": "96.86156",
  "modified": "2024-10-04 23:25:39.833094",
  "nama": "KABUPATEN BENER MERIAH",
  "name": "KABUPATEN BENER MERIAH",
  "province_id": "11"
 },
 {
  "alt_name": "KABUPATEN PIDIE JAYA",
  "docstatus": 0,
  "doctype": "Kabupaten",
  "id": 1118,
  "latitude": "5.15",
  "longitude": "96.21667",
  "modified": "2024-10-04 23:25:39.843230",
  "nama": "KABUPATEN PIDIE JAYA",
  "name": "KABUPATEN PIDIE JAYA",
  "province_id": "11"
 },
 {
  "alt_name": "KOTA BANDA ACEH",
  "docstatus": 0,
  "doctype": "Kabupaten",
  "id": 1171,
  "latitude": "5.54167",
  "longitude": "95.33333",
  "modified": "2024-10-04 23:25:39.854551",
  "nama": "KOTA BANDA ACEH",
  "name": "KOTA BANDA ACEH",
  "province_id": "11"
 },
 {
  "alt_name": "KOTA SABANG",
  "docstatus": 0,
  "doctype": "Kabupaten",
  "id": 1172,
  "latitude": "5.82164",
  "longitude": "95.31086",
  "modified": "2024-10-04 23:25:39.862507",
  "nama": "KOTA SABANG",
  "name": "KOTA SABANG",
  "province_id": "11"
 },
 {
  "alt_name": "KOTA LANGSA",
  "docstatus": 0,
  "doctype": "Kabupaten",
  "id": 1173,
  "latitude": "4.47",
  "longitude": "97.93",
  "modified": "2024-10-04 23:25:39.871457",
  "nama": "KOTA LANGSA",
  "name": "KOTA LANGSA",
  "province_id": "11"
 },
 {
  "alt_name": "KOTA LHOKSEUMAWE",
  "docstatus": 0,
  "doctype": "Kabupaten",
  "id": 1174,
  "latitude": "5.13333",
  "longitude": "97.06667",
  "modified": "2024-10-04 23:25:39.880975",
  "nama": "KOTA LHOKSEUMAWE",
  "name": "KOTA LHOKSEUMAWE",
  "province_id": "11"
 },
 {
  "alt_name": "KOTA SUBULUSSALAM",
  "docstatus": 0,
  "doctype": "Kabupaten",
  "id": 1175,
  "latitude": "2.75",
  "longitude": "97.93333",
  "modified": "2024-10-04 23:25:39.891594",
  "nama": "KOTA SUBULUSSALAM",
  "name": "KOTA SUBULUSSALAM",
  "province_id": "11"
 },
 {
  "alt_name": "KABUPATEN NIAS",
  "docstatus": 0,
  "doctype": "Kabupaten",
  "id": 1201,
  "latitude": "1.03333",
  "longitude": "97.76667",
  "modified": "2024-10-04 23:25:39.903896",
  "nama": "KABUPATEN NIAS",
  "name": "KABUPATEN NIAS",
  "province_id": "12"
 },
 {
  "alt_name": "KABUPATEN MANDAILING NATAL",
  "docstatus": 0,
  "doctype": "Kabupaten",
  "id": 1202,
  "latitude": "0.78378",
  "longitude": "99.25495",
  "modified": "2024-10-04 23:25:39.911783",
  "nama": "KABUPATEN MANDAILING NATAL",
  "name": "KABUPATEN MANDAILING NATAL",
  "province_id": "12"
 },
 {
  "alt_name": "KABUPATEN TAPANULI SELATAN",
  "docstatus": 0,
  "doctype": "Kabupaten",
  "id": 1203,
  "latitude": "1.51667",
  "longitude": "99.25",
  "modified": "2024-10-04 23:25:39.920548",
  "nama": "KABUPATEN TAPANULI SELATAN",
  "name": "KABUPATEN TAPANULI SELATAN",
  "province_id": "12"
 },
 {
  "alt_name": "KABUPATEN TAPANULI TENGAH",
  "docstatus": 0,
  "doctype": "Kabupaten",
  "id": 1204,
  "latitude": "1.9",
  "longitude": "98.66667",
  "modified": "2024-10-04 23:25:39.928689",
  "nama": "KABUPATEN TAPANULI TENGAH",
  "name": "KABUPATEN TAPANULI TENGAH",
  "province_id": "12"
 },
 {
  "alt_name": "KABUPATEN TAPANULI UTARA",
  "docstatus": 0,
  "doctype": "Kabupaten",
  "id": 1205,
  "latitude": "2.0028",
  "longitude": "99.0707",
  "modified": "2024-10-04 23:25:39.936769",
  "nama": "KABUPATEN TAPANULI UTARA",
  "name": "KABUPATEN TAPANULI UTARA",
  "province_id": "12"
 },
 {
  "alt_name": "KABUPATEN TOBA SAMOSIR",
  "docstatus": 0,
  "doctype": "Kabupaten",
  "id": 1206,
  "latitude": "2.39793",
  "longitude": "99.21678",
  "modified": "2024-10-04 23:25:39.947321",
  "nama": "KABUPATEN TOBA SAMOSIR",
  "name": "KABUPATEN TOBA SAMOSIR",
  "province_id": "12"
 },
 {
  "alt_name": "KABUPATEN LABUHAN BATU",
  "docstatus": 0,
  "doctype": "Kabupaten",
  "id": 1207,
  "latitude": "2.26667",
  "longitude": "100.1",
  "modified": "2024-10-04 23:25:39.957951",
  "nama": "KABUPATEN LABUHAN BATU",
  "name": "KABUPATEN LABUHAN BATU",
  "province_id": "12"
 },
 {
  "alt_name": "KABUPATEN ASAHAN",
  "docstatus": 0,
  "doctype": "Kabupaten",
  "id": 1208,
  "latitude": "2.78333",
  "longitude": "99.55",
  "modified": "2024-10-04 23:25:39.965653",
  "nama": "KABUPATEN ASAHAN",
  "name": "KABUPATEN ASAHAN",
  "province_id": "12"
 },
 {
  "alt_name": "KABUPATEN SIMALUNGUN",
  "docstatus": 0,
  "doctype": "Kabupaten",
  "id": 1209,
  "latitude": "2.9",
  "longitude": "99",
  "modified": "2024-10-04 23:25:39.974022",
  "nama": "KABUPATEN SIMALUNGUN",
  "name": "KABUPATEN SIMALUNGUN",
  "province_id": "12"
 },
 {
  "alt_name": "KABUPATEN DAIRI",
  "docstatus": 0,
  "doctype": "Kabupaten",
  "id": 1210,
  "latitude": "2.86667",
  "longitude": "98.23333",
  "modified": "2024-10-04 23:25:39.982863",
  "nama": "KABUPATEN DAIRI",
  "name": "KABUPATEN DAIRI",
  "province_id": "12"
 },
 {
  "alt_name": "KABUPATEN KARO",
  "docstatus": 0,
  "doctype": "Kabupaten",
  "id": 1211,
  "latitude": "3.11667",
  "longitude": "98.3",
  "modified": "2024-10-04 23:25:39.993244",
  "nama": "KABUPATEN KARO",
  "name": "KABUPATEN KARO",
  "province_id": "12"
 },
 {
  "alt_name": "KABUPATEN DELI SERDANG",
  "docstatus": 0,
  "doctype": "Kabupaten",
  "id": 1212,
  "latitude": "3.41667",
  "longitude": "98.66667",
  "modified": "2024-10-04 23:25:40.000839",
  "nama": "KABUPATEN DELI SERDANG",
  "name": "KABUPATEN DELI SERDANG",
  "province_id": "12"
 },
 {
  "alt_name": "KABUPATEN LANGKAT",
  "docstatus": 0,
  "doctype": "Kabupaten",
  "id": 1213,
  "latitude": "3.71667",
  "longitude": "98.21667",
  "modified": "2024-10-04 23:25:40.009536",
  "nama": "KABUPATEN LANGKAT",
  "name": "KABUPATEN LANGKAT",
  "province_id": "12"
 },
 {
  "alt_name": "KABUPATEN NIAS SELATAN",
  "docstatus": 0,
  "doctype": "Kabupaten",
  "id": 1214,
  "latitude": "0.77",
  "longitude": "97.75",
  "modified": "2024-10-04 23:25:40.018263",
  "nama": "KABUPATEN NIAS SELATAN",
  "name": "KABUPATEN NIAS SELATAN",
  "province_id": "12"
 },
 {
  "alt_name": "KABUPATEN HUMBANG HASUNDUTAN",
  "docstatus": 0,
  "doctype": "Kabupaten",
  "id": 1215,
  "latitude": "2.26551",
  "longitude": "98.50376",
  "modified": "2024-10-04 23:25:40.026789",
  "nama": "KABUPATEN HUMBANG HASUNDUTAN",
  "name": "KABUPATEN HUMBANG HASUNDUTAN",
  "province_id": "12"
 },
 {
  "alt_name": "KABUPATEN PAKPAK BHARAT",
  "docstatus": 0,
  "doctype": "Kabupaten",
  "id": 1216,
  "latitude": "2.56667",
  "longitude": "98.28333",
  "modified": "2024-10-04 23:25:40.035724",
  "nama": "KABUPATEN PAKPAK BHARAT",
  "name": "KABUPATEN PAKPAK BHARAT",
  "province_id": "12"
 },
 {
  "alt_name": "KABUPATEN SAMOSIR",
  "docstatus": 0,
  "doctype": "Kabupaten",
  "id": 1217,
  "latitude": "2.64025",
  "longitude": "98.71525",
  "modified": "2024-10-04 23:25:40.044464",
  "nama": "KABUPATEN SAMOSIR",
  "name": "KABUPATEN SAMOSIR",
  "province_id": "12"
 },
 {
  "alt_name": "KABUPATEN SERDANG BEDAGAI",
  "docstatus": 0,
  "doctype": "Kabupaten",
  "id": 1218,
  "latitude": "3.36667",
  "longitude": "99.03333",
  "modified": "2024-10-04 23:25:40.054513",
  "nama": "KABUPATEN SERDANG BEDAGAI",
  "name": "KABUPATEN SERDANG BEDAGAI",
  "province_id": "12"
 },
 {
  "alt_name": "KABUPATEN BATU BARA",
  "docstatus": 0,
  "doctype": "Kabupaten",
  "id": 1219,
  "latitude": "3.16166",
  "longitude": "99.52652",
  "modified": "2024-10-04 23:25:40.063200",
  "nama": "KABUPATEN BATU BARA",
  "name": "KABUPATEN BATU BARA",
  "province_id": "12"
 },
 {
  "alt_name": "KABUPATEN PADANG LAWAS UTARA",
  "docstatus": 0,
  "doctype": "Kabupaten",
  "id": 1220,
  "latitude": "1.46011",
  "longitude": "99.67346",
  "modified": "2024-10-04 23:25:40.071618",
  "nama": "KABUPATEN PADANG LAWAS UTARA",
  "name": "KABUPATEN PADANG LAWAS UTARA",
  "province_id": "12"
 },
 {
  "alt_name": "KABUPATEN PADANG LAWAS",
  "docstatus": 0,
  "doctype": "Kabupaten",
  "id": 1221,
  "latitude": "1.44684",
  "longitude": "99.99207",
  "modified": "2024-10-04 23:25:40.080640",
  "nama": "KABUPATEN PADANG LAWAS",
  "name": "KABUPATEN PADANG LAWAS",
  "province_id": "12"
 },
 {
  "alt_name": "KABUPATEN LABUHAN BATU SELATAN",
  "docstatus": 0,
  "doctype": "Kabupaten",
  "id": 1222,
  "latitude": "1.983",
  "longitude": "100.0976",
  "modified": "2024-10-04 23:25:40.089581",
  "nama": "KABUPATEN LABUHAN BATU SELATAN",
  "name": "KABUPATEN LABUHAN BATU SELATAN",
  "province_id": "12"
 },
 {
  "alt_name": "KABUPATEN LABUHAN BATU UTARA",
  "docstatus": 0,
  "doctype": "Kabupaten",
  "id": 1223,
  "latitude": "2.33349",
  "longitude": "99.63776",
  "modified": "2024-10-04 23:25:40.099990",
  "nama": "KABUPATEN LABUHAN BATU UTARA",
  "name": "KABUPATEN LABUHAN BATU UTARA",
  "province_id": "12"
 },
 {
  "alt_name": "KABUPATEN NIAS UTARA",
  "docstatus": 0,
  "doctype": "Kabupaten",
  "id": 1224,
  "latitude": "1.33037",
  "longitude": "97.31964",
  "modified": "2024-10-04 23:25:40.107077",
  "nama": "KABUPATEN NIAS UTARA",
  "name": "KABUPATEN NIAS UTARA",
  "province_id": "12"
 },
 {
  "alt_name": "KABUPATEN NIAS BARAT",
  "docstatus": 0,
  "doctype": "Kabupaten",
  "id": 1225,
  "latitude": "1.05966",
  "longitude": "97.58606",
  "modified": "2024-10-04 23:25:40.115644",
  "nama": "KABUPATEN NIAS BARAT",
  "name": "KABUPATEN NIAS BARAT",
  "province_id": "12"
 },
 {
  "alt_name": "KOTA SIBOLGA",
  "docstatus": 0,
  "doctype": "Kabupaten",
  "id": 1271,
  "latitude": "1.73333",
  "longitude": "98.8",
  "modified": "2024-10-04 23:25:40.124128",
  "nama": "KOTA SIBOLGA",
  "name": "KOTA SIBOLGA",
  "province_id": "12"
 },
 {
  "alt_name": "KOTA TANJUNG BALAI",
  "docstatus": 0,
  "doctype": "Kabupaten",
  "id": 1272,
  "latitude": "2.95833",
  "longitude": "99.79167",
  "modified": "2024-10-04 23:25:40.132563",
  "nama": "KOTA TANJUNG BALAI",
  "name": "KOTA TANJUNG BALAI",
  "province_id": "12"
 },
 {
  "alt_name": "KOTA PEMATANG SIANTAR",
  "docstatus": 0,
  "doctype": "Kabupaten",
  "id": 1273,
  "latitude": "2.96667",
  "longitude": "99.05",
  "modified": "2024-10-04 23:25:40.141751",
  "nama": "KOTA PEMATANG SIANTAR",
  "name": "KOTA PEMATANG SIANTAR",
  "province_id": "12"
 },
 {
  "alt_name": "KOTA TEBING TINGGI",
  "docstatus": 0,
  "doctype": "Kabupaten",
  "id": 1274,
  "latitude": "3.325",
  "longitude": "99.14167",
  "modified": "2024-10-04 23:25:40.153806",
  "nama": "KOTA TEBING TINGGI",
  "name": "KOTA TEBING TINGGI",
  "province_id": "12"
 },
 {
  "alt_name": "KOTA MEDAN",
  "docstatus": 0,
  "doctype": "Kabupaten",
  "id": 1275,
  "latitude": "3.65",
  "longitude": "98.66667",
  "modified": "2024-10-04 23:25:40.164793",
  "nama": "KOTA MEDAN",
  "name": "KOTA MEDAN",
  "province_id": "12"
 },
 {
  "alt_name": "KOTA BINJAI",
  "docstatus": 0,
  "doctype": "Kabupaten",
  "id": 1276,
  "latitude": "3.8",
  "longitude": "108.23333",
  "modified": "2024-10-04 23:25:40.171726",
  "nama": "KOTA BINJAI",
  "name": "KOTA BINJAI",
  "province_id": "12"
 },
 {
  "alt_name": "KOTA PADANG SIDEMPUAN",
  "docstatus": 0,
  "doctype": "Kabupaten",
  "id": 1277,
  "latitude": "1.37375",
  "longitude": "99.26843",
  "modified": "2024-10-04 23:25:40.180550",
  "nama": "KOTA PADANG SIDEMPUAN",
  "name": "KOTA PADANG SIDEMPUAN",
  "province_id": "12"
 },
 {
  "alt_name": "KOTA GUNUNGSITOLI",
  "docstatus": 0,
  "doctype": "Kabupaten",
  "id": 1278,
  "latitude": "1.32731",
  "longitude": "97.55018",
  "modified": "2024-10-04 23:25:40.189381",
  "nama": "KOTA GUNUNGSITOLI",
  "name": "KOTA GUNUNGSITOLI",
  "province_id": "12"
 },
 {
  "alt_name": "KABUPATEN KEPULAUAN MENTAWAI",
  "docstatus": 0,
  "doctype": "Kabupaten",
  "id": 1301,
  "latitude": "1.98917",
  "longitude": "99.51889",
  "modified": "2024-10-04 23:25:40.198791",
  "nama": "KABUPATEN KEPULAUAN MENTAWAI",
  "name": "KABUPATEN KEPULAUAN MENTAWAI",
  "province_id": "13"
 },
 {
  "alt_name": "KABUPATEN PESISIR SELATAN",
  "docstatus": 0,
  "doctype": "Kabupaten",
  "id": 1302,
  "latitude": "-1.58333",
  "longitude": "100.85",
  "modified": "2024-10-04 23:25:40.208511",
  "nama": "KABUPATEN PESISIR SELATAN",
  "name": "KABUPATEN PESISIR SELATAN",
  "province_id": "13"
 },
 {
  "alt_name": "KABUPATEN SOLOK",
  "docstatus": 0,
  "doctype": "Kabupaten",
  "id": 1303,
  "latitude": "-0.96667",
  "longitude": "100.81667",
  "modified": "2024-10-04 23:25:40.215711",
  "nama": "KABUPATEN SOLOK",
  "name": "KABUPATEN SOLOK",
  "province_id": "13"
 },
 {
  "alt_name": "KABUPATEN SIJUNJUNG",
  "docstatus": 0,
  "doctype": "Kabupaten",
  "id": 1304,
  "latitude": "-1.1827",
  "longitude": "101.6056",
  "modified": "2024-10-04 23:25:40.224417",
  "nama": "KABUPATEN SIJUNJUNG",
  "name": "KABUPATEN SIJUNJUNG",
  "province_id": "13"
 },
 {
  "alt_name": "KABUPATEN TANAH DATAR",
  "docstatus": 0,
  "doctype": "Kabupaten",
  "id": 1305,
  "latitude": "-0.4555",
  "longitude": "100.5771",
  "modified": "2024-10-04 23:25:40.233334",
  "nama": "KABUPATEN TANAH DATAR",
  "name": "KABUPATEN TANAH DATAR",
  "province_id": "13"
 },
 {
  "alt_name": "KABUPATEN PADANG PARIAMAN",
  "docstatus": 0,
  "doctype": "Kabupaten",
  "id": 1306,
  "latitude": "-0.6",
  "longitude": "100.28333",
  "modified": "2024-10-04 23:25:40.242601",
  "nama": "KABUPATEN PADANG PARIAMAN",
  "name": "KABUPATEN PADANG PARIAMAN",
  "province_id": "13"
 },
 {
  "alt_name": "KABUPATEN AGAM",
  "docstatus": 0,
  "doctype": "Kabupaten",
  "id": 1307,
  "latitude": "-0.25",
  "longitude": "100.16667",
  "modified": "2024-10-04 23:25:40.251912",
  "nama": "KABUPATEN AGAM",
  "name": "KABUPATEN AGAM",
  "province_id": "13"
 },
 {
  "alt_name": "KABUPATEN LIMA PULUH KOTA",
  "docstatus": 0,
  "doctype": "Kabupaten",
  "id": 1308,
  "latitude": "-0.0168",
  "longitude": "100.5872",
  "modified": "2024-10-04 23:25:40.264288",
  "nama": "KABUPATEN LIMA PULUH KOTA",
  "name": "KABUPATEN LIMA PULUH KOTA",
  "province_id": "13"
 },
 {
  "alt_name": "KABUPATEN PASAMAN",
  "docstatus": 0,
  "doctype": "Kabupaten",
  "id": 1309,
  "latitude": "0.42503",
  "longitude": "99.94606",
  "modified": "2024-10-04 23:25:40.276053",
  "nama": "KABUPATEN PASAMAN",
  "name": "KABUPATEN PASAMAN",
  "province_id": "13"
 },
 {
  "alt_name": "KABUPATEN SOLOK SELATAN",
  "docstatus": 0,
  "doctype": "Kabupaten",
  "id": 1310,
  "latitude": "-1.23333",
  "longitude": "101.417",
  "modified": "2024-10-04 23:25:40.284035",
  "nama": "KABUPATEN SOLOK SELATAN",
  "name": "KABUPATEN SOLOK SELATAN",
  "province_id": "13"
 },
 {
  "alt_name": "KABUPATEN DHARMASRAYA",
  "docstatus": 0,
  "doctype": "Kabupaten",
  "id": 1311,
  "latitude": "-1.05",
  "longitude": "101.367",
  "modified": "2024-10-04 23:25:40.293936",
  "nama": "KABUPATEN DHARMASRAYA",
  "name": "KABUPATEN DHARMASRAYA",
  "province_id": "13"
 },
 {
  "alt_name": "KABUPATEN PASAMAN BARAT",
  "docstatus": 0,
  "doctype": "Kabupaten",
  "id": 1312,
  "latitude": "0.28152",
  "longitude": "99.51965",
  "modified": "2024-10-04 23:25:40.305446",
  "nama": "KABUPATEN PASAMAN BARAT",
  "name": "KABUPATEN PASAMAN BARAT",
  "province_id": "13"
 },
 {
  "alt_name": "KOTA PADANG",
  "docstatus": 0,
  "doctype": "Kabupaten",
  "id": 1371,
  "latitude": "-0.98333",
  "longitude": "100.45",
  "modified": "2024-10-04 23:25:40.314055",
  "nama": "KOTA PADANG",
  "name": "KOTA PADANG",
  "province_id": "13"
 },
 {
  "alt_name": "KOTA SOLOK",
  "docstatus": 0,
  "doctype": "Kabupaten",
  "id": 1372,
  "latitude": "-0.76667",
  "longitude": "100.61667",
  "modified": "2024-10-04 23:25:40.323215",
  "nama": "KOTA SOLOK",
  "name": "KOTA SOLOK",
  "province_id": "13"
 },
 {
  "alt_name": "KOTA SAWAH LUNTO",
  "docstatus": 0,
  "doctype": "Kabupaten",
  "id": 1373,
  "latitude": "-0.6",
  "longitude": "100.75",
  "modified": "2024-10-04 23:25:40.331942",
  "nama": "KOTA SAWAH LUNTO",
  "name": "KOTA SAWAH LUNTO",
  "province_id": "13"
 },
 {
  "alt_name": "KOTA PADANG PANJANG",
  "docstatus": 0,
  "doctype": "Kabupaten",
  "id": 1374,
  "latitude": "-0.45",
  "longitude": "100.43333",
  "modified": "2024-10-04 23:25:40.340562",
  "nama": "KOTA PADANG PANJANG",
  "name": "KOTA PADANG PANJANG",
  "province_id": "13"
 },
 {
  "alt_name": "KOTA BUKITTINGGI",
  "docstatus": 0,
  "doctype": "Kabupaten",
  "id": 1375,
  "latitude": "-0.275",
  "longitude": "100.375",
  "modified": "2024-10-04 23:25:40.349317",
  "nama": "KOTA BUKITTINGGI",
  "name": "KOTA BUKITTINGGI",
  "province_id": "13"
 },
 {
  "alt_name": "KOTA PAYAKUMBUH",
  "docstatus": 0,
  "doctype": "Kabupaten",
  "id": 1376,
  "latitude": "-0.23333",
  "longitude": "100.63333",
  "modified": "2024-10-04 23:25:40.358091",
  "nama": "KOTA PAYAKUMBUH",
  "name": "KOTA PAYAKUMBUH",
  "province_id": "13"
 },
 {
  "alt_name": "KOTA PARIAMAN",
  "docstatus": 0,
  "doctype": "Kabupaten",
  "id": 1377,
  "latitude": "-0.62682",
  "longitude": "100.12047",
  "modified": "2024-10-04 23:25:40.367443",
  "nama": "KOTA PARIAMAN",
  "name": "KOTA PARIAMAN",
  "province_id": "13"
 },
 {
  "alt_name": "KABUPATEN KUANTAN SINGINGI",
  "docstatus": 0,
  "doctype": "Kabupaten",
  "id": 1401,
  "latitude": "-0.47532",
  "longitude": "101.45857",
  "modified": "2024-10-04 23:25:40.376954",
  "nama": "KABUPATEN KUANTAN SINGINGI",
  "name": "KABUPATEN KUANTAN SINGINGI",
  "province_id": "14"
 },
 {
  "alt_name": "KABUPATEN INDRAGIRI HULU",
  "docstatus": 0,
  "doctype": "Kabupaten",
  "id": 1402,
  "latitude": "-0.55",
  "longitude": "102.31667",
  "modified": "2024-10-04 23:25:40.385675",
  "nama": "KABUPATEN INDRAGIRI HULU",
  "name": "KABUPATEN INDRAGIRI HULU",
  "province_id": "14"
 },
 {
  "alt_name": "KABUPATEN INDRAGIRI HILIR",
  "docstatus": 0,
  "doctype": "Kabupaten",
  "id": 1403,
  "latitude": "-0.33333",
  "longitude": "103.16667",
  "modified": "2024-10-04 23:25:40.394985",
  "nama": "KABUPATEN INDRAGIRI HILIR",
  "name": "KABUPATEN INDRAGIRI HILIR",
  "province_id": "14"
 },
 {
  "alt_name": "KABUPATEN PELALAWAN",
  "docstatus": 0,
  "doctype": "Kabupaten",
  "id": 1404,
  "latitude": "0.20822",
  "longitude": "102.18607",
  "modified": "2024-10-04 23:25:40.409077",
  "nama": "KABUPATEN PELALAWAN",
  "name": "KABUPATEN PELALAWAN",
  "province_id": "14"
 },
 {
  "alt_name": "KABUPATEN SIAK",
  "docstatus": 0,
  "doctype": "Kabupaten",
  "id": 1405,
  "latitude": "0.97453",
  "longitude": "102.01355",
  "modified": "2024-10-04 23:25:40.417805",
  "nama": "KABUPATEN SIAK",
  "name": "KABUPATEN SIAK",
  "province_id": "14"
 },
 {
  "alt_name": "KABUPATEN KAMPAR",
  "docstatus": 0,
  "doctype": "Kabupaten",
  "id": 1406,
  "latitude": "0.2344",
  "longitude": "101.2131",
  "modified": "2024-10-04 23:25:40.426640",
  "nama": "KABUPATEN KAMPAR",
  "name": "KABUPATEN KAMPAR",
  "province_id": "14"
 },
 {
  "alt_name": "KABUPATEN ROKAN HULU",
  "docstatus": 0,
  "doctype": "Kabupaten",
  "id": 1407,
  "latitude": "0.88333",
  "longitude": "100.48333",
  "modified": "2024-10-04 23:25:40.435752",
  "nama": "KABUPATEN ROKAN HULU",
  "name": "KABUPATEN ROKAN HULU",
  "province_id": "14"
 },
 {
  "alt_name": "KABUPATEN BENGKALIS",
  "docstatus": 0,
  "doctype": "Kabupaten",
  "id": 1408,
  "latitude": "0.9838",
  "longitude": "102.5096",
  "modified": "2024-10-04 23:25:40.444849",
  "nama": "KABUPATEN BENGKALIS",
  "name": "KABUPATEN BENGKALIS",
  "province_id": "14"
 },
 {
  "alt_name": "KABUPATEN ROKAN HILIR",
  "docstatus": 0,
  "doctype": "Kabupaten",
  "id": 1409,
  "latitude": "2.16599",
  "longitude": "100.82514",
  "modified": "2024-10-04 23:25:40.454348",
  "nama": "KABUPATEN ROKAN HILIR",
  "name": "KABUPATEN ROKAN HILIR",
  "province_id": "14"
 },
 {
  "alt_name": "KABUPATEN KEPULAUAN MERANTI",
  "docstatus": 0,
  "doctype": "Kabupaten",
  "id": 1410,
  "latitude": "0.97488",
  "longitude": "102.69539",
  "modified": "2024-10-04 23:25:40.463508",
  "nama": "KABUPATEN KEPULAUAN MERANTI",
  "name": "KABUPATEN KEPULAUAN MERANTI",
  "province_id": "14"
 },
 {
  "alt_name": "KOTA PEKANBARU",
  "docstatus": 0,
  "doctype": "Kabupaten",
  "id": 1471,
  "latitude": "0.53333",
  "longitude": "101.46667",
  "modified": "2024-10-04 23:25:40.474854",
  "nama": "KOTA PEKANBARU",
  "name": "KOTA PEKANBARU",
  "province_id": "14"
 },
 {
  "alt_name": "KOTA DUMAI",
  "docstatus": 0,
  "doctype": "Kabupaten",
  "id": 1473,
  "latitude": "1.61592",
  "longitude": "101.4917",
  "modified": "2024-10-04 23:25:40.482749",
  "nama": "KOTA DUMAI",
  "name": "KOTA DUMAI",
  "province_id": "14"
 },
 {
  "alt_name": "KABUPATEN KERINCI",
  "docstatus": 0,
  "doctype": "Kabupaten",
  "id": 1501,
  "latitude": "-2.03333",
  "longitude": "101.53333",
  "modified": "2024-10-04 23:25:40.491296",
  "nama": "KABUPATEN KERINCI",
  "name": "KABUPATEN KERINCI",
  "province_id": "15"
 },
 {
  "alt_name": "KABUPATEN MERANGIN",
  "docstatus": 0,
  "doctype": "Kabupaten",
  "id": 1502,
  "latitude": "-2.06933",
  "longitude": "102.13303",
  "modified": "2024-10-04 23:25:40.500568",
  "nama": "KABUPATEN MERANGIN",
  "name": "KABUPATEN MERANGIN",
  "province_id": "15"
 },
 {
  "alt_name": "KABUPATEN SAROLANGUN",
  "docstatus": 0,
  "doctype": "Kabupaten",
  "id": 1503,
  "latitude": "-2.3",
  "longitude": "102.65",
  "modified": "2024-10-04 23:25:40.511592",
  "nama": "KABUPATEN SAROLANGUN",
  "name": "KABUPATEN SAROLANGUN",
  "province_id": "15"
 },
 {
  "alt_name": "KABUPATEN BATANG HARI",
  "docstatus": 0,
  "doctype": "Kabupaten",
  "id": 1504,
  "latitude": "-1.75",
  "longitude": "103.11667",
  "modified": "2024-10-04 23:25:40.518672",
  "nama": "KABUPATEN BATANG HARI",
  "name": "KABUPATEN BATANG HARI",
  "province_id": "15"
 },
 {
  "alt_name": "KABUPATEN MUARO JAMBI",
  "docstatus": 0,
  "doctype": "Kabupaten",
  "id": 1505,
  "latitude": "-1.55214",
  "longitude": "103.82163",
  "modified": "2024-10-04 23:25:40.527683",
  "nama": "KABUPATEN MUARO JAMBI",
  "name": "KABUPATEN MUARO JAMBI",
  "province_id": "15"
 },
 {
  "alt_name": "KABUPATEN TANJUNG JABUNG TIMUR",
  "docstatus": 0,
  "doctype": "Kabupaten",
  "id": 1506,
  "latitude": "-1.13198",
  "longitude": "103.61755",
  "modified": "2024-10-04 23:25:40.536286",
  "nama": "KABUPATEN TANJUNG JABUNG TIMUR",
  "name": "KABUPATEN TANJUNG JABUNG TIMUR",
  "province_id": "15"
 },
 {
  "alt_name": "KABUPATEN TANJUNG JABUNG BARAT",
  "docstatus": 0,
  "doctype": "Kabupaten",
  "id": 1507,
  "latitude": "-1.1544",
  "longitude": "103.24402",
  "modified": "2024-10-04 23:25:40.545074",
  "nama": "KABUPATEN TANJUNG JABUNG BARAT",
  "name": "KABUPATEN TANJUNG JABUNG BARAT",
  "province_id": "15"
 },
 {
  "alt_name": "KABUPATEN TEBO",
  "docstatus": 0,
  "doctype": "Kabupaten",
  "id": 1508,
  "latitude": "-1.45576",
  "longitude": "102.37473",
  "modified": "2024-10-04 23:25:40.554242",
  "nama": "KABUPATEN TEBO",
  "name": "KABUPATEN TEBO",
  "province_id": "15"
 },
 {
  "alt_name": "KABUPATEN BUNGO",
  "docstatus": 0,
  "doctype": "Kabupaten",
  "id": 1509,
  "latitude": "-1.50222",
  "longitude": "101.96",
  "modified": "2024-10-04 23:25:40.563181",
  "nama": "KABUPATEN BUNGO",
  "name": "KABUPATEN BUNGO",
  "province_id": "15"
 },
 {
  "alt_name": "KOTA JAMBI",
  "docstatus": 0,
  "doctype": "Kabupaten",
  "id": 1571,
  "latitude": "-1.61667",
  "longitude": "103.65",
  "modified": "2024-10-04 23:25:40.575073",
  "nama": "KOTA JAMBI",
  "name": "KOTA JAMBI",
  "province_id": "15"
 },
 {
  "alt_name": "KOTA SUNGAI PENUH",
  "docstatus": 0,
  "doctype": "Kabupaten",
  "id": 1572,
  "latitude": "-2.10896",
  "longitude": "101.32175",
  "modified": "2024-10-04 23:25:40.584476",
  "nama": "KOTA SUNGAI PENUH",
  "name": "KOTA SUNGAI PENUH",
  "province_id": "15"
 },
 {
  "alt_name": "KABUPATEN OGAN KOMERING ULU",
  "docstatus": 0,
  "doctype": "Kabupaten",
  "id": 1601,
  "latitude": "-4.13333",
  "longitude": "104.03333",
  "modified": "2024-10-04 23:25:40.593565",
  "nama": "KABUPATEN OGAN KOMERING ULU",
  "name": "KABUPATEN OGAN KOMERING ULU",
  "province_id": "16"
 },
 {
  "alt_name": "KABUPATEN OGAN KOMERING ILIR",
  "docstatus": 0,
  "doctype": "Kabupaten",
  "id": 1602,
  "latitude": "-3.36667",
  "longitude": "105.36667",
  "modified": "2024-10-04 23:25:40.602276",
  "nama": "KABUPATEN OGAN KOMERING ILIR",
  "name": "KABUPATEN OGAN KOMERING ILIR",
  "province_id": "16"
 },
 {
  "alt_name": "KABUPATEN MUARA ENIM",
  "docstatus": 0,
  "doctype": "Kabupaten",
  "id": 1603,
  "latitude": "-4.2327",
  "longitude": "103.6141",
  "modified": "2024-10-04 23:25:40.612317",
  "nama": "KABUPATEN MUARA ENIM",
  "name": "KABUPATEN MUARA ENIM",
  "province_id": "16"
 },
 {
  "alt_name": "KABUPATEN LAHAT",
  "docstatus": 0,
  "doctype": "Kabupaten",
  "id": 1604,
  "latitude": "-3.7864",
  "longitude": "103.5428",
  "modified": "2024-10-04 23:25:40.620743",
  "nama": "KABUPATEN LAHAT",
  "name": "KABUPATEN LAHAT",
  "province_id": "16"
 },
 {
  "alt_name": "KABUPATEN MUSI RAWAS",
  "docstatus": 0,
  "doctype": "Kabupaten",
  "id": 1605,
  "latitude": "-3.08333",
  "longitude": "103.2",
  "modified": "2024-10-04 23:25:40.629345",
  "nama": "KABUPATEN MUSI RAWAS",
  "name": "KABUPATEN MUSI RAWAS",
  "province_id": "16"
 },
 {
  "alt_name": "KABUPATEN MUSI BANYU ASIN",
  "docstatus": 0,
  "doctype": "Kabupaten",
  "id": 1606,
  "latitude": "-2.41667",
  "longitude": "103.75",
  "modified": "2024-10-04 23:25:40.638331",
  "nama": "KABUPATEN MUSI BANYU ASIN",
  "name": "KABUPATEN MUSI BANYU ASIN",
  "province_id": "16"
 },
 {
  "alt_name": "KABUPATEN BANYU ASIN",
  "docstatus": 0,
  "doctype": "Kabupaten",
  "id": 1607,
  "latitude": "-2.88333",
  "longitude": "104.38306",
  "modified": "2024-10-04 23:25:40.661368",
  "nama": "KABUPATEN BANYU ASIN",
  "name": "KABUPATEN BANYU ASIN",
  "province_id": "16"
 },
 {
  "alt_name": "KABUPATEN OGAN KOMERING ULU SELATAN",
  "docstatus": 0,
  "doctype": "Kabupaten",
  "id": 1608,
  "latitude": "-4.65728",
  "longitude": "104.00659",
  "modified": "2024-10-04 23:25:40.670577",
  "nama": "KABUPATEN OGAN KOMERING ULU SELATAN",
  "name": "KABUPATEN OGAN KOMERING ULU SELATAN",
  "province_id": "16"
 },
 {
  "alt_name": "KABUPATEN OGAN KOMERING ULU TIMUR",
  "docstatus": 0,
  "doctype": "Kabupaten",
  "id": 1609,
  "latitude": "-3.85679",
  "longitude": "104.75209",
  "modified": "2024-10-04 23:25:40.680863",
  "nama": "KABUPATEN OGAN KOMERING ULU TIMUR",
  "name": "KABUPATEN OGAN KOMERING ULU TIMUR",
  "province_id": "16"
 },
 {
  "alt_name": "KABUPATEN OGAN ILIR",
  "docstatus": 0,
  "doctype": "Kabupaten",
  "id": 1610,
  "latitude": "-3.43186",
  "longitude": "104.62727",
  "modified": "2024-10-04 23:25:40.687693",
  "nama": "KABUPATEN OGAN ILIR",
  "name": "KABUPATEN OGAN ILIR",
  "province_id": "16"
 },
 {
  "alt_name": "KABUPATEN EMPAT LAWANG",
  "docstatus": 0,
  "doctype": "Kabupaten",
  "id": 1611,
  "latitude": "3.22667",
  "longitude": "99.09256",
  "modified": "2024-10-04 23:25:40.696180",
  "nama": "KABUPATEN EMPAT LAWANG",
  "name": "KABUPATEN EMPAT LAWANG",
  "province_id": "16"
 },
 {
  "alt_name": "KABUPATEN PENUKAL ABAB LEMATANG ILIR",
  "docstatus": 0,
  "doctype": "Kabupaten",
  "id": 1612,
  "latitude": "-3.21342",
  "longitude": "104.08722",
  "modified": "2024-10-04 23:25:40.704762",
  "nama": "KABUPATEN PENUKAL ABAB LEMATANG ILIR",
  "name": "KABUPATEN PENUKAL ABAB LEMATANG ILIR",
  "province_id": "16"
 },
 {
  "alt_name": "KABUPATEN MUSI RAWAS UTARA",
  "docstatus": 0,
  "doctype": "Kabupaten",
  "id": 1613,
  "latitude": "-2.48533",
  "longitude": "103.29346",
  "modified": "2024-10-04 23:25:40.715768",
  "nama": "KABUPATEN MUSI RAWAS UTARA",
  "name": "KABUPATEN MUSI RAWAS UTARA",
  "province_id": "16"
 },
 {
  "alt_name": "KOTA PALEMBANG",
  "docstatus": 0,
  "doctype": "Kabupaten",
  "id": 1671,
  "latitude": "-3",
  "longitude": "104.71667",
  "modified": "2024-10-04 23:25:40.724205",
  "nama": "KOTA PALEMBANG",
  "name": "KOTA PALEMBANG",
  "province_id": "16"
 },
 {
  "alt_name": "KOTA PRABUMULIH",
  "docstatus": 0,
  "doctype": "Kabupaten",
  "id": 1672,
  "latitude": "-3.46202",
  "longitude": "104.2229",
  "modified": "2024-10-04 23:25:40.732131",
  "nama": "KOTA PRABUMULIH",
  "name": "KOTA PRABUMULIH",
  "province_id": "16"
 },
 {
  "alt_name": "KOTA PAGAR ALAM",
  "docstatus": 0,
  "doctype": "Kabupaten",
  "id": 1673,
  "latitude": "-4.13055",
  "longitude": "103.26822",
  "modified": "2024-10-04 23:25:40.741072",
  "nama": "KOTA PAGAR ALAM",
  "name": "KOTA PAGAR ALAM",
  "province_id": "16"
 },
 {
  "alt_name": "KOTA LUBUK LINGGAU",
  "docstatus": 0,
  "doctype": "Kabupaten",
  "id": 1674,
  "latitude": "-3.29308",
  "longitude": "102.85503",
  "modified": "2024-10-04 23:25:40.750181",
  "nama": "KOTA LUBUK LINGGAU",
  "name": "KOTA LUBUK LINGGAU",
  "province_id": "16"
 },
 {
  "alt_name": "KABUPATEN BENGKULU SELATAN",
  "docstatus": 0,
  "doctype": "Kabupaten",
  "id": 1701,
  "latitude": "-4.35",
  "longitude": "103.03333",
  "modified": "2024-10-04 23:25:40.759501",
  "nama": "KABUPATEN BENGKULU SELATAN",
  "name": "KABUPATEN BENGKULU SELATAN",
  "province_id": "17"
 },
 {
  "alt_name": "KABUPATEN REJANG LEBONG",
  "docstatus": 0,
  "doctype": "Kabupaten",
  "id": 1702,
  "latitude": "-3.43333",
  "longitude": "102.71667",
  "modified": "2024-10-04 23:25:40.769028",
  "nama": "KABUPATEN REJANG LEBONG",
  "name": "KABUPATEN REJANG LEBONG",
  "province_id": "17"
 },
 {
  "alt_name": "KABUPATEN BENGKULU UTARA",
  "docstatus": 0,
  "doctype": "Kabupaten",
  "id": 1703,
  "latitude": "-3.33333",
  "longitude": "102.05",
  "modified": "2024-10-04 23:25:40.779792",
  "nama": "KABUPATEN BENGKULU UTARA",
  "name": "KABUPATEN BENGKULU UTARA",
  "province_id": "17"
 },
 {
  "alt_name": "KABUPATEN KAUR",
  "docstatus": 0,
  "doctype": "Kabupaten",
  "id": 1704,
  "latitude": "-4.78179",
  "longitude": "103.36109",
  "modified": "2024-10-04 23:25:40.788247",
  "nama": "KABUPATEN KAUR",
  "name": "KABUPATEN KAUR",
  "province_id": "17"
 },
 {
  "alt_name": "KABUPATEN SELUMA",
  "docstatus": 0,
  "doctype": "Kabupaten",
  "id": 1705,
  "latitude": "-3.96644",
  "longitude": "102.47429",
  "modified": "2024-10-04 23:25:40.796497",
  "nama": "KABUPATEN SELUMA",
  "name": "KABUPATEN SELUMA",
  "province_id": "17"
 },
 {
  "alt_name": "KABUPATEN MUKOMUKO",
  "docstatus": 0,
  "doctype": "Kabupaten",
  "id": 1706,
  "latitude": "-3.07438",
  "longitude": "101.54766",
  "modified": "2024-10-04 23:25:40.805367",
  "nama": "KABUPATEN MUKOMUKO",
  "name": "KABUPATEN MUKOMUKO",
  "province_id": "17"
 },
 {
  "alt_name": "KABUPATEN LEBONG",
  "docstatus": 0,
  "doctype": "Kabupaten",
  "id": 1707,
  "latitude": "-3.24278",
  "longitude": "102.3349",
  "modified": "2024-10-04 23:25:40.814423",
  "nama": "KABUPATEN LEBONG",
  "name": "KABUPATEN LEBONG",
  "province_id": "17"
 },
 {
  "alt_name": "KABUPATEN KEPAHIANG",
  "docstatus": 0,
  "doctype": "Kabupaten",
  "id": 1708,
  "latitude": "-3.60194",
  "longitude": "102.56424",
  "modified": "2024-10-04 23:25:40.827178",
  "nama": "KABUPATEN KEPAHIANG",
  "name": "KABUPATEN KEPAHIANG",
  "province_id": "17"
 },
 {
  "alt_name": "KABUPATEN BENGKULU TENGAH",
  "docstatus": 0,
  "doctype": "Kabupaten",
  "id": 1709,
  "latitude": "-3.20679",
  "longitude": "102.12616",
  "modified": "2024-10-04 23:25:40.835488",
  "nama": "KABUPATEN BENGKULU TENGAH",
  "name": "KABUPATEN BENGKULU TENGAH",
  "province_id": "17"
 },
 {
  "alt_name": "KOTA BENGKULU",
  "docstatus": 0,
  "doctype": "Kabupaten",
  "id": 1771,
  "latitude": "-3.81667",
  "longitude": "102.31667",
  "modified": "2024-10-04 23:25:40.844374",
  "nama": "KOTA BENGKULU",
  "name": "KOTA BENGKULU",
  "province_id": "17"
 },
 {
  "alt_name": "KABUPATEN LAMPUNG BARAT",
  "docstatus": 0,
  "doctype": "Kabupaten",
  "id": 1801,
  "latitude": "-5.14904",
  "longitude": "104.19309",
  "modified": "2024-10-04 23:25:40.853380",
  "nama": "KABUPATEN LAMPUNG BARAT",
  "name": "KABUPATEN LAMPUNG BARAT",
  "province_id": "18"
 },
 {
  "alt_name": "KABUPATEN TANGGAMUS",
  "docstatus": 0,
  "doctype": "Kabupaten",
  "id": 1802,
  "latitude": "-5.38508",
  "longitude": "104.62349",
  "modified": "2024-10-04 23:25:40.861516",
  "nama": "KABUPATEN TANGGAMUS",
  "name": "KABUPATEN TANGGAMUS",
  "province_id": "18"
 },
 {
  "alt_name": "KABUPATEN LAMPUNG SELATAN",
  "docstatus": 0,
  "doctype": "Kabupaten",
  "id": 1803,
  "latitude": "-5.4531",
  "longitude": "104.9877",
  "modified": "2024-10-04 23:25:40.869817",
  "nama": "KABUPATEN LAMPUNG SELATAN",
  "name": "KABUPATEN LAMPUNG SELATAN",
  "province_id": "18"
 },
 {
  "alt_name": "KABUPATEN LAMPUNG TIMUR",
  "docstatus": 0,
  "doctype": "Kabupaten",
  "id": 1804,
  "latitude": "-5.10273",
  "longitude": "105.68003",
  "modified": "2024-10-04 23:25:40.880484",
  "nama": "KABUPATEN LAMPUNG TIMUR",
  "name": "KABUPATEN LAMPUNG TIMUR",
  "province_id": "18"
 },
 {
  "alt_name": "KABUPATEN LAMPUNG TENGAH",
  "docstatus": 0,
  "doctype": "Kabupaten",
  "id": 1805,
  "latitude": "-4.86667",
  "longitude": "105.26667",
  "modified": "2024-10-04 23:25:40.889342",
  "nama": "KABUPATEN LAMPUNG TENGAH",
  "name": "KABUPATEN LAMPUNG TENGAH",
  "province_id": "18"
 },
 {
  "alt_name": "KABUPATEN LAMPUNG UTARA",
  "docstatus": 0,
  "doctype": "Kabupaten",
  "id": 1806,
  "latitude": "-4.81667",
  "longitude": "104.8",
  "modified": "2024-10-04 23:25:40.897186",
  "nama": "KABUPATEN LAMPUNG UTARA",
  "name": "KABUPATEN LAMPUNG UTARA",
  "province_id": "18"
 },
 {
  "alt_name": "KABUPATEN WAY KANAN",
  "docstatus": 0,
  "doctype": "Kabupaten",
  "id": 1807,
  "latitude": "-4.44705",
  "longitude": "104.52753",
  "modified": "2024-10-04 23:25:40.910214",
  "nama": "KABUPATEN WAY KANAN",
  "name": "KABUPATEN WAY KANAN",
  "province_id": "18"
 },
 {
  "alt_name": "KABUPATEN TULANGBAWANG",
  "docstatus": 0,
  "doctype": "Kabupaten",
  "id": 1808,
  "latitude": "-4.20604",
  "longitude": "105.57999",
  "modified": "2024-10-04 23:25:40.918464",
  "nama": "KABUPATEN TULANGBAWANG",
  "name": "KABUPATEN TULANGBAWANG",
  "province_id": "18"
 },
 {
  "alt_name": "KABUPATEN PESAWARAN",
  "docstatus": 0,
  "doctype": "Kabupaten",
  "id": 1809,
  "latitude": "-5.4298",
  "longitude": "105.17899",
  "modified": "2024-10-04 23:25:40.928052",
  "nama": "KABUPATEN PESAWARAN",
  "name": "KABUPATEN PESAWARAN",
  "province_id": "18"
 },
 {
  "alt_name": "KABUPATEN PRINGSEWU",
  "docstatus": 0,
  "doctype": "Kabupaten",
  "id": 1810,
  "latitude": "-5.42211",
  "longitude": "104.93454",
  "modified": "2024-10-04 23:25:40.935998",
  "nama": "KABUPATEN PRINGSEWU",
  "name": "KABUPATEN PRINGSEWU",
  "province_id": "18"
 },
 {
  "alt_name": "KABUPATEN MESUJI",
  "docstatus": 0,
  "doctype": "Kabupaten",
  "id": 1811,
  "latitude": "-4.0439",
  "longitude": "105.4013",
  "modified": "2024-10-04 23:25:40.944470",
  "nama": "KABUPATEN MESUJI",
  "name": "KABUPATEN MESUJI",
  "province_id": "18"
 },
 {
  "alt_name": "KABUPATEN TULANG BAWANG BARAT",
  "docstatus": 0,
  "doctype": "Kabupaten",
  "id": 1812,
  "latitude": "-4.43975",
  "longitude": "105.0444",
  "modified": "2024-10-04 23:25:40.953176",
  "nama": "KABUPATEN TULANG BAWANG BARAT",
  "name": "KABUPATEN TULANG BAWANG BARAT",
  "province_id": "18"
 },
 {
  "alt_name": "KABUPATEN PESISIR BARAT",
  "docstatus": 0,
  "doctype": "Kabupaten",
  "id": 1813,
  "latitude": "-5.19323",
  "longitude": "103.93976",
  "modified": "2024-10-04 23:25:40.961993",
  "nama": "KABUPATEN PESISIR BARAT",
  "name": "KABUPATEN PESISIR BARAT",
  "province_id": "18"
 },
 {
  "alt_name": "KOTA BANDAR LAMPUNG",
  "docstatus": 0,
  "doctype": "Kabupaten",
  "id": 1871,
  "latitude": "-5.41667",
  "longitude": "105.25",
  "modified": "2024-10-04 23:25:40.970866",
  "nama": "KOTA BANDAR LAMPUNG",
  "name": "KOTA BANDAR LAMPUNG",
  "province_id": "18"
 },
 {
  "alt_name": "KOTA METRO",
  "docstatus": 0,
  "doctype": "Kabupaten",
  "id": 1872,
  "latitude": "-5.11856",
  "longitude": "105.29949",
  "modified": "2024-10-04 23:25:40.980634",
  "nama": "KOTA METRO",
  "name": "KOTA METRO",
  "province_id": "18"
 },
 {
  "alt_name": "KABUPATEN BANGKA",
  "docstatus": 0,
  "doctype": "Kabupaten",
  "id": 1901,
  "latitude": "-1.91667",
  "longitude": "105.93333",
  "modified": "2024-10-04 23:25:40.990503",
  "nama": "KABUPATEN BANGKA",
  "name": "KABUPATEN BANGKA",
  "province_id": "19"
 },
 {
  "alt_name": "KABUPATEN BELITUNG",
  "docstatus": 0,
  "doctype": "Kabupaten",
  "id": 1902,
  "latitude": "-2.86667",
  "longitude": "107.7",
  "modified": "2024-10-04 23:25:40.997678",
  "nama": "KABUPATEN BELITUNG",
  "name": "KABUPATEN BELITUNG",
  "province_id": "19"
 },
 {
  "alt_name": "KABUPATEN BANGKA BARAT",
  "docstatus": 0,
  "doctype": "Kabupaten",
  "id": 1903,
  "latitude": "-1.95839",
  "longitude": "105.53741",
  "modified": "2024-10-04 23:25:41.006324",
  "nama": "KABUPATEN BANGKA BARAT",
  "name": "KABUPATEN BANGKA BARAT",
  "province_id": "19"
 },
 {
  "alt_name": "KABUPATEN BANGKA TENGAH",
  "docstatus": 0,
  "doctype": "Kabupaten",
  "id": 1904,
  "latitude": "-2.33989",
  "longitude": "106.1142",
  "modified": "2024-10-04 23:25:41.015365",
  "nama": "KABUPATEN BANGKA TENGAH",
  "name": "KABUPATEN BANGKA TENGAH",
  "province_id": "19"
 },
 {
  "alt_name": "KABUPATEN BANGKA SELATAN",
  "docstatus": 0,
  "doctype": "Kabupaten",
  "id": 1905,
  "latitude": "-2.66803",
  "longitude": "106.01257",
  "modified": "2024-10-04 23:25:41.024125",
  "nama": "KABUPATEN BANGKA SELATAN",
  "name": "KABUPATEN BANGKA SELATAN",
  "province_id": "19"
 },
 {
  "alt_name": "KABUPATEN BELITUNG TIMUR",
  "docstatus": 0,
  "doctype": "Kabupaten",
  "id": 1906,
  "latitude": "-2.9627",
  "longitude": "108.15216",
  "modified": "2024-10-04 23:25:41.035916",
  "nama": "KABUPATEN BELITUNG TIMUR",
  "name": "KABUPATEN BELITUNG TIMUR",
  "province_id": "19"
 },
 {
  "alt_name": "KOTA PANGKAL PINANG",
  "docstatus": 0,
  "doctype": "Kabupaten",
  "id": 1971,
  "latitude": "-2.13333",
  "longitude": "106.13333",
  "modified": "2024-10-04 23:25:41.043113",
  "nama": "KOTA PANGKAL PINANG",
  "name": "KOTA PANGKAL PINANG",
  "province_id": "19"
 },
 {
  "alt_name": "KABUPATEN KARIMUN",
  "docstatus": 0,
  "doctype": "Kabupaten",
  "id": 2101,
  "latitude": "0.80764",
  "longitude": "103.41911",
  "modified": "2024-10-04 23:25:41.051743",
  "nama": "KABUPATEN KARIMUN",
  "name": "KABUPATEN KARIMUN",
  "province_id": "21"
 },
 {
  "alt_name": "KABUPATEN BINTAN",
  "docstatus": 0,
  "doctype": "Kabupaten",
  "id": 2102,
  "latitude": "0.95",
  "longitude": "104.61944",
  "modified": "2024-10-04 23:25:41.060612",
  "nama": "KABUPATEN BINTAN",
  "name": "KABUPATEN BINTAN",
  "province_id": "21"
 },
 {
  "alt_name": "KABUPATEN NATUNA",
  "docstatus": 0,
  "doctype": "Kabupaten",
  "id": 2103,
  "latitude": "4.71417",
  "longitude": "107.97639",
  "modified": "2024-10-04 23:25:41.069613",
  "nama": "KABUPATEN NATUNA",
  "name": "KABUPATEN NATUNA",
  "province_id": "21"
 },
 {
  "alt_name": "KABUPATEN LINGGA",
  "docstatus": 0,
  "doctype": "Kabupaten",
  "id": 2104,
  "latitude": "0.2",
  "longitude": "104.61667",
  "modified": "2024-10-04 23:25:41.078235",
  "nama": "KABUPATEN LINGGA",
  "name": "KABUPATEN LINGGA",
  "province_id": "21"
 },
 {
  "alt_name": "KABUPATEN KEPULAUAN ANAMBAS",
  "docstatus": 0,
  "doctype": "Kabupaten",
  "id": 2105,
  "latitude": "3",
  "longitude": "106",
  "modified": "2024-10-04 23:25:41.088960",
  "nama": "KABUPATEN KEPULAUAN ANAMBAS",
  "name": "KABUPATEN KEPULAUAN ANAMBAS",
  "province_id": "21"
 },
 {
  "alt_name": "KOTA BATAM",
  "docstatus": 0,
  "doctype": "Kabupaten",
  "id": 2171,
  "latitude": "1.05211",
  "longitude": "104.02851",
  "modified": "2024-10-04 23:25:41.097272",
  "nama": "KOTA BATAM",
  "name": "KOTA BATAM",
  "province_id": "21"
 },
 {
  "alt_name": "KOTA TANJUNG PINANG",
  "docstatus": 0,
  "doctype": "Kabupaten",
  "id": 2172,
  "latitude": "0.91683",
  "longitude": "104.44329",
  "modified": "2024-10-04 23:25:41.105403",
  "nama": "KOTA TANJUNG PINANG",
  "name": "KOTA TANJUNG PINANG",
  "province_id": "21"
 },
 {
  "alt_name": "KABUPATEN KEPULAUAN SERIBU",
  "docstatus": 0,
  "doctype": "Kabupaten",
  "id": 3101,
  "latitude": "-5.5985",
  "longitude": "106.55271",
  "modified": "2024-10-04 23:25:41.113976",
  "nama": "KABUPATEN KEPULAUAN SERIBU",
  "name": "KABUPATEN KEPULAUAN SERIBU",
  "province_id": "31"
 },
 {
  "alt_name": "KOTA JAKARTA SELATAN",
  "docstatus": 0,
  "doctype": "Kabupaten",
  "id": 3171,
  "latitude": "-6.266",
  "longitude": "106.8135",
  "modified": "2024-10-04 23:25:41.122863",
  "nama": "KOTA JAKARTA SELATAN",
  "name": "KOTA JAKARTA SELATAN",
  "province_id": "31"
 },
 {
  "alt_name": "KOTA JAKARTA TIMUR",
  "docstatus": 0,
  "doctype": "Kabupaten",
  "id": 3172,
  "latitude": "-6.2521",
  "longitude": "106.884",
  "modified": "2024-10-04 23:25:41.132218",
  "nama": "KOTA JAKARTA TIMUR",
  "name": "KOTA JAKARTA TIMUR",
  "province_id": "31"
 },
 {
  "alt_name": "KOTA JAKARTA PUSAT",
  "docstatus": 0,
  "doctype": "Kabupaten",
  "id": 3173,
  "latitude": "-6.1777",
  "longitude": "106.8403",
  "modified": "2024-10-04 23:25:41.142436",
  "nama": "KOTA JAKARTA PUSAT",
  "name": "KOTA JAKARTA PUSAT",
  "province_id": "31"
 },
 {
  "alt_name": "KOTA JAKARTA BARAT",
  "docstatus": 0,
  "doctype": "Kabupaten",
  "id": 3174,
  "latitude": "-6.1676",
  "longitude": "106.7673",
  "modified": "2024-10-04 23:25:41.150630",
  "nama": "KOTA JAKARTA BARAT",
  "name": "KOTA JAKARTA BARAT",
  "province_id": "31"
 },
 {
  "alt_name": "KOTA JAKARTA UTARA",
  "docstatus": 0,
  "doctype": "Kabupaten",
  "id": 3175,
  "latitude": "-6.1339",
  "longitude": "106.8823",
  "modified": "2024-10-04 23:25:41.161696",
  "nama": "KOTA JAKARTA UTARA",
  "name": "KOTA JAKARTA UTARA",
  "province_id": "31"
 },
 {
  "alt_name": "KABUPATEN BOGOR",
  "docstatus": 0,
  "doctype": "Kabupaten",
  "id": 3201,
  "latitude": "-6.58333",
  "longitude": "106.71667",
  "modified": "2024-10-04 23:25:41.170554",
  "nama": "KABUPATEN BOGOR",
  "name": "KABUPATEN BOGOR",
  "province_id": "32"
 },
 {
  "alt_name": "KABUPATEN SUKABUMI",
  "docstatus": 0,
  "doctype": "Kabupaten",
  "id": 3202,
  "latitude": "-7.06667",
  "longitude": "106.7",
  "modified": "2024-10-04 23:25:41.178734",
  "nama": "KABUPATEN SUKABUMI",
  "name": "KABUPATEN SUKABUMI",
  "province_id": "32"
 },
 {
  "alt_name": "KABUPATEN CIANJUR",
  "docstatus": 0,
  "doctype": "Kabupaten",
  "id": 3203,
  "latitude": "-6.7725",
  "longitude": "107.08306",
  "modified": "2024-10-04 23:25:41.188445",
  "nama": "KABUPATEN CIANJUR",
  "name": "KABUPATEN CIANJUR",
  "province_id": "32"
 },
 {
  "alt_name": "KABUPATEN BANDUNG",
  "docstatus": 0,
  "doctype": "Kabupaten",
  "id": 3204,
  "latitude": "-7.1",
  "longitude": "107.6",
  "modified": "2024-10-04 23:25:41.198078",
  "nama": "KABUPATEN BANDUNG",
  "name": "KABUPATEN BANDUNG",
  "province_id": "32"
 },
 {
  "alt_name": "KABUPATEN GARUT",
  "docstatus": 0,
  "doctype": "Kabupaten",
  "id": 3205,
  "latitude": "-7.38333",
  "longitude": "107.76667",
  "modified": "2024-10-04 23:25:41.206019",
  "nama": "KABUPATEN GARUT",
  "name": "KABUPATEN GARUT",
  "province_id": "32"
 },
 {
  "alt_name": "KABUPATEN TASIKMALAYA",
  "docstatus": 0,
  "doctype": "Kabupaten",
  "id": 3206,
  "latitude": "-7.5",
  "longitude": "108.13333",
  "modified": "2024-10-04 23:25:41.214588",
  "nama": "KABUPATEN TASIKMALAYA",
  "name": "KABUPATEN TASIKMALAYA",
  "province_id": "32"
 },
 {
  "alt_name": "KABUPATEN CIAMIS",
  "docstatus": 0,
  "doctype": "Kabupaten",
  "id": 3207,
  "latitude": "-7.28333",
  "longitude": "108.41667",
  "modified": "2024-10-04 23:25:41.223426",
  "nama": "KABUPATEN CIAMIS",
  "name": "KABUPATEN CIAMIS",
  "province_id": "32"
 },
 {
  "alt_name": "KABUPATEN KUNINGAN",
  "docstatus": 0,
  "doctype": "Kabupaten",
  "id": 3208,
  "latitude": "-7",
  "longitude": "108.55",
  "modified": "2024-10-04 23:25:41.232634",
  "nama": "KABUPATEN KUNINGAN",
  "name": "KABUPATEN KUNINGAN",
  "province_id": "32"
 },
 {
  "alt_name": "KABUPATEN CIREBON",
  "docstatus": 0,
  "doctype": "Kabupaten",
  "id": 3209,
  "latitude": "-6.8",
  "longitude": "108.56667",
  "modified": "2024-10-04 23:25:41.243299",
  "nama": "KABUPATEN CIREBON",
  "name": "KABUPATEN CIREBON",
  "province_id": "32"
 },
 {
  "alt_name": "KABUPATEN MAJALENGKA",
  "docstatus": 0,
  "doctype": "Kabupaten",
  "id": 3210,
  "latitude": "-6.81667",
  "longitude": "108.28333",
  "modified": "2024-10-04 23:25:41.251389",
  "nama": "KABUPATEN MAJALENGKA",
  "name": "KABUPATEN MAJALENGKA",
  "province_id": "32"
 },
 {
  "alt_name": "KABUPATEN SUMEDANG",
  "docstatus": 0,
  "doctype": "Kabupaten",
  "id": 3211,
  "latitude": "-6.81667",
  "longitude": "107.98333",
  "modified": "2024-10-04 23:25:41.259421",
  "nama": "KABUPATEN SUMEDANG",
  "name": "KABUPATEN SUMEDANG",
  "province_id": "32"
 },
 {
  "alt_name": "KABUPATEN INDRAMAYU",
  "docstatus": 0,
  "doctype": "Kabupaten",
  "id": 3212,
  "latitude": "-6.45",
  "longitude": "108.16667",
  "modified": "2024-10-04 23:25:41.268163",
  "nama": "KABUPATEN INDRAMAYU",
  "name": "KABUPATEN INDRAMAYU",
  "province_id": "32"
 },
 {
  "alt_name": "KABUPATEN SUBANG",
  "docstatus": 0,
  "doctype": "Kabupaten",
  "id": 3213,
  "latitude": "-6.50833",
  "longitude": "107.7025",
  "modified": "2024-10-04 23:25:41.277085",
  "nama": "KABUPATEN SUBANG",
  "name": "KABUPATEN SUBANG",
  "province_id": "32"
 },
 {
  "alt_name": "KABUPATEN PURWAKARTA",
  "docstatus": 0,
  "doctype": "Kabupaten",
  "id": 3214,
  "latitude": "-6.58333",
  "longitude": "107.45",
  "modified": "2024-10-04 23:25:41.286105",
  "nama": "KABUPATEN PURWAKARTA",
  "name": "KABUPATEN PURWAKARTA",
  "province_id": "32"
 },
 {
  "alt_name": "KABUPATEN KARAWANG",
  "docstatus": 0,
  "doctype": "Kabupaten",
  "id": 3215,
  "latitude": "-6.26667",
  "longitude": "107.41667",
  "modified": "2024-10-04 23:25:41.297160",
  "nama": "KABUPATEN KARAWANG",
  "name": "KABUPATEN KARAWANG",
  "province_id": "32"
 },
 {
  "alt_name": "KABUPATEN BEKASI",
  "docstatus": 0,
  "doctype": "Kabupaten",
  "id": 3216,
  "latitude": "-6.24667",
  "longitude": "107.10833",
  "modified": "2024-10-04 23:25:41.304862",
  "nama": "KABUPATEN BEKASI",
  "name": "KABUPATEN BEKASI",
  "province_id": "32"
 },
 {
  "alt_name": "KABUPATEN BANDUNG BARAT",
  "docstatus": 0,
  "doctype": "Kabupaten",
  "id": 3217,
  "latitude": "-6.83333",
  "longitude": "107.48333",
  "modified": "2024-10-04 23:25:41.313692",
  "nama": "KABUPATEN BANDUNG BARAT",
  "name": "KABUPATEN BANDUNG BARAT",
  "province_id": "32"
 },
 {
  "alt_name": "KABUPATEN PANGANDARAN",
  "docstatus": 0,
  "doctype": "Kabupaten",
  "id": 3218,
  "latitude": "-7.6673",
  "longitude": "108.64037",
  "modified": "2024-10-04 23:25:41.322615",
  "nama": "KABUPATEN PANGANDARAN",
  "name": "KABUPATEN PANGANDARAN",
  "province_id": "32"
 },
 {
  "alt_name": "KOTA BOGOR",
  "docstatus": 0,
  "doctype": "Kabupaten",
  "id": 3271,
  "latitude": "-6.59167",
  "longitude": "106.8",
  "modified": "2024-10-04 23:25:41.332065",
  "nama": "KOTA BOGOR",
  "name": "KOTA BOGOR",
  "province_id": "32"
 },
 {
  "alt_name": "KOTA SUKABUMI",
  "docstatus": 0,
  "doctype": "Kabupaten",
  "id": 3272,
  "latitude": "-6.95",
  "longitude": "106.93333",
  "modified": "2024-10-04 23:25:41.341331",
  "nama": "KOTA SUKABUMI",
  "name": "KOTA SUKABUMI",
  "province_id": "32"
 },
 {
  "alt_name": "KOTA BANDUNG",
  "docstatus": 0,
  "doctype": "Kabupaten",
  "id": 3273,
  "latitude": "-6.9175",
  "longitude": "107.62444",
  "modified": "2024-10-04 23:25:41.351460",
  "nama": "KOTA BANDUNG",
  "name": "KOTA BANDUNG",
  "province_id": "32"
 },
 {
  "alt_name": "KOTA CIREBON",
  "docstatus": 0,
  "doctype": "Kabupaten",
  "id": 3274,
  "latitude": "-6.75",
  "longitude": "108.55",
  "modified": "2024-10-04 23:25:41.359274",
  "nama": "KOTA CIREBON",
  "name": "KOTA CIREBON",
  "province_id": "32"
 },
 {
  "alt_name": "KOTA BEKASI",
  "docstatus": 0,
  "doctype": "Kabupaten",
  "id": 3275,
  "latitude": "-6.28333",
  "longitude": "106.98333",
  "modified": "2024-10-04 23:25:41.367988",
  "nama": "KOTA BEKASI",
  "name": "KOTA BEKASI",
  "province_id": "32"
 },
 {
  "alt_name": "KOTA DEPOK",
  "docstatus": 0,
  "doctype": "Kabupaten",
  "id": 3276,
  "latitude": "-6.4",
  "longitude": "106.81667",
  "modified": "2024-10-04 23:25:41.376761",
  "nama": "KOTA DEPOK",
  "name": "KOTA DEPOK",
  "province_id": "32"
 },
 {
  "alt_name": "KOTA CIMAHI",
  "docstatus": 0,
  "doctype": "Kabupaten",
  "id": 3277,
  "latitude": "-6.89167",
  "longitude": "107.55",
  "modified": "2024-10-04 23:25:41.385390",
  "nama": "KOTA CIMAHI",
  "name": "KOTA CIMAHI",
  "province_id": "32"
 },
 {
  "alt_name": "KOTA TASIKMALAYA",
  "docstatus": 0,
  "doctype": "Kabupaten",
  "id": 3278,
  "latitude": "-7.35",
  "longitude": "108.21667",
  "modified": "2024-10-04 23:25:41.394373",
  "nama": "KOTA TASIKMALAYA",
  "name": "KOTA TASIKMALAYA",
  "province_id": "32"
 },
 {
  "alt_name": "KOTA BANJAR",
  "docstatus": 0,
  "doctype": "Kabupaten",
  "id": 3279,
  "latitude": "-7.36996",
  "longitude": "108.53209",
  "modified": "2024-10-04 23:25:41.404774",
  "nama": "KOTA BANJAR",
  "name": "KOTA BANJAR",
  "province_id": "32"
 },
 {
  "alt_name": "KABUPATEN CILACAP",
  "docstatus": 0,
  "doctype": "Kabupaten",
  "id": 3301,
  "latitude": "-7.57417",
  "longitude": "108.98861",
  "modified": "2024-10-04 23:25:41.414576",
  "nama": "KABUPATEN CILACAP",
  "name": "KABUPATEN CILACAP",
  "province_id": "33"
 },
 {
  "alt_name": "KABUPATEN BANYUMAS",
  "docstatus": 0,
  "doctype": "Kabupaten",
  "id": 3302,
  "latitude": "-7.45",
  "longitude": "109.16667",
  "modified": "2024-10-04 23:25:41.422865",
  "nama": "KABUPATEN BANYUMAS",
  "name": "KABUPATEN BANYUMAS",
  "province_id": "33"
 },
 {
  "alt_name": "KABUPATEN PURBALINGGA",
  "docstatus": 0,
  "doctype": "Kabupaten",
  "id": 3303,
  "latitude": "-7.28417",
  "longitude": "109.35028",
  "modified": "2024-10-04 23:25:41.431630",
  "nama": "KABUPATEN PURBALINGGA",
  "name": "KABUPATEN PURBALINGGA",
  "province_id": "33"
 },
 {
  "alt_name": "KABUPATEN BANJARNEGARA",
  "docstatus": 0,
  "doctype": "Kabupaten",
  "id": 3304,
  "latitude": "-7.35111",
  "longitude": "109.5875",
  "modified": "2024-10-04 23:25:41.441106",
  "nama": "KABUPATEN BANJARNEGARA",
  "name": "KABUPATEN BANJARNEGARA",
  "province_id": "33"
 },
 {
  "alt_name": "KABUPATEN KEBUMEN",
  "docstatus": 0,
  "doctype": "Kabupaten",
  "id": 3305,
  "latitude": "-7.63917",
  "longitude": "109.66056",
  "modified": "2024-10-04 23:25:41.452061",
  "nama": "KABUPATEN KEBUMEN",
  "name": "KABUPATEN KEBUMEN",
  "province_id": "33"
 },
 {
  "alt_name": "KABUPATEN PURWOREJO",
  "docstatus": 0,
  "doctype": "Kabupaten",
  "id": 3306,
  "latitude": "-7.7",
  "longitude": "109.96667",
  "modified": "2024-10-04 23:25:41.460569",
  "nama": "KABUPATEN PURWOREJO",
  "name": "KABUPATEN PURWOREJO",
  "province_id": "33"
 },
 {
  "alt_name": "KABUPATEN WONOSOBO",
  "docstatus": 0,
  "doctype": "Kabupaten",
  "id": 3307,
  "latitude": "-7.36139",
  "longitude": "109.92667",
  "modified": "2024-10-04 23:25:41.469115",
  "nama": "KABUPATEN WONOSOBO",
  "name": "KABUPATEN WONOSOBO",
  "province_id": "33"
 },
 {
  "alt_name": "KABUPATEN MAGELANG",
  "docstatus": 0,
  "doctype": "Kabupaten",
  "id": 3308,
  "latitude": "-7.4275",
  "longitude": "110.16194",
  "modified": "2024-10-04 23:25:41.480452",
  "nama": "KABUPATEN MAGELANG",
  "name": "KABUPATEN MAGELANG",
  "province_id": "33"
 },
 {
  "alt_name": "KABUPATEN BOYOLALI",
  "docstatus": 0,
  "doctype": "Kabupaten",
  "id": 3309,
  "latitude": "-7.5",
  "longitude": "110.7",
  "modified": "2024-10-04 23:25:41.490042",
  "nama": "KABUPATEN BOYOLALI",
  "name": "KABUPATEN BOYOLALI",
  "province_id": "33"
 },
 {
  "alt_name": "KABUPATEN KLATEN",
  "docstatus": 0,
  "doctype": "Kabupaten",
  "id": 3310,
  "latitude": "-7.68333",
  "longitude": "110.61667",
  "modified": "2024-10-04 23:25:41.499532",
  "nama": "KABUPATEN KLATEN",
  "name": "KABUPATEN KLATEN",
  "province_id": "33"
 },
 {
  "alt_name": "KABUPATEN SUKOHARJO",
  "docstatus": 0,
  "doctype": "Kabupaten",
  "id": 3311,
  "latitude": "-7.68333",
  "longitude": "110.83333",
  "modified": "2024-10-04 23:25:41.510613",
  "nama": "KABUPATEN SUKOHARJO",
  "name": "KABUPATEN SUKOHARJO",
  "province_id": "33"
 },
 {
  "alt_name": "KABUPATEN WONOGIRI",
  "docstatus": 0,
  "doctype": "Kabupaten",
  "id": 3312,
  "latitude": "-7.91667",
  "longitude": "111",
  "modified": "2024-10-04 23:25:41.518050",
  "nama": "KABUPATEN WONOGIRI",
  "name": "KABUPATEN WONOGIRI",
  "province_id": "33"
 },
 {
  "alt_name": "KABUPATEN KARANGANYAR",
  "docstatus": 0,
  "doctype": "Kabupaten",
  "id": 3313,
  "latitude": "-7.62806",
  "longitude": "111.0625",
  "modified": "2024-10-04 23:25:41.527048",
  "nama": "KABUPATEN KARANGANYAR",
  "name": "KABUPATEN KARANGANYAR",
  "province_id": "33"
 },
 {
  "alt_name": "KABUPATEN SRAGEN",
  "docstatus": 0,
  "doctype": "Kabupaten",
  "id": 3314,
  "latitude": "-7.41278",
  "longitude": "110.935",
  "modified": "2024-10-04 23:25:41.536156",
  "nama": "KABUPATEN SRAGEN",
  "name": "KABUPATEN SRAGEN",
  "province_id": "33"
 },
 {
  "alt_name": "KABUPATEN GROBOGAN",
  "docstatus": 0,
  "doctype": "Kabupaten",
  "id": 3315,
  "latitude": "-7.11667",
  "longitude": "110.91667",
  "modified": "2024-10-04 23:25:41.545535",
  "nama": "KABUPATEN GROBOGAN",
  "name": "KABUPATEN GROBOGAN",
  "province_id": "33"
 },
 {
  "alt_name": "KABUPATEN BLORA",
  "docstatus": 0,
  "doctype": "Kabupaten",
  "id": 3316,
  "latitude": "-7.06667",
  "longitude": "111.38333",
  "modified": "2024-10-04 23:25:41.556190",
  "nama": "KABUPATEN BLORA",
  "name": "KABUPATEN BLORA",
  "province_id": "33"
 },
 {
  "alt_name": "KABUPATEN REMBANG",
  "docstatus": 0,
  "doctype": "Kabupaten",
  "id": 3317,
  "latitude": "-6.78333",
  "longitude": "111.46667",
  "modified": "2024-10-04 23:25:41.564219",
  "nama": "KABUPATEN REMBANG",
  "name": "KABUPATEN REMBANG",
  "province_id": "33"
 },
 {
  "alt_name": "KABUPATEN PATI",
  "docstatus": 0,
  "doctype": "Kabupaten",
  "id": 3318,
  "latitude": "-6.76667",
  "longitude": "111.1",
  "modified": "2024-10-04 23:25:41.572964",
  "nama": "KABUPATEN PATI",
  "name": "KABUPATEN PATI",
  "province_id": "33"
 },
 {
  "alt_name": "KABUPATEN KUDUS",
  "docstatus": 0,
  "doctype": "Kabupaten",
  "id": 3319,
  "latitude": "-6.8",
  "longitude": "110.86667",
  "modified": "2024-10-04 23:25:41.582471",
  "nama": "KABUPATEN KUDUS",
  "name": "KABUPATEN KUDUS",
  "province_id": "33"
 },
 {
  "alt_name": "KABUPATEN JEPARA",
  "docstatus": 0,
  "doctype": "Kabupaten",
  "id": 3320,
  "latitude": "-6.58333",
  "longitude": "110.76667",
  "modified": "2024-10-04 23:25:41.591985",
  "nama": "KABUPATEN JEPARA",
  "name": "KABUPATEN JEPARA",
  "province_id": "33"
 },
 {
  "alt_name": "KABUPATEN DEMAK",
  "docstatus": 0,
  "doctype": "Kabupaten",
  "id": 3321,
  "latitude": "-6.8993",
  "longitude": "110.6122",
  "modified": "2024-10-04 23:25:41.601129",
  "nama": "KABUPATEN DEMAK",
  "name": "KABUPATEN DEMAK",
  "province_id": "33"
 },
 {
  "alt_name": "KABUPATEN SEMARANG",
  "docstatus": 0,
  "doctype": "Kabupaten",
  "id": 3322,
  "latitude": "-7.20667",
  "longitude": "110.44139",
  "modified": "2024-10-04 23:25:41.611904",
  "nama": "KABUPATEN SEMARANG",
  "name": "KABUPATEN SEMARANG",
  "province_id": "33"
 },
 {
  "alt_name": "KABUPATEN TEMANGGUNG",
  "docstatus": 0,
  "doctype": "Kabupaten",
  "id": 3323,
  "latitude": "-7.25",
  "longitude": "110.11667",
  "modified": "2024-10-04 23:25:41.620401",
  "nama": "KABUPATEN TEMANGGUNG",
  "name": "KABUPATEN TEMANGGUNG",
  "province_id": "33"
 },
 {
  "alt_name": "KABUPATEN KENDAL",
  "docstatus": 0,
  "doctype": "Kabupaten",
  "id": 3324,
  "latitude": "-7.0256",
  "longitude": "110.1685",
  "modified": "2024-10-04 23:25:41.629082",
  "nama": "KABUPATEN KENDAL",
  "name": "KABUPATEN KENDAL",
  "province_id": "33"
 },
 {
  "alt_name": "KABUPATEN BATANG",
  "docstatus": 0,
  "doctype": "Kabupaten",
  "id": 3325,
  "latitude": "-7.03333",
  "longitude": "109.88333",
  "modified": "2024-10-04 23:25:41.637936",
  "nama": "KABUPATEN BATANG",
  "name": "KABUPATEN BATANG",
  "province_id": "33"
 },
 {
  "alt_name": "KABUPATEN PEKALONGAN",
  "docstatus": 0,
  "doctype": "Kabupaten",
  "id": 3326,
  "latitude": "-7.0319",
  "longitude": "109.624",
  "modified": "2024-10-04 23:25:41.646808",
  "nama": "KABUPATEN PEKALONGAN",
  "name": "KABUPATEN PEKALONGAN",
  "province_id": "33"
 },
 {
  "alt_name": "KABUPATEN PEMALANG",
  "docstatus": 0,
  "doctype": "Kabupaten",
  "id": 3327,
  "latitude": "-7.03333",
  "longitude": "109.4",
  "modified": "2024-10-04 23:25:41.659266",
  "nama": "KABUPATEN PEMALANG",
  "name": "KABUPATEN PEMALANG",
  "province_id": "33"
 },
 {
  "alt_name": "KABUPATEN TEGAL",
  "docstatus": 0,
  "doctype": "Kabupaten",
  "id": 3328,
  "latitude": "-7.03333",
  "longitude": "109.16667",
  "modified": "2024-10-04 23:25:41.669864",
  "nama": "KABUPATEN TEGAL",
  "name": "KABUPATEN TEGAL",
  "province_id": "33"
 },
 {
  "alt_name": "KABUPATEN BREBES",
  "docstatus": 0,
  "doctype": "Kabupaten",
  "id": 3329,
  "latitude": "-7.05",
  "longitude": "108.9",
  "modified": "2024-10-04 23:25:41.678677",
  "nama": "KABUPATEN BREBES",
  "name": "KABUPATEN BREBES",
  "province_id": "33"
 },
 {
  "alt_name": "KOTA MAGELANG",
  "docstatus": 0,
  "doctype": "Kabupaten",
  "id": 3371,
  "latitude": "-7.5",
  "longitude": "110.225",
  "modified": "2024-10-04 23:25:41.688009",
  "nama": "KOTA MAGELANG",
  "name": "KOTA MAGELANG",
  "province_id": "33"
 },
 {
  "alt_name": "KOTA SURAKARTA",
  "docstatus": 0,
  "doctype": "Kabupaten",
  "id": 3372,
  "latitude": "-7.55",
  "longitude": "110.81667",
  "modified": "2024-10-04 23:25:41.697985",
  "nama": "KOTA SURAKARTA",
  "name": "KOTA SURAKARTA",
  "province_id": "33"
 },
 {
  "alt_name": "KOTA SALATIGA",
  "docstatus": 0,
  "doctype": "Kabupaten",
  "id": 3373,
  "latitude": "-7.33278",
  "longitude": "110.48333",
  "modified": "2024-10-04 23:25:41.706860",
  "nama": "KOTA SALATIGA",
  "name": "KOTA SALATIGA",
  "province_id": "33"
 },
 {
  "alt_name": "KOTA SEMARANG",
  "docstatus": 0,
  "doctype": "Kabupaten",
  "id": 3374,
  "latitude": "-7.03333",
  "longitude": "110.38333",
  "modified": "2024-10-04 23:25:41.716860",
  "nama": "KOTA SEMARANG",
  "name": "KOTA SEMARANG",
  "province_id": "33"
 },
 {
  "alt_name": "KOTA PEKALONGAN",
  "docstatus": 0,
  "doctype": "Kabupaten",
  "id": 3375,
  "latitude": "-6.9",
  "longitude": "109.68333",
  "modified": "2024-10-04 23:25:41.725218",
  "nama": "KOTA PEKALONGAN",
  "name": "KOTA PEKALONGAN",
  "province_id": "33"
 },
 {
  "alt_name": "KOTA TEGAL",
  "docstatus": 0,
  "doctype": "Kabupaten",
  "id": 3376,
  "latitude": "-6.8686",
  "longitude": "109.1129",
  "modified": "2024-10-04 23:25:41.733271",
  "nama": "KOTA TEGAL",
  "name": "KOTA TEGAL",
  "province_id": "33"
 },
 {
  "alt_name": "KABUPATEN KULON PROGO",
  "docstatus": 0,
  "doctype": "Kabupaten",
  "id": 3401,
  "latitude": "-7.645",
  "longitude": "110.02694",
  "modified": "2024-10-04 23:25:41.742158",
  "nama": "KABUPATEN KULON PROGO",
  "name": "KABUPATEN KULON PROGO",
  "province_id": "34"
 },
 {
  "alt_name": "KABUPATEN BANTUL",
  "docstatus": 0,
  "doctype": "Kabupaten",
  "id": 3402,
  "latitude": "-7.9",
  "longitude": "110.36667",
  "modified": "2024-10-04 23:25:41.751061",
  "nama": "KABUPATEN BANTUL",
  "name": "KABUPATEN BANTUL",
  "province_id": "34"
 },
 {
  "alt_name": "KABUPATEN GUNUNG KIDUL",
  "docstatus": 0,
  "doctype": "Kabupaten",
  "id": 3403,
  "latitude": "-7.98333",
  "longitude": "110.61667",
  "modified": "2024-10-04 23:25:41.762604",
  "nama": "KABUPATEN GUNUNG KIDUL",
  "name": "KABUPATEN GUNUNG KIDUL",
  "province_id": "34"
 },
 {
  "alt_name": "KABUPATEN SLEMAN",
  "docstatus": 0,
  "doctype": "Kabupaten",
  "id": 3404,
  "latitude": "-7.68167",
  "longitude": "110.32333",
  "modified": "2024-10-04 23:25:41.770865",
  "nama": "KABUPATEN SLEMAN",
  "name": "KABUPATEN SLEMAN",
  "province_id": "34"
 },
 {
  "alt_name": "KOTA YOGYAKARTA",
  "docstatus": 0,
  "doctype": "Kabupaten",
  "id": 3471,
  "latitude": "-7.8",
  "longitude": "110.375",
  "modified": "2024-10-04 23:25:41.779870",
  "nama": "KOTA YOGYAKARTA",
  "name": "KOTA YOGYAKARTA",
  "province_id": "34"
 },
 {
  "alt_name": "KABUPATEN PACITAN",
  "docstatus": 0,
  "doctype": "Kabupaten",
  "id": 3501,
  "latitude": "-8.13333",
  "longitude": "111.16667",
  "modified": "2024-10-04 23:25:41.788901",
  "nama": "KABUPATEN PACITAN",
  "name": "KABUPATEN PACITAN",
  "province_id": "35"
 },
 {
  "alt_name": "KABUPATEN PONOROGO",
  "docstatus": 0,
  "doctype": "Kabupaten",
  "id": 3502,
  "latitude": "-7.93333",
  "longitude": "111.5",
  "modified": "2024-10-04 23:25:41.797839",
  "nama": "KABUPATEN PONOROGO",
  "name": "KABUPATEN PONOROGO",
  "province_id": "35"
 },
 {
  "alt_name": "KABUPATEN TRENGGALEK",
  "docstatus": 0,
  "doctype": "Kabupaten",
  "id": 3503,
  "latitude": "-8.16667",
  "longitude": "111.61667",
  "modified": "2024-10-04 23:25:41.806974",
  "nama": "KABUPATEN TRENGGALEK",
  "name": "KABUPATEN TRENGGALEK",
  "province_id": "35"
 },
 {
  "alt_name": "KABUPATEN TULUNGAGUNG",
  "docstatus": 0,
  "doctype": "Kabupaten",
  "id": 3504,
  "latitude": "-8.11667",
  "longitude": "111.91667",
  "modified": "2024-10-04 23:25:41.816116",
  "nama": "KABUPATEN TULUNGAGUNG",
  "name": "KABUPATEN TULUNGAGUNG",
  "province_id": "35"
 },
 {
  "alt_name": "KABUPATEN BLITAR",
  "docstatus": 0,
  "doctype": "Kabupaten",
  "id": 3505,
  "latitude": "-8.13333",
  "longitude": "112.25",
  "modified": "2024-10-04 23:25:41.826860",
  "nama": "KABUPATEN BLITAR",
  "name": "KABUPATEN BLITAR",
  "province_id": "35"
 },
 {
  "alt_name": "KABUPATEN KEDIRI",
  "docstatus": 0,
  "doctype": "Kabupaten",
  "id": 3506,
  "latitude": "-7.83333",
  "longitude": "112.16667",
  "modified": "2024-10-04 23:25:41.834867",
  "nama": "KABUPATEN KEDIRI",
  "name": "KABUPATEN KEDIRI",
  "province_id": "35"
 },
 {
  "alt_name": "KABUPATEN MALANG",
  "docstatus": 0,
  "doctype": "Kabupaten",
  "id": 3507,
  "latitude": "-8.16667",
  "longitude": "112.66667",
  "modified": "2024-10-04 23:25:41.843941",
  "nama": "KABUPATEN MALANG",
  "name": "KABUPATEN MALANG",
  "province_id": "35"
 },
 {
  "alt_name": "KABUPATEN LUMAJANG",
  "docstatus": 0,
  "doctype": "Kabupaten",
  "id": 3508,
  "latitude": "-8.11667",
  "longitude": "113.15",
  "modified": "2024-10-04 23:25:41.853530",
  "nama": "KABUPATEN LUMAJANG",
  "name": "KABUPATEN LUMAJANG",
  "province_id": "35"
 },
 {
  "alt_name": "KABUPATEN JEMBER",
  "docstatus": 0,
  "doctype": "Kabupaten",
  "id": 3509,
  "latitude": "-8.25",
  "longitude": "113.65",
  "modified": "2024-10-04 23:25:41.865236",
  "nama": "KABUPATEN JEMBER",
  "name": "KABUPATEN JEMBER",
  "province_id": "35"
 },
 {
  "alt_name": "KABUPATEN BANYUWANGI",
  "docstatus": 0,
  "doctype": "Kabupaten",
  "id": 3510,
  "latitude": "-8.33333",
  "longitude": "114.2",
  "modified": "2024-10-04 23:25:41.873015",
  "nama": "KABUPATEN BANYUWANGI",
  "name": "KABUPATEN BANYUWANGI",
  "province_id": "35"
 },
 {
  "alt_name": "KABUPATEN BONDOWOSO",
  "docstatus": 0,
  "doctype": "Kabupaten",
  "id": 3511,
  "latitude": "-7.9404",
  "longitude": "113.9834",
  "modified": "2024-10-04 23:25:41.881690",
  "nama": "KABUPATEN BONDOWOSO",
  "name": "KABUPATEN BONDOWOSO",
  "province_id": "35"
 },
 {
  "alt_name": "KABUPATEN SITUBONDO",
  "docstatus": 0,
  "doctype": "Kabupaten",
  "id": 3512,
  "latitude": "-7.71667",
  "longitude": "114.05",
  "modified": "2024-10-04 23:25:41.890679",
  "nama": "KABUPATEN SITUBONDO",
  "name": "KABUPATEN SITUBONDO",
  "province_id": "35"
 },
 {
  "alt_name": "KABUPATEN PROBOLINGGO",
  "docstatus": 0,
  "doctype": "Kabupaten",
  "id": 3513,
  "latitude": "-7.86667",
  "longitude": "113.31667",
  "modified": "2024-10-04 23:25:41.899726",
  "nama": "KABUPATEN PROBOLINGGO",
  "name": "KABUPATEN PROBOLINGGO",
  "province_id": "35"
 },
 {
  "alt_name": "KABUPATEN PASURUAN",
  "docstatus": 0,
  "doctype": "Kabupaten",
  "id": 3514,
  "latitude": "-7.73333",
  "longitude": "112.83333",
  "modified": "2024-10-04 23:25:41.912186",
  "nama": "KABUPATEN PASURUAN",
  "name": "KABUPATEN PASURUAN",
  "province_id": "35"
 },
 {
  "alt_name": "KABUPATEN SIDOARJO",
  "docstatus": 0,
  "doctype": "Kabupaten",
  "id": 3515,
  "latitude": "-7.45",
  "longitude": "112.7",
  "modified": "2024-10-04 23:25:41.921577",
  "nama": "KABUPATEN SIDOARJO",
  "name": "KABUPATEN SIDOARJO",
  "province_id": "35"
 },
 {
  "alt_name": "KABUPATEN MOJOKERTO",
  "docstatus": 0,
  "doctype": "Kabupaten",
  "id": 3516,
  "latitude": "-7.55",
  "longitude": "112.5",
  "modified": "2024-10-04 23:25:41.932298",
  "nama": "KABUPATEN MOJOKERTO",
  "name": "KABUPATEN MOJOKERTO",
  "province_id": "35"
 },
 {
  "alt_name": "KABUPATEN JOMBANG",
  "docstatus": 0,
  "doctype": "Kabupaten",
  "id": 3517,
  "latitude": "-7.55",
  "longitude": "112.25",
  "modified": "2024-10-04 23:25:41.940123",
  "nama": "KABUPATEN JOMBANG",
  "name": "KABUPATEN JOMBANG",
  "province_id": "35"
 },
 {
  "alt_name": "KABUPATEN NGANJUK",
  "docstatus": 0,
  "doctype": "Kabupaten",
  "id": 3518,
  "latitude": "-7.6",
  "longitude": "111.93333",
  "modified": "2024-10-04 23:25:41.949061",
  "nama": "KABUPATEN NGANJUK",
  "name": "KABUPATEN NGANJUK",
  "province_id": "35"
 },
 {
  "alt_name": "KABUPATEN MADIUN",
  "docstatus": 0,
  "doctype": "Kabupaten",
  "id": 3519,
  "latitude": "-7.61667",
  "longitude": "111.65",
  "modified": "2024-10-04 23:25:41.958124",
  "nama": "KABUPATEN MADIUN",
  "name": "KABUPATEN MADIUN",
  "province_id": "35"
 },
 {
  "alt_name": "KABUPATEN MAGETAN",
  "docstatus": 0,
  "doctype": "Kabupaten",
  "id": 3520,
  "latitude": "-7.64472",
  "longitude": "111.35917",
  "modified": "2024-10-04 23:25:41.968766",
  "nama": "KABUPATEN MAGETAN",
  "name": "KABUPATEN MAGETAN",
  "province_id": "35"
 },
 {
  "alt_name": "KABUPATEN NGAWI",
  "docstatus": 0,
  "doctype": "Kabupaten",
  "id": 3521,
  "latitude": "-7.47444",
  "longitude": "111.33444",
  "modified": "2024-10-04 23:25:41.975869",
  "nama": "KABUPATEN NGAWI",
  "name": "KABUPATEN NGAWI",
  "province_id": "35"
 },
 {
  "alt_name": "KABUPATEN BOJONEGORO",
  "docstatus": 0,
  "doctype": "Kabupaten",
  "id": 3522,
  "latitude": "-7.25",
  "longitude": "111.8",
  "modified": "2024-10-04 23:25:41.984357",
  "nama": "KABUPATEN BOJONEGORO",
  "name": "KABUPATEN BOJONEGORO",
  "province_id": "35"
 },
 {
  "alt_name": "KABUPATEN TUBAN",
  "docstatus": 0,
  "doctype": "Kabupaten",
  "id": 3523,
  "latitude": "-6.96667",
  "longitude": "111.9",
  "modified": "2024-10-04 23:25:41.993342",
  "nama": "KABUPATEN TUBAN",
  "name": "KABUPATEN TUBAN",
  "province_id": "35"
 },
 {
  "alt_name": "KABUPATEN LAMONGAN",
  "docstatus": 0,
  "doctype": "Kabupaten",
  "id": 3524,
  "latitude": "-7.13333",
  "longitude": "112.31667",
  "modified": "2024-10-04 23:25:42.001989",
  "nama": "KABUPATEN LAMONGAN",
  "name": "KABUPATEN LAMONGAN",
  "province_id": "35"
 },
 {
  "alt_name": "KABUPATEN GRESIK",
  "docstatus": 0,
  "doctype": "Kabupaten",
  "id": 3525,
  "latitude": "-7.1933",
  "longitude": "112.553",
  "modified": "2024-10-04 23:25:42.010743",
  "nama": "KABUPATEN GRESIK",
  "name": "KABUPATEN GRESIK",
  "province_id": "35"
 },
 {
  "alt_name": "KABUPATEN BANGKALAN",
  "docstatus": 0,
  "doctype": "Kabupaten",
  "id": 3526,
  "latitude": "-7.05",
  "longitude": "112.93333",
  "modified": "2024-10-04 23:25:42.019660",
  "nama": "KABUPATEN BANGKALAN",
  "name": "KABUPATEN BANGKALAN",
  "province_id": "35"
 },
 {
  "alt_name": "KABUPATEN SAMPANG",
  "docstatus": 0,
  "doctype": "Kabupaten",
  "id": 3527,
  "latitude": "-7.05",
  "longitude": "113.25",
  "modified": "2024-10-04 23:25:42.029195",
  "nama": "KABUPATEN SAMPANG",
  "name": "KABUPATEN SAMPANG",
  "province_id": "35"
 },
 {
  "alt_name": "KABUPATEN PAMEKASAN",
  "docstatus": 0,
  "doctype": "Kabupaten",
  "id": 3528,
  "latitude": "-7.06667",
  "longitude": "113.5",
  "modified": "2024-10-04 23:25:42.038102",
  "nama": "KABUPATEN PAMEKASAN",
  "name": "KABUPATEN PAMEKASAN",
  "province_id": "35"
 },
 {
  "alt_name": "KABUPATEN SUMENEP",
  "docstatus": 0,
  "doctype": "Kabupaten",
  "id": 3529,
  "latitude": "-7.11667",
  "longitude": "114.33333",
  "modified": "2024-10-04 23:25:42.046786",
  "nama": "KABUPATEN SUMENEP",
  "name": "KABUPATEN SUMENEP",
  "province_id": "35"
 },
 {
  "alt_name": "KOTA KEDIRI",
  "docstatus": 0,
  "doctype": "Kabupaten",
  "id": 3571,
  "latitude": "-7.83333",
  "longitude": "112.01667",
  "modified": "2024-10-04 23:25:42.055738",
  "nama": "KOTA KEDIRI",
  "name": "KOTA KEDIRI",
  "province_id": "35"
 },
 {
  "alt_name": "KOTA BLITAR",
  "docstatus": 0,
  "doctype": "Kabupaten",
  "id": 3572,
  "latitude": "-8.1",
  "longitude": "112.16667",
  "modified": "2024-10-04 23:25:42.065799",
  "nama": "KOTA BLITAR",
  "name": "KOTA BLITAR",
  "province_id": "35"
 },
 {
  "alt_name": "KOTA MALANG",
  "docstatus": 0,
  "doctype": "Kabupaten",
  "id": 3573,
  "latitude": "-7.975",
  "longitude": "112.63333",
  "modified": "2024-10-04 23:25:42.074449",
  "nama": "KOTA MALANG",
  "name": "KOTA MALANG",
  "province_id": "35"
 },
 {
  "alt_name": "KOTA PROBOLINGGO",
  "docstatus": 0,
  "doctype": "Kabupaten",
  "id": 3574,
  "latitude": "-7.78333",
  "longitude": "113.21667",
  "modified": "2024-10-04 23:25:42.081863",
  "nama": "KOTA PROBOLINGGO",
  "name": "KOTA PROBOLINGGO",
  "province_id": "35"
 },
 {
  "alt_name": "KOTA PASURUAN",
  "docstatus": 0,
  "doctype": "Kabupaten",
  "id": 3575,
  "latitude": "-7.65",
  "longitude": "112.9",
  "modified": "2024-10-04 23:25:42.090451",
  "nama": "KOTA PASURUAN",
  "name": "KOTA PASURUAN",
  "province_id": "35"
 },
 {
  "alt_name": "KOTA MOJOKERTO",
  "docstatus": 0,
  "doctype": "Kabupaten",
  "id": 3576,
  "latitude": "-7.46667",
  "longitude": "112.43333",
  "modified": "2024-10-04 23:25:42.099187",
  "nama": "KOTA MOJOKERTO",
  "name": "KOTA MOJOKERTO",
  "province_id": "35"
 },
 {
  "alt_name": "KOTA MADIUN",
  "docstatus": 0,
  "doctype": "Kabupaten",
  "id": 3577,
  "latitude": "-7.63333",
  "longitude": "111.53333",
  "modified": "2024-10-04 23:25:42.107975",
  "nama": "KOTA MADIUN",
  "name": "KOTA MADIUN",
  "province_id": "35"
 },
 {
  "alt_name": "KOTA SURABAYA",
  "docstatus": 0,
  "doctype": "Kabupaten",
  "id": 3578,
  "latitude": "-7.26667",
  "longitude": "112.71667",
  "modified": "2024-10-04 23:25:42.117191",
  "nama": "KOTA SURABAYA",
  "name": "KOTA SURABAYA",
  "province_id": "35"
 },
 {
  "alt_name": "KOTA BATU",
  "docstatus": 0,
  "doctype": "Kabupaten",
  "id": 3579,
  "latitude": "-7.83272",
  "longitude": "112.53751",
  "modified": "2024-10-04 23:25:42.126171",
  "nama": "KOTA BATU",
  "name": "KOTA BATU",
  "province_id": "35"
 },
 {
  "alt_name": "KABUPATEN PANDEGLANG",
  "docstatus": 0,
  "doctype": "Kabupaten",
  "id": 3601,
  "latitude": "-6.63333",
  "longitude": "105.75",
  "modified": "2024-10-04 23:25:42.137113",
  "nama": "KABUPATEN PANDEGLANG",
  "name": "KABUPATEN PANDEGLANG",
  "province_id": "36"
 },
 {
  "alt_name": "KABUPATEN LEBAK",
  "docstatus": 0,
  "doctype": "Kabupaten",
  "id": 3602,
  "latitude": "-6.65",
  "longitude": "106.21667",
  "modified": "2024-10-04 23:25:42.145994",
  "nama": "KABUPATEN LEBAK",
  "name": "KABUPATEN LEBAK",
  "province_id": "36"
 },
 {
  "alt_name": "KABUPATEN TANGERANG",
  "docstatus": 0,
  "doctype": "Kabupaten",
  "id": 3603,
  "latitude": "-6.2",
  "longitude": "106.46667",
  "modified": "2024-10-04 23:25:42.154972",
  "nama": "KABUPATEN TANGERANG",
  "name": "KABUPATEN TANGERANG",
  "province_id": "36"
 },
 {
  "alt_name": "KABUPATEN SERANG",
  "docstatus": 0,
  "doctype": "Kabupaten",
  "id": 3604,
  "latitude": "-6.15",
  "longitude": "106",
  "modified": "2024-10-04 23:25:42.169713",
  "nama": "KABUPATEN SERANG",
  "name": "KABUPATEN SERANG",
  "province_id": "36"
 },
 {
  "alt_name": "KOTA TANGERANG",
  "docstatus": 0,
  "doctype": "Kabupaten",
  "id": 3671,
  "latitude": "-6.17944",
  "longitude": "106.62991",
  "modified": "2024-10-04 23:25:42.178333",
  "nama": "KOTA TANGERANG",
  "name": "KOTA TANGERANG",
  "province_id": "36"
 },
 {
  "alt_name": "KOTA CILEGON",
  "docstatus": 0,
  "doctype": "Kabupaten",
  "id": 3672,
  "latitude": "-6.01667",
  "longitude": "106.01667",
  "modified": "2024-10-04 23:25:42.187413",
  "nama": "KOTA CILEGON",
  "name": "KOTA CILEGON",
  "province_id": "36"
 },
 {
  "alt_name": "KOTA SERANG",
  "docstatus": 0,
  "doctype": "Kabupaten",
  "id": 3673,
  "latitude": "-6.12563",
  "longitude": "106.14999",
  "modified": "2024-10-04 23:25:42.196557",
  "nama": "KOTA SERANG",
  "name": "KOTA SERANG",
  "province_id": "36"
 },
 {
  "alt_name": "KOTA TANGERANG SELATAN",
  "docstatus": 0,
  "doctype": "Kabupaten",
  "id": 3674,
  "latitude": "-6.29373",
  "longitude": "106.71244",
  "modified": "2024-10-04 23:25:42.206065",
  "nama": "KOTA TANGERANG SELATAN",
  "name": "KOTA TANGERANG SELATAN",
  "province_id": "36"
 },
 {
  "alt_name": "KABUPATEN JEMBRANA",
  "docstatus": 0,
  "doctype": "Kabupaten",
  "id": 5101,
  "latitude": "-8.3",
  "longitude": "114.66667",
  "modified": "2024-10-04 23:25:42.215077",
  "nama": "KABUPATEN JEMBRANA",
  "name": "KABUPATEN JEMBRANA",
  "province_id": "51"
 },
 {
  "alt_name": "KABUPATEN TABANAN",
  "docstatus": 0,
  "doctype": "Kabupaten",
  "id": 5102,
  "latitude": "-8.43333",
  "longitude": "115.06667",
  "modified": "2024-10-04 23:25:42.223995",
  "nama": "KABUPATEN TABANAN",
  "name": "KABUPATEN TABANAN",
  "province_id": "51"
 },
 {
  "alt_name": "KABUPATEN BADUNG",
  "docstatus": 0,
  "doctype": "Kabupaten",
  "id": 5103,
  "latitude": "-8.51667",
  "longitude": "115.2",
  "modified": "2024-10-04 23:25:42.233431",
  "nama": "KABUPATEN BADUNG",
  "name": "KABUPATEN BADUNG",
  "province_id": "51"
 },
 {
  "alt_name": "KABUPATEN GIANYAR",
  "docstatus": 0,
  "doctype": "Kabupaten",
  "id": 5104,
  "latitude": "-8.46667",
  "longitude": "115.28333",
  "modified": "2024-10-04 23:25:42.244263",
  "nama": "KABUPATEN GIANYAR",
  "name": "KABUPATEN GIANYAR",
  "province_id": "51"
 },
 {
  "alt_name": "KABUPATEN KLUNGKUNG",
  "docstatus": 0,
  "doctype": "Kabupaten",
  "id": 5105,
  "latitude": "-8.55",
  "longitude": "115.4",
  "modified": "2024-10-04 23:25:42.251953",
  "nama": "KABUPATEN KLUNGKUNG",
  "name": "KABUPATEN KLUNGKUNG",
  "province_id": "51"
 },
 {
  "alt_name": "KABUPATEN BANGLI",
  "docstatus": 0,
  "doctype": "Kabupaten",
  "id": 5106,
  "latitude": "-8.28333",
  "longitude": "115.35",
  "modified": "2024-10-04 23:25:42.260230",
  "nama": "KABUPATEN BANGLI",
  "name": "KABUPATEN BANGLI",
  "province_id": "51"
 },
 {
  "alt_name": "KABUPATEN KARANG ASEM",
  "docstatus": 0,
  "doctype": "Kabupaten",
  "id": 5107,
  "latitude": "-8.3891",
  "longitude": "115.5393",
  "modified": "2024-10-04 23:25:42.270229",
  "nama": "KABUPATEN KARANG ASEM",
  "name": "KABUPATEN KARANG ASEM",
  "province_id": "51"
 },
 {
  "alt_name": "KABUPATEN BULELENG",
  "docstatus": 0,
  "doctype": "Kabupaten",
  "id": 5108,
  "latitude": "-8.25",
  "longitude": "114.96667",
  "modified": "2024-10-04 23:25:42.278673",
  "nama": "KABUPATEN BULELENG",
  "name": "KABUPATEN BULELENG",
  "province_id": "51"
 },
 {
  "alt_name": "KOTA DENPASAR",
  "docstatus": 0,
  "doctype": "Kabupaten",
  "id": 5171,
  "latitude": "-8.66667",
  "longitude": "115.21663",
  "modified": "2024-10-04 23:25:42.286940",
  "nama": "KOTA DENPASAR",
  "name": "KOTA DENPASAR",
  "province_id": "51"
 },
 {
  "alt_name": "KABUPATEN LOMBOK BARAT",
  "docstatus": 0,
  "doctype": "Kabupaten",
  "id": 5201,
  "latitude": "-8.69583",
  "longitude": "116.11667",
  "modified": "2024-10-04 23:25:42.295185",
  "nama": "KABUPATEN LOMBOK BARAT",
  "name": "KABUPATEN LOMBOK BARAT",
  "province_id": "52"
 },
 {
  "alt_name": "KABUPATEN LOMBOK TENGAH",
  "docstatus": 0,
  "doctype": "Kabupaten",
  "id": 5202,
  "latitude": "-8.7",
  "longitude": "116.3",
  "modified": "2024-10-04 23:25:42.304150",
  "nama": "KABUPATEN LOMBOK TENGAH",
  "name": "KABUPATEN LOMBOK TENGAH",
  "province_id": "52"
 },
 {
  "alt_name": "KABUPATEN LOMBOK TIMUR",
  "docstatus": 0,
  "doctype": "Kabupaten",
  "id": 5203,
  "latitude": "-8.53333",
  "longitude": "116.53333",
  "modified": "2024-10-04 23:25:42.313153",
  "nama": "KABUPATEN LOMBOK TIMUR",
  "name": "KABUPATEN LOMBOK TIMUR",
  "province_id": "52"
 },
 {
  "alt_name": "KABUPATEN SUMBAWA",
  "docstatus": 0,
  "doctype": "Kabupaten",
  "id": 5204,
  "latitude": "-8.7439",
  "longitude": "117.3324",
  "modified": "2024-10-04 23:25:42.322036",
  "nama": "KABUPATEN SUMBAWA",
  "name": "KABUPATEN SUMBAWA",
  "province_id": "52"
 },
 {
  "alt_name": "KABUPATEN DOMPU",
  "docstatus": 0,
  "doctype": "Kabupaten",
  "id": 5205,
  "latitude": "-8.5094",
  "longitude": "118.4816",
  "modified": "2024-10-04 23:25:42.330916",
  "nama": "KABUPATEN DOMPU",
  "name": "KABUPATEN DOMPU",
  "province_id": "52"
 },
 {
  "alt_name": "KABUPATEN BIMA",
  "docstatus": 0,
  "doctype": "Kabupaten",
  "id": 5206,
  "latitude": "-8.6",
  "longitude": "118.61667",
  "modified": "2024-10-04 23:25:42.340094",
  "nama": "KABUPATEN BIMA",
  "name": "KABUPATEN BIMA",
  "province_id": "52"
 },
 {
  "alt_name": "KABUPATEN SUMBAWA BARAT",
  "docstatus": 0,
  "doctype": "Kabupaten",
  "id": 5207,
  "latitude": "-8.75159",
  "longitude": "116.92132",
  "modified": "2024-10-04 23:25:42.351403",
  "nama": "KABUPATEN SUMBAWA BARAT",
  "name": "KABUPATEN SUMBAWA BARAT",
  "province_id": "52"
 },
 {
  "alt_name": "KABUPATEN LOMBOK UTARA",
  "docstatus": 0,
  "doctype": "Kabupaten",
  "id": 5208,
  "latitude": "-8.35214",
  "longitude": "116.40152",
  "modified": "2024-10-04 23:25:42.359103",
  "nama": "KABUPATEN LOMBOK UTARA",
  "name": "KABUPATEN LOMBOK UTARA",
  "province_id": "52"
 },
 {
  "alt_name": "KOTA MATARAM",
  "docstatus": 0,
  "doctype": "Kabupaten",
  "id": 5271,
  "latitude": "-8.5833",
  "longitude": "116.1167",
  "modified": "2024-10-04 23:25:42.368642",
  "nama": "KOTA MATARAM",
  "name": "KOTA MATARAM",
  "province_id": "52"
 },
 {
  "alt_name": "KOTA BIMA",
  "docstatus": 0,
  "doctype": "Kabupaten",
  "id": 5272,
  "latitude": "-8.46728",
  "longitude": "118.75259",
  "modified": "2024-10-04 23:25:42.378403",
  "nama": "KOTA BIMA",
  "name": "KOTA BIMA",
  "province_id": "52"
 },
 {
  "alt_name": "KABUPATEN SUMBA BARAT",
  "docstatus": 0,
  "doctype": "Kabupaten",
  "id": 5301,
  "latitude": "-9.56667",
  "longitude": "119.45",
  "modified": "2024-10-04 23:25:42.385979",
  "nama": "KABUPATEN SUMBA BARAT",
  "name": "KABUPATEN SUMBA BARAT",
  "province_id": "53"
 },
 {
  "alt_name": "KABUPATEN SUMBA TIMUR",
  "docstatus": 0,
  "doctype": "Kabupaten",
  "id": 5302,
  "latitude": "-9.88333",
  "longitude": "120.25",
  "modified": "2024-10-04 23:25:42.395151",
  "nama": "KABUPATEN SUMBA TIMUR",
  "name": "KABUPATEN SUMBA TIMUR",
  "province_id": "53"
 },
 {
  "alt_name": "KABUPATEN KUPANG",
  "docstatus": 0,
  "doctype": "Kabupaten",
  "id": 5303,
  "latitude": "-9.91667",
  "longitude": "123.83333",
  "modified": "2024-10-04 23:25:42.404117",
  "nama": "KABUPATEN KUPANG",
  "name": "KABUPATEN KUPANG",
  "province_id": "53"
 },
 {
  "alt_name": "KABUPATEN TIMOR TENGAH SELATAN",
  "docstatus": 0,
  "doctype": "Kabupaten",
  "id": 5304,
  "latitude": "-9.83333",
  "longitude": "124.4",
  "modified": "2024-10-04 23:25:42.415829",
  "nama": "KABUPATEN TIMOR TENGAH SELATAN",
  "name": "KABUPATEN TIMOR TENGAH SELATAN",
  "province_id": "53"
 },
 {
  "alt_name": "KABUPATEN TIMOR TENGAH UTARA",
  "docstatus": 0,
  "doctype": "Kabupaten",
  "id": 5305,
  "latitude": "-9.33136",
  "longitude": "124.51904",
  "modified": "2024-10-04 23:25:42.424785",
  "nama": "KABUPATEN TIMOR TENGAH UTARA",
  "name": "KABUPATEN TIMOR TENGAH UTARA",
  "province_id": "53"
 },
 {
  "alt_name": "KABUPATEN BELU",
  "docstatus": 0,
  "doctype": "Kabupaten",
  "id": 5306,
  "latitude": "-9.41258",
  "longitude": "124.95066",
  "modified": "2024-10-04 23:25:42.434093",
  "nama": "KABUPATEN BELU",
  "name": "KABUPATEN BELU",
  "province_id": "53"
 },
 {
  "alt_name": "KABUPATEN ALOR",
  "docstatus": 0,
  "doctype": "Kabupaten",
  "id": 5307,
  "latitude": "-8.3",
  "longitude": "124.56667",
  "modified": "2024-10-04 23:25:42.443407",
  "nama": "KABUPATEN ALOR",
  "name": "KABUPATEN ALOR",
  "province_id": "53"
 },
 {
  "alt_name": "KABUPATEN LEMBATA",
  "docstatus": 0,
  "doctype": "Kabupaten",
  "id": 5308,
  "latitude": "-8.41396",
  "longitude": "123.55225",
  "modified": "2024-10-04 23:25:42.453538",
  "nama": "KABUPATEN LEMBATA",
  "name": "KABUPATEN LEMBATA",
  "province_id": "53"
 },
 {
  "alt_name": "KABUPATEN FLORES TIMUR",
  "docstatus": 0,
  "doctype": "Kabupaten",
  "id": 5309,
  "latitude": "-8.24224",
  "longitude": "122.96817",
  "modified": "2024-10-04 23:25:42.461418",
  "nama": "KABUPATEN FLORES TIMUR",
  "name": "KABUPATEN FLORES TIMUR",
  "province_id": "53"
 },
 {
  "alt_name": "KABUPATEN SIKKA",
  "docstatus": 0,
  "doctype": "Kabupaten",
  "id": 5310,
  "latitude": "-8.66667",
  "longitude": "122.36667",
  "modified": "2024-10-04 23:25:42.469882",
  "nama": "KABUPATEN SIKKA",
  "name": "KABUPATEN SIKKA",
  "province_id": "53"
 },
 {
  "alt_name": "KABUPATEN ENDE",
  "docstatus": 0,
  "doctype": "Kabupaten",
  "id": 5311,
  "latitude": "-8.84056",
  "longitude": "121.66389",
  "modified": "2024-10-04 23:25:42.480265",
  "nama": "KABUPATEN ENDE",
  "name": "KABUPATEN ENDE",
  "province_id": "53"
 },
 {
  "alt_name": "KABUPATEN NGADA",
  "docstatus": 0,
  "doctype": "Kabupaten",
  "id": 5312,
  "latitude": "-8.66667",
  "longitude": "121",
  "modified": "2024-10-04 23:25:42.487825",
  "nama": "KABUPATEN NGADA",
  "name": "KABUPATEN NGADA",
  "province_id": "53"
 },
 {
  "alt_name": "KABUPATEN MANGGARAI",
  "docstatus": 0,
  "doctype": "Kabupaten",
  "id": 5313,
  "latitude": "-8.56667",
  "longitude": "120.41667",
  "modified": "2024-10-04 23:25:42.496183",
  "nama": "KABUPATEN MANGGARAI",
  "name": "KABUPATEN MANGGARAI",
  "province_id": "53"
 },
 {
  "alt_name": "KABUPATEN ROTE NDAO",
  "docstatus": 0,
  "doctype": "Kabupaten",
  "id": 5314,
  "latitude": "-10.73617",
  "longitude": "123.12054",
  "modified": "2024-10-04 23:25:42.504435",
  "nama": "KABUPATEN ROTE NDAO",
  "name": "KABUPATEN ROTE NDAO",
  "province_id": "53"
 },
 {
  "alt_name": "KABUPATEN MANGGARAI BARAT",
  "docstatus": 0,
  "doctype": "Kabupaten",
  "id": 5315,
  "latitude": "-8.64484",
  "longitude": "119.88281",
  "modified": "2024-10-04 23:25:42.513070",
  "nama": "KABUPATEN MANGGARAI BARAT",
  "name": "KABUPATEN MANGGARAI BARAT",
  "province_id": "53"
 },
 {
  "alt_name": "KABUPATEN SUMBA TENGAH",
  "docstatus": 0,
  "doctype": "Kabupaten",
  "id": 5316,
  "latitude": "-9.62941",
  "longitude": "119.61914",
  "modified": "2024-10-04 23:25:42.521886",
  "nama": "KABUPATEN SUMBA TENGAH",
  "name": "KABUPATEN SUMBA TENGAH",
  "province_id": "53"
 },
 {
  "alt_name": "KABUPATEN SUMBA BARAT DAYA",
  "docstatus": 0,
  "doctype": "Kabupaten",
  "id": 5317,
  "latitude": "-9.56216",
  "longitude": "119.08905",
  "modified": "2024-10-04 23:25:42.530763",
  "nama": "KABUPATEN SUMBA BARAT DAYA",
  "name": "KABUPATEN SUMBA BARAT DAYA",
  "province_id": "53"
 },
 {
  "alt_name": "KABUPATEN NAGEKEO",
  "docstatus": 0,
  "doctype": "Kabupaten",
  "id": 5318,
  "latitude": "-8.8721",
  "longitude": "121.20963",
  "modified": "2024-10-04 23:25:42.539617",
  "nama": "KABUPATEN NAGEKEO",
  "name": "KABUPATEN NAGEKEO",
  "province_id": "53"
 },
 {
  "alt_name": "KABUPATEN MANGGARAI TIMUR",
  "docstatus": 0,
  "doctype": "Kabupaten",
  "id": 5319,
  "latitude": "-8.55533",
  "longitude": "120.59761",
  "modified": "2024-10-04 23:25:42.548523",
  "nama": "KABUPATEN MANGGARAI TIMUR",
  "name": "KABUPATEN MANGGARAI TIMUR",
  "province_id": "53"
 },
 {
  "alt_name": "KABUPATEN SABU RAIJUA",
  "docstatus": 0,
  "doctype": "Kabupaten",
  "id": 5320,
  "latitude": "-10.56286",
  "longitude": "121.78894",
  "modified": "2024-10-04 23:25:42.558388",
  "nama": "KABUPATEN SABU RAIJUA",
  "name": "KABUPATEN SABU RAIJUA",
  "province_id": "53"
 },
 {
  "alt_name": "KABUPATEN MALAKA",
  "docstatus": 0,
  "doctype": "Kabupaten",
  "id": 5321,
  "latitude": "-9.5632",
  "longitude": "124.89481",
  "modified": "2024-10-04 23:25:42.566337",
  "nama": "KABUPATEN MALAKA",
  "name": "KABUPATEN MALAKA",
  "province_id": "53"
 },
 {
  "alt_name": "KOTA KUPANG",
  "docstatus": 0,
  "doctype": "Kabupaten",
  "id": 5371,
  "latitude": "-10.21667",
  "longitude": "123.6",
  "modified": "2024-10-04 23:25:42.575320",
  "nama": "KOTA KUPANG",
  "name": "KOTA KUPANG",
  "province_id": "53"
 },
 {
  "alt_name": "KABUPATEN SAMBAS",
  "docstatus": 0,
  "doctype": "Kabupaten",
  "id": 6101,
  "latitude": "1.41667",
  "longitude": "109.33333",
  "modified": "2024-10-04 23:25:42.583894",
  "nama": "KABUPATEN SAMBAS",
  "name": "KABUPATEN SAMBAS",
  "province_id": "61"
 },
 {
  "alt_name": "KABUPATEN BENGKAYANG",
  "docstatus": 0,
  "doctype": "Kabupaten",
  "id": 6102,
  "latitude": "1.06911",
  "longitude": "109.66393",
  "modified": "2024-10-04 23:25:42.591328",
  "nama": "KABUPATEN BENGKAYANG",
  "name": "KABUPATEN BENGKAYANG",
  "province_id": "61"
 },
 {
  "alt_name": "KABUPATEN LANDAK",
  "docstatus": 0,
  "doctype": "Kabupaten",
  "id": 6103,
  "latitude": "0.42373",
  "longitude": "109.75917",
  "modified": "2024-10-04 23:25:42.600216",
  "nama": "KABUPATEN LANDAK",
  "name": "KABUPATEN LANDAK",
  "province_id": "61"
 },
 {
  "alt_name": "KABUPATEN MEMPAWAH",
  "docstatus": 0,
  "doctype": "Kabupaten",
  "id": 6104,
  "latitude": "0.25",
  "longitude": "109.16667",
  "modified": "2024-10-04 23:25:42.609110",
  "nama": "KABUPATEN MEMPAWAH",
  "name": "KABUPATEN MEMPAWAH",
  "province_id": "61"
 },
 {
  "alt_name": "KABUPATEN SANGGAU",
  "docstatus": 0,
  "doctype": "Kabupaten",
  "id": 6105,
  "latitude": "0.25472",
  "longitude": "110.45",
  "modified": "2024-10-04 23:25:42.618287",
  "nama": "KABUPATEN SANGGAU",
  "name": "KABUPATEN SANGGAU",
  "province_id": "61"
 },
 {
  "alt_name": "KABUPATEN KETAPANG",
  "docstatus": 0,
  "doctype": "Kabupaten",
  "id": 6106,
  "latitude": "-1.58333",
  "longitude": "110.5",
  "modified": "2024-10-04 23:25:42.627207",
  "nama": "KABUPATEN KETAPANG",
  "name": "KABUPATEN KETAPANG",
  "province_id": "61"
 },
 {
  "alt_name": "KABUPATEN SINTANG",
  "docstatus": 0,
  "doctype": "Kabupaten",
  "id": 6107,
  "latitude": "-0.08333",
  "longitude": "112.08333",
  "modified": "2024-10-04 23:25:42.636577",
  "nama": "KABUPATEN SINTANG",
  "name": "KABUPATEN SINTANG",
  "province_id": "61"
 },
 {
  "alt_name": "KABUPATEN KAPUAS HULU",
  "docstatus": 0,
  "doctype": "Kabupaten",
  "id": 6108,
  "latitude": "0.81667",
  "longitude": "112.76667",
  "modified": "2024-10-04 23:25:42.645575",
  "nama": "KABUPATEN KAPUAS HULU",
  "name": "KABUPATEN KAPUAS HULU",
  "province_id": "61"
 },
 {
  "alt_name": "KABUPATEN SEKADAU",
  "docstatus": 0,
  "doctype": "Kabupaten",
  "id": 6109,
  "latitude": "0.03485",
  "longitude": "110.95066",
  "modified": "2024-10-04 23:25:42.655358",
  "nama": "KABUPATEN SEKADAU",
  "name": "KABUPATEN SEKADAU",
  "province_id": "61"
 },
 {
  "alt_name": "KABUPATEN MELAWI",
  "docstatus": 0,
  "doctype": "Kabupaten",
  "id": 6110,
  "latitude": "-0.33617",
  "longitude": "111.698",
  "modified": "2024-10-04 23:25:42.666812",
  "nama": "KABUPATEN MELAWI",
  "name": "KABUPATEN MELAWI",
  "province_id": "61"
 },
 {
  "alt_name": "KABUPATEN KAYONG UTARA",
  "docstatus": 0,
  "doctype": "Kabupaten",
  "id": 6111,
  "latitude": "-1.43711",
  "longitude": "110.79781",
  "modified": "2024-10-04 23:25:42.676154",
  "nama": "KABUPATEN KAYONG UTARA",
  "name": "KABUPATEN KAYONG UTARA",
  "province_id": "61"
 },
 {
  "alt_name": "KABUPATEN KUBU RAYA",
  "docstatus": 0,
  "doctype": "Kabupaten",
  "id": 6112,
  "latitude": "0.01637",
  "longitude": "109.33731",
  "modified": "2024-10-04 23:25:42.685869",
  "nama": "KABUPATEN KUBU RAYA",
  "name": "KABUPATEN KUBU RAYA",
  "province_id": "61"
 },
 {
  "alt_name": "KOTA PONTIANAK",
  "docstatus": 0,
  "doctype": "Kabupaten",
  "id": 6171,
  "latitude": "-0.08333",
  "longitude": "109.36667",
  "modified": "2024-10-04 23:25:42.692885",
  "nama": "KOTA PONTIANAK",
  "name": "KOTA PONTIANAK",
  "province_id": "61"
 },
 {
  "alt_name": "KOTA SINGKAWANG",
  "docstatus": 0,
  "doctype": "Kabupaten",
  "id": 6172,
  "latitude": "0.90734",
  "longitude": "109.00103",
  "modified": "2024-10-04 23:25:42.700906",
  "nama": "KOTA SINGKAWANG",
  "name": "KOTA SINGKAWANG",
  "province_id": "61"
 },
 {
  "alt_name": "KABUPATEN KOTAWARINGIN BARAT",
  "docstatus": 0,
  "doctype": "Kabupaten",
  "id": 6201,
  "latitude": "-2.4",
  "longitude": "111.73333",
  "modified": "2024-10-04 23:25:42.709680",
  "nama": "KABUPATEN KOTAWARINGIN BARAT",
  "name": "KABUPATEN KOTAWARINGIN BARAT",
  "province_id": "62"
 },
 {
  "alt_name": "KABUPATEN KOTAWARINGIN TIMUR",
  "docstatus": 0,
  "doctype": "Kabupaten",
  "id": 6202,
  "latitude": "-2.08333",
  "longitude": "112.75",
  "modified": "2024-10-04 23:25:42.718711",
  "nama": "KABUPATEN KOTAWARINGIN TIMUR",
  "name": "KABUPATEN KOTAWARINGIN TIMUR",
  "province_id": "62"
 },
 {
  "alt_name": "KABUPATEN KAPUAS",
  "docstatus": 0,
  "doctype": "Kabupaten",
  "id": 6203,
  "latitude": "-2.01667",
  "longitude": "114.38333",
  "modified": "2024-10-04 23:25:42.728403",
  "nama": "KABUPATEN KAPUAS",
  "name": "KABUPATEN KAPUAS",
  "province_id": "62"
 },
 {
  "alt_name": "KABUPATEN BARITO SELATAN",
  "docstatus": 0,
  "doctype": "Kabupaten",
  "id": 6204,
  "latitude": "-1.86667",
  "longitude": "114.73333",
  "modified": "2024-10-04 23:25:42.737656",
  "nama": "KABUPATEN BARITO SELATAN",
  "name": "KABUPATEN BARITO SELATAN",
  "province_id": "62"
 },
 {
  "alt_name": "KABUPATEN BARITO UTARA",
  "docstatus": 0,
  "doctype": "Kabupaten",
  "id": 6205,
  "latitude": "-0.98333",
  "longitude": "115.1",
  "modified": "2024-10-04 23:25:42.746550",
  "nama": "KABUPATEN BARITO UTARA",
  "name": "KABUPATEN BARITO UTARA",
  "province_id": "62"
 },
 {
  "alt_name": "KABUPATEN SUKAMARA",
  "docstatus": 0,
  "doctype": "Kabupaten",
  "id": 6206,
  "latitude": "-2.62675",
  "longitude": "111.23681",
  "modified": "2024-10-04 23:25:42.755497",
  "nama": "KABUPATEN SUKAMARA",
  "name": "KABUPATEN SUKAMARA",
  "province_id": "62"
 },
 {
  "alt_name": "KABUPATEN LAMANDAU",
  "docstatus": 0,
  "doctype": "Kabupaten",
  "id": 6207,
  "latitude": "-1.83828",
  "longitude": "111.2869",
  "modified": "2024-10-04 23:25:42.766369",
  "nama": "KABUPATEN LAMANDAU",
  "name": "KABUPATEN LAMANDAU",
  "province_id": "62"
 },
 {
  "alt_name": "KABUPATEN SERUYAN",
  "docstatus": 0,
  "doctype": "Kabupaten",
  "id": 6208,
  "latitude": "-2.33333",
  "longitude": "112.25",
  "modified": "2024-10-04 23:25:42.774915",
  "nama": "KABUPATEN SERUYAN",
  "name": "KABUPATEN SERUYAN",
  "province_id": "62"
 },
 {
  "alt_name": "KABUPATEN KATINGAN",
  "docstatus": 0,
  "doctype": "Kabupaten",
  "id": 6209,
  "latitude": "-2.06667",
  "longitude": "113.4",
  "modified": "2024-10-04 23:25:42.785462",
  "nama": "KABUPATEN KATINGAN",
  "name": "KABUPATEN KATINGAN",
  "province_id": "62"
 },
 {
  "alt_name": "KABUPATEN PULANG PISAU",
  "docstatus": 0,
  "doctype": "Kabupaten",
  "id": 6210,
  "latitude": "-3.11858",
  "longitude": "113.8623",
  "modified": "2024-10-04 23:25:42.792655",
  "nama": "KABUPATEN PULANG PISAU",
  "name": "KABUPATEN PULANG PISAU",
  "province_id": "62"
 },
 {
  "alt_name": "KABUPATEN GUNUNG MAS",
  "docstatus": 0,
  "doctype": "Kabupaten",
  "id": 6211,
  "latitude": "-0.95",
  "longitude": "113.5",
  "modified": "2024-10-04 23:25:42.801527",
  "nama": "KABUPATEN GUNUNG MAS",
  "name": "KABUPATEN GUNUNG MAS",
  "province_id": "62"
 },
 {
  "alt_name": "KABUPATEN BARITO TIMUR",
  "docstatus": 0,
  "doctype": "Kabupaten",
  "id": 6212,
  "latitude": "-1.93333",
  "longitude": "115.1",
  "modified": "2024-10-04 23:25:42.810350",
  "nama": "KABUPATEN BARITO TIMUR",
  "name": "KABUPATEN BARITO TIMUR",
  "province_id": "62"
 },
 {
  "alt_name": "KABUPATEN MURUNG RAYA",
  "docstatus": 0,
  "doctype": "Kabupaten",
  "id": 6213,
  "latitude": "-0.01667",
  "longitude": "114.26667",
  "modified": "2024-10-04 23:25:42.818908",
  "nama": "KABUPATEN MURUNG RAYA",
  "name": "KABUPATEN MURUNG RAYA",
  "province_id": "62"
 },
 {
  "alt_name": "KOTA PALANGKA RAYA",
  "docstatus": 0,
  "doctype": "Kabupaten",
  "id": 6271,
  "latitude": "-1.76979",
  "longitude": "113.73126",
  "modified": "2024-10-04 23:25:42.828207",
  "nama": "KOTA PALANGKA RAYA",
  "name": "KOTA PALANGKA RAYA",
  "province_id": "62"
 },
 {
  "alt_name": "KABUPATEN TANAH LAUT",
  "docstatus": 0,
  "doctype": "Kabupaten",
  "id": 6301,
  "latitude": "-3.88333",
  "longitude": "114.86667",
  "modified": "2024-10-04 23:25:42.837228",
  "nama": "KABUPATEN TANAH LAUT",
  "name": "KABUPATEN TANAH LAUT",
  "province_id": "63"
 },
 {
  "alt_name": "KABUPATEN KOTA BARU",
  "docstatus": 0,
  "doctype": "Kabupaten",
  "id": 6302,
  "latitude": "-3",
  "longitude": "116",
  "modified": "2024-10-04 23:25:42.846260",
  "nama": "KABUPATEN KOTA BARU",
  "name": "KABUPATEN KOTA BARU",
  "province_id": "63"
 },
 {
  "alt_name": "KABUPATEN BANJAR",
  "docstatus": 0,
  "doctype": "Kabupaten",
  "id": 6303,
  "latitude": "-3.31667",
  "longitude": "115.08333",
  "modified": "2024-10-04 23:25:42.855298",
  "nama": "KABUPATEN BANJAR",
  "name": "KABUPATEN BANJAR",
  "province_id": "63"
 },
 {
  "alt_name": "KABUPATEN BARITO KUALA",
  "docstatus": 0,
  "doctype": "Kabupaten",
  "id": 6304,
  "latitude": "-3.08333",
  "longitude": "114.61667",
  "modified": "2024-10-04 23:25:42.864669",
  "nama": "KABUPATEN BARITO KUALA",
  "name": "KABUPATEN BARITO KUALA",
  "province_id": "63"
 },
 {
  "alt_name": "KABUPATEN TAPIN",
  "docstatus": 0,
  "doctype": "Kabupaten",
  "id": 6305,
  "latitude": "-2.91667",
  "longitude": "115.03333",
  "modified": "2024-10-04 23:25:42.875375",
  "nama": "KABUPATEN TAPIN",
  "name": "KABUPATEN TAPIN",
  "province_id": "63"
 },
 {
  "alt_name": "KABUPATEN HULU SUNGAI SELATAN",
  "docstatus": 0,
  "doctype": "Kabupaten",
  "id": 6306,
  "latitude": "-2.75",
  "longitude": "115.2",
  "modified": "2024-10-04 23:25:42.885401",
  "nama": "KABUPATEN HULU SUNGAI SELATAN",
  "name": "KABUPATEN HULU SUNGAI SELATAN",
  "province_id": "63"
 },
 {
  "alt_name": "KABUPATEN HULU SUNGAI TENGAH",
  "docstatus": 0,
  "doctype": "Kabupaten",
  "id": 6307,
  "latitude": "-2.61667",
  "longitude": "115.41667",
  "modified": "2024-10-04 23:25:42.893159",
  "nama": "KABUPATEN HULU SUNGAI TENGAH",
  "name": "KABUPATEN HULU SUNGAI TENGAH",
  "province_id": "63"
 },
 {
  "alt_name": "KABUPATEN HULU SUNGAI UTARA",
  "docstatus": 0,
  "doctype": "Kabupaten",
  "id": 6308,
  "latitude": "-2.45",
  "longitude": "115.13333",
  "modified": "2024-10-04 23:25:42.901793",
  "nama": "KABUPATEN HULU SUNGAI UTARA",
  "name": "KABUPATEN HULU SUNGAI UTARA",
  "province_id": "63"
 },
 {
  "alt_name": "KABUPATEN TABALONG",
  "docstatus": 0,
  "doctype": "Kabupaten",
  "id": 6309,
  "latitude": "-1.88333",
  "longitude": "115.5",
  "modified": "2024-10-04 23:25:42.910728",
  "nama": "KABUPATEN TABALONG",
  "name": "KABUPATEN TABALONG",
  "province_id": "63"
 },