[
 {
  "docstatus": 0,
  "doctype": "Lokasi Absen",
  "gunakan_lokasi_saat_ini": 0,
  "latitude": "-6.374621",
  "longitude": "107.301783",
  "modified": "2024-10-09 16:51:38.387677",
  "nama": "Unit Sarana",
  "name": "ERPP - Unit Sarana",
  "peta": null,
  "projek": "ERPP",
  "radius": 50,
  "waktu_keluar": "17:00:00",
  "waktu_masuk": "9:00:00"
 },
 {
  "docstatus": 0,
  "doctype": "Lokasi Absen",
  "gunakan_lokasi_saat_ini": 0,
  "latitude": "-6.374621",
  "longitude": "107.301783",
  "modified": "2024-10-09 16:52:12.682578",
  "nama": "Head Office",
  "name": "PWDK - Head Office",
  "peta": null,
  "projek": "PWDK",
  "radius": 50,
  "waktu_keluar": "17:00:00",
  "waktu_masuk": "9:00:00"
 },
 {
  "docstatus": 0,
  "doctype": "Lokasi Absen",
  "gunakan_lokasi_saat_ini": 0,
  "latitude": "4,1143950",
  "longitude": "96,1973480",
  "modified": "2024-10-09 16:52:47.492408",
  "nama": "Head Office",
  "name": "ERPL - Head Office",
  "peta": null,
  "projek": "ERPL",
  "radius": 50,
  "waktu_keluar": "17:00:00",
  "waktu_masuk": "9:00:00"
 },
 {
  "docstatus": 0,
  "doctype": "Lokasi Absen",
  "gunakan_lokasi_saat_ini": 0,
  "latitude": "4.114121",
  "longitude": "96.198261",
  "modified": "2024-10-09 16:53:12.030083",
  "nama": "Head Office",
  "name": "ERAM - Head Office",
  "peta": null,
  "projek": "ERAM",
  "radius": 1000,
  "waktu_keluar": "17:00:00",
  "waktu_masuk": "9:00:00"
 },
 {
  "docstatus": 0,
  "doctype": "Lokasi Absen",
  "gunakan_lokasi_saat_ini": 0,
  "latitude": "-2.540627",
  "longitude": "104.114993",
  "modified": "2024-10-09 16:53:41.313551",
  "nama": "Head Office",
  "name": "OPPS - Head Office",
  "peta": null,
  "projek": "OPPS",
  "radius": 50,
  "waktu_keluar": "17:00:00",
  "waktu_masuk": "9:00:00"
 },
 {
  "docstatus": 0,
  "doctype": "Lokasi Absen",
  "gunakan_lokasi_saat_ini": 0,
  "latitude": "-3.513662",
  "longitude": "115.605310",
  "modified": "2024-10-09 16:54:07.351455",
  "nama": "Head Office",
  "name": "ERPP - Head Office",
  "peta": null,
  "projek": "ERPP",
  "radius": 50,
  "waktu_keluar": "17:00:00",
  "waktu_masuk": "9:00:00"
 },
 {
  "docstatus": 0,
  "doctype": "Lokasi Absen",
  "gunakan_lokasi_saat_ini": 0,
  "latitude": "-0.390477",
  "longitude": "115.721580",
  "modified": "2024-10-09 16:54:28.047923",
  "nama": "Head Office",
  "name": "ERPM - Head Office",
  "peta": null,
  "projek": "ERPM",
  "radius": 50,
  "waktu_keluar": "17:00:00",
  "waktu_masuk": "9:00:00"
 },
 {
  "docstatus": 0,
  "doctype": "Lokasi Absen",
  "gunakan_lokasi_saat_ini": 0,
  "latitude": "-6.171880",
  "longitude": "106.715706",
  "modified": "2024-10-09 16:54:46.380103",
  "nama": "Head Office",
  "name": "SKKK - Head Office",
  "peta": null,
  "projek": "SKKK",
  "radius": 50,
  "waktu_keluar": "17:00:00",
  "waktu_masuk": "9:00:00"
 },
 {
  "docstatus": 0,
  "doctype": "Lokasi Absen",
  "gunakan_lokasi_saat_ini": 1,
  "latitude": "-6.396873474121094",
  "longitude": "106.93565052930882",
  "modified": "2024-10-09 00:51:00.177708",
  "nama": "Mess",
  "name": "HO - Mess",
  "peta": null,
  "projek": "HO",
  "radius": 25,
  "waktu_keluar": "17:00:00",
  "waktu_masuk": "9:00:00"
 },
 {
  "docstatus": 0,
  "doctype": "Lokasi Absen",
  "gunakan_lokasi_saat_ini": 1,
  "latitude": "-6.395160675048828",
  "longitude": "106.93040584357988",
  "modified": "2024-10-18 10:33:42.172072",
  "nama": "HO",
  "name": "HO - HO",
  "peta": null,
  "projek": "HO",
  "radius": 50,
  "waktu_keluar": "17:00:00",
  "waktu_masuk": "9:00:00"
 }
]