[
 {
  "alt_name": "South Teupah, Simeulue Regency, Aceh, Indonesia",
  "docstatus": 0,
  "doctype": "Kecamatan",
  "id": 1101010,
  "latitude": "2.38603",
  "longitude": "96.42904",
  "modified": "2024-10-04 23:25:44.583204",
  "nama": "TEUPAH SELATAN",
  "name": "TEUPAH SELATAN",
  "regency_id": "1101"
 },
 {
  "alt_name": "East Simeulue, Simeulue Regency, Aceh, Indonesia",
  "docstatus": 0,
  "doctype": "Kecamatan",
  "id": 1101020,
  "latitude": "2.51438",
  "longitude": "96.31197",
  "modified": "2024-10-04 23:25:44.593785",
  "nama": "SIMEULUE TIMUR",
  "name": "SIMEULUE TIMUR",
  "regency_id": "1101"
 },
 {
  "alt_name": "West Teupah, Simeulue Regency, Aceh, Indonesia",
  "docstatus": 0,
  "doctype": "Kecamatan",
  "id": 1101021,
  "latitude": "2.505",
  "longitude": "96.21636",
  "modified": "2024-10-04 23:25:44.601034",
  "nama": "TEUPAH BARAT",
  "name": "TEUPAH BARAT",
  "regency_id": "1101"
 },
 {
  "alt_name": "Teupah Tengah, Kabupaten Simeulue, Aceh, Indonesia",
  "docstatus": 0,
  "doctype": "Kecamatan",
  "id": 1101022,
  "latitude": "2.41594",
  "longitude": "96.33324",
  "modified": "2024-10-04 23:25:44.608982",
  "nama": "TEUPAH TENGAH",
  "name": "TEUPAH TENGAH",
  "regency_id": "1101"
 },
 {
  "alt_name": "Central Simeulue Sub-District, Simeulue Regency, Aceh, Indonesia",
  "docstatus": 0,
  "doctype": "Kecamatan",
  "id": 1101030,
  "latitude": "2.62412",
  "longitude": "96.04674",
  "modified": "2024-10-04 23:25:44.616917",
  "nama": "SIMEULUE TENGAH",
  "name": "SIMEULUE TENGAH",
  "regency_id": "1101"
 },
 {
  "alt_name": "Simeulue Cut, Kabupaten Simeulue, Aceh, Indonesia",
  "docstatus": 0,
  "doctype": "Kecamatan",
  "id": 1101032,
  "latitude": "2.59997",
  "longitude": "95.93569",
  "modified": "2024-10-04 23:25:44.635575",
  "nama": "SIMEULUE CUT",
  "name": "SIMEULUE CUT",
  "regency_id": "1101"
 },
 {
  "alt_name": "Salang, Simeulue Regency, Aceh, Indonesia",
  "docstatus": 0,
  "doctype": "Kecamatan",
  "id": 1101040,
  "latitude": "2.66445",
  "longitude": "95.8776",
  "modified": "2024-10-04 23:25:44.644994",
  "nama": "SALANG",
  "name": "SALANG",
  "regency_id": "1101"
 },
 {
  "alt_name": "West Simeulue, Simeulue Regency, Aceh, Indonesia",
  "docstatus": 0,
  "doctype": "Kecamatan",
  "id": 1101050,
  "latitude": "2.783",
  "longitude": "95.91984",
  "modified": "2024-10-04 23:25:44.653476",
  "nama": "SIMEULUE BARAT",
  "name": "SIMEULUE BARAT",
  "regency_id": "1101"
 },
 {
  "alt_name": "Alafan, Simeulue Regency, Aceh, Indonesia",
  "docstatus": 0,
  "doctype": "Kecamatan",
  "id": 1101051,
  "latitude": "2.78384",
  "longitude": "95.75105",
  "modified": "2024-10-04 23:25:44.661399",
  "nama": "ALAFAN",
  "name": "ALAFAN",
  "regency_id": "1101"
 },
 {
  "alt_name": "Banyak Island, Aceh Singkil Regency, Aceh, Indonesia",
  "docstatus": 0,
  "doctype": "Kecamatan",
  "id": 1102010,
  "latitude": "2.31989",
  "longitude": "97.4138",
  "modified": "2024-10-04 23:25:44.672936",
  "nama": "PULAU BANYAK",
  "name": "PULAU BANYAK",
  "regency_id": "1102"
 },
 {
  "alt_name": "West Banyak Island, Aceh Singkil Regency, Aceh, Indonesia",
  "docstatus": 0,
  "doctype": "Kecamatan",
  "id": 1102011,
  "latitude": "2.14721",
  "longitude": "97.28687",
  "modified": "2024-10-04 23:25:44.681318",
  "nama": "PULAU BANYAK BARAT",
  "name": "PULAU BANYAK BARAT",
  "regency_id": "1102"
 },
 {
  "alt_name": "North Singkil, Aceh Singkil Regency, Aceh, Indonesia",
  "docstatus": 0,
  "doctype": "Kecamatan",
  "id": 1102021,
  "latitude": "2.29969",
  "longitude": "97.98108",
  "modified": "2024-10-04 23:25:44.700329",
  "nama": "SINGKIL UTARA",
  "name": "SINGKIL UTARA",
  "regency_id": "1102"
 },
 {
  "alt_name": "Kuala Baru, Aceh Singkil Regency, Aceh, Indonesia",
  "docstatus": 0,
  "doctype": "Kecamatan",
  "id": 1102022,
  "latitude": "2.3891",
  "longitude": "97.73081",
  "modified": "2024-10-04 23:25:44.709976",
  "nama": "KUALA BARU",
  "name": "KUALA BARU",
  "regency_id": "1102"
 },
 {
  "alt_name": "Danau Paris, Aceh Singkil Regency, Aceh, Indonesia",
  "docstatus": 0,
  "doctype": "Kecamatan",
  "id": 1102032,
  "latitude": "2.29895",
  "longitude": "98.11201",
  "modified": "2024-10-04 23:25:44.736165",
  "nama": "DANAU PARIS",
  "name": "DANAU PARIS",
  "regency_id": "1102"
 },
 {
  "alt_name": "Suro, Kalibagor, Banyumas Regency, Central Java, Indonesia",
  "docstatus": 0,
  "doctype": "Kecamatan",
  "id": 1102033,
  "latitude": "-7.49036",
  "longitude": "109.32479",
  "modified": "2024-10-04 23:25:44.746811",
  "nama": "SURO",
  "name": "SURO",
  "regency_id": "1102"
 },
 {
  "alt_name": "Singkohor, Aceh Singkil Regency, Aceh, Indonesia",
  "docstatus": 0,
  "doctype": "Kecamatan",
  "id": 1102042,
  "latitude": "2.53493",
  "longitude": "97.93749",
  "modified": "2024-10-04 23:25:44.755468",
  "nama": "SINGKOHOR",
  "name": "SINGKOHOR",
  "regency_id": "1102"
 },
 {
  "alt_name": "Banjarbaru City, South Kalimantan, Indonesia",
  "docstatus": 0,
  "doctype": "Kecamatan",
  "id": 1102043,
  "latitude": "-3.4667",
  "longitude": "114.74907",
  "modified": "2024-10-04 23:25:44.763505",
  "nama": "KOTA BAHARU",
  "name": "KOTA BAHARU",
  "regency_id": "1102"
 },
 {
  "alt_name": "Trumon, South Aceh Regency, Aceh, Indonesia",
  "docstatus": 0,
  "doctype": "Kecamatan",
  "id": 1103010,
  "latitude": "2.63444",
  "longitude": "97.74167",
  "modified": "2024-10-04 23:25:44.770947",
  "nama": "TRUMON",
  "name": "TRUMON",
  "regency_id": "1103"
 },
 {
  "alt_name": "East Trumon, South Aceh Regency, Aceh, Indonesia",
  "docstatus": 0,
  "doctype": "Kecamatan",
  "id": 1103011,
  "latitude": "2.8906",
  "longitude": "97.80689",
  "modified": "2024-10-04 23:25:44.779068",
  "nama": "TRUMON TIMUR",
  "name": "TRUMON TIMUR",
  "regency_id": "1103"
 },
 {
  "alt_name": "Central Trumon, South Aceh Regency, Aceh, Indonesia",
  "docstatus": 0,
  "doctype": "Kecamatan",
  "id": 1103012,
  "latitude": "2.90147",
  "longitude": "97.66566",
  "modified": "2024-10-04 23:25:44.787358",
  "nama": "TRUMON TENGAH",
  "name": "TRUMON TENGAH",
  "regency_id": "1103"
 },
 {
  "alt_name": "Bakongan, South Aceh Regency, Aceh, Indonesia",
  "docstatus": 0,
  "doctype": "Kecamatan",
  "id": 1103020,
  "latitude": "2.96224",
  "longitude": "97.47059",
  "modified": "2024-10-04 23:25:44.795329",
  "nama": "BAKONGAN",
  "name": "BAKONGAN",
  "regency_id": "1103"
 },
 {
  "alt_name": "East Bakongan, South Aceh Regency, Aceh, Indonesia",
  "docstatus": 0,
  "doctype": "Kecamatan",
  "id": 1103021,
  "latitude": "2.90205",
  "longitude": "97.5789",
  "modified": "2024-10-04 23:25:44.803772",
  "nama": "BAKONGAN TIMUR",
  "name": "BAKONGAN TIMUR",
  "regency_id": "1103"
 },
 {
  "alt_name": "Bahagia City, South Aceh Regency, Aceh, Indonesia",
  "docstatus": 0,
  "doctype": "Kecamatan",
  "id": 1103022,
  "latitude": "3.01133",
  "longitude": "97.54639",
  "modified": "2024-10-04 23:25:44.812148",
  "nama": "KOTA BAHAGIA",
  "name": "KOTA BAHAGIA",
  "regency_id": "1103"
 },
 {
  "alt_name": "South Kluet, South Aceh Regency, Aceh, Indonesia",
  "docstatus": 0,
  "doctype": "Kecamatan",
  "id": 1103030,
  "latitude": "3.05166",
  "longitude": "97.45977",
  "modified": "2024-10-04 23:25:44.821037",
  "nama": "KLUET SELATAN",
  "name": "KLUET SELATAN",
  "regency_id": "1103"
 },
 {
  "alt_name": "East Kluet, South Aceh Regency, Aceh, Indonesia",
  "docstatus": 0,
  "doctype": "Kecamatan",
  "id": 1103031,
  "latitude": "3.17104",
  "longitude": "97.45977",
  "modified": "2024-10-04 23:25:44.829593",
  "nama": "KLUET TIMUR",
  "name": "KLUET TIMUR",
  "regency_id": "1103"
 },
 {
  "alt_name": "North Kluet, South Aceh Regency, Aceh, Indonesia",
  "docstatus": 0,
  "doctype": "Kecamatan",
  "id": 1103040,
  "latitude": "3.1221",
  "longitude": "97.34085",
  "modified": "2024-10-04 23:25:44.838215",
  "nama": "KLUET UTARA",
  "name": "KLUET UTARA",
  "regency_id": "1103"
 },
 {
  "alt_name": "Pasie Raja, South Aceh Regency, Aceh, Indonesia",
  "docstatus": 0,
  "doctype": "Kecamatan",
  "id": 1103041,
  "latitude": "3.2021",
  "longitude": "97.29766",
  "modified": "2024-10-04 23:25:44.848354",
  "nama": "PASIE RAJA",
  "name": "PASIE RAJA",
  "regency_id": "1103"
 },
 {
  "alt_name": "Central Kluet, South Aceh Regency, Aceh, Indonesia",
  "docstatus": 0,
  "doctype": "Kecamatan",
  "id": 1103042,
  "latitude": "3.43189",
  "longitude": "97.30846",
  "modified": "2024-10-04 23:25:44.856174",
  "nama": "KLUET TENGAH",
  "name": "KLUET TENGAH",
  "regency_id": "1103"
 },
 {
  "alt_name": "Tapak Tuan, South Aceh Regency, Aceh, Indonesia",
  "docstatus": 0,
  "doctype": "Kecamatan",
  "id": 1103050,
  "latitude": "3.26156",
  "longitude": "97.18037",
  "modified": "2024-10-04 23:25:44.865593",
  "nama": "TAPAK TUAN",
  "name": "TAPAK TUAN",
  "regency_id": "1103"
 },
 {
  "alt_name": "Sama Dua, South Aceh Regency, Aceh, Indonesia",
  "docstatus": 0,
  "doctype": "Kecamatan",
  "id": 1103060,
  "latitude": "3.34269",
  "longitude": "97.1898",
  "modified": "2024-10-04 23:25:44.872356",
  "nama": "SAMA DUA",
  "name": "SAMA DUA",
  "regency_id": "1103"
 },
 {
  "alt_name": "Meukek, South Aceh Regency, Aceh, Indonesia",
  "docstatus": 0,
  "doctype": "Kecamatan",
  "id": 1103080,
  "latitude": "3.59312",
  "longitude": "97.22214",
  "modified": "2024-10-04 23:25:44.889009",
  "nama": "MEUKEK",
  "name": "MEUKEK",
  "regency_id": "1103"
 },
 {
  "alt_name": "East Labuhan Haji, South Aceh Regency, Aceh, Indonesia",
  "docstatus": 0,
  "doctype": "Kecamatan",
  "id": 1103091,
  "latitude": "3.60394",
  "longitude": "97.12517",
  "modified": "2024-10-04 23:25:44.905869",
  "nama": "LABUHAN HAJI TIMUR",
  "name": "LABUHAN HAJI TIMUR",
  "regency_id": "1103"
 },
 {
  "alt_name": "West Labuhan Haji, South Aceh Regency, Aceh, Indonesia",
  "docstatus": 0,
  "doctype": "Kecamatan",
  "id": 1103092,
  "latitude": "3.58499",
  "longitude": "96.9746",
  "modified": "2024-10-04 23:25:44.912755",
  "nama": "LABUHAN HAJI BARAT",
  "name": "LABUHAN HAJI BARAT",
  "regency_id": "1103"
 },
 {
  "alt_name": "Lawe Alas, Aceh Tenggara Regency, Aceh, Indonesia",
  "docstatus": 0,
  "doctype": "Kecamatan",
  "id": 1104010,
  "latitude": "3.43786",
  "longitude": "97.81776",
  "modified": "2024-10-04 23:25:44.920132",
  "nama": "LAWE ALAS",
  "name": "LAWE ALAS",
  "regency_id": "1104"
 },
 {
  "alt_name": "BABUL RAHMAH",
  "docstatus": 0,
  "doctype": "Kecamatan",
  "id": 1104011,
  "latitude": null,
  "longitude": null,
  "modified": "2024-10-04 23:25:44.929554",
  "nama": "BABUL RAHMAH",
  "name": "BABUL RAHMAH",
  "regency_id": "1104"
 },
 {
  "alt_name": "Tanoh Alas, Aceh Tenggara Regency, Aceh, Indonesia",
  "docstatus": 0,
  "doctype": "Kecamatan",
  "id": 1104012,
  "latitude": "3.26928",
  "longitude": "97.65481",
  "modified": "2024-10-04 23:25:44.936554",
  "nama": "TANOH ALAS",
  "name": "TANOH ALAS",
  "regency_id": "1104"
 },
 {
  "alt_name": "Lawe Sigala-Gala, Aceh Tenggara Regency, Aceh, Indonesia",
  "docstatus": 0,
  "doctype": "Kecamatan",
  "id": 1104020,
  "latitude": "3.35698",
  "longitude": "97.9266",
  "modified": "2024-10-04 23:25:44.944018",
  "nama": "LAWE SIGALA-GALA",
  "name": "LAWE SIGALA-GALA",
  "regency_id": "1104"
 },
 {
  "alt_name": "Babul Makmur, Aceh Tenggara Regency, Aceh, Indonesia",
  "docstatus": 0,
  "doctype": "Kecamatan",
  "id": 1104021,
  "latitude": "3.31651",
  "longitude": "97.99199",
  "modified": "2024-10-04 23:25:44.956705",
  "nama": "BABUL MAKMUR",
  "name": "BABUL MAKMUR",
  "regency_id": "1104"
 },
 {
  "alt_name": "Semadam, Aceh Tenggara Regency, Aceh, Indonesia",
  "docstatus": 0,
  "doctype": "Kecamatan",
  "id": 1104022,
  "latitude": "3.39227",
  "longitude": "97.88849",
  "modified": "2024-10-04 23:25:44.970493",
  "nama": "SEMADAM",
  "name": "SEMADAM",
  "regency_id": "1104"
 },
 {
  "alt_name": "Lauser, Aceh Tenggara Regency, Aceh, Indonesia",
  "docstatus": 0,
  "doctype": "Kecamatan",
  "id": 1104023,
  "latitude": "3.12769",
  "longitude": "97.93749",
  "modified": "2024-10-04 23:25:44.977460",
  "nama": "LAUSER",
  "name": "LAUSER",
  "regency_id": "1104"
 },
 {
  "alt_name": "Bambel, Aceh Tenggara Regency, Aceh, Indonesia",
  "docstatus": 0,
  "doctype": "Kecamatan",
  "id": 1104030,
  "latitude": "3.45716",
  "longitude": "97.90482",
  "modified": "2024-10-04 23:25:44.984911",
  "nama": "BAMBEL",
  "name": "BAMBEL",
  "regency_id": "1104"
 },
 {
  "alt_name": "Bukit Tusam, Aceh Tenggara Regency, Aceh, Indonesia",
  "docstatus": 0,
  "doctype": "Kecamatan",
  "id": 1104031,
  "latitude": "3.41244",
  "longitude": "97.86672",
  "modified": "2024-10-04 23:25:44.992692",
  "nama": "BUKIT TUSAM",
  "name": "BUKIT TUSAM",
  "regency_id": "1104"
 },
 {
  "alt_name": "Lawe Sumur, Aceh Tenggara Regency, Aceh, Indonesia",
  "docstatus": 0,
  "doctype": "Kecamatan",
  "id": 1104032,
  "latitude": "3.48232",
  "longitude": "97.88849",
  "modified": "2024-10-04 23:25:45.000124",
  "nama": "LAWE SUMUR",
  "name": "LAWE SUMUR",
  "regency_id": "1104"
 },
 {
  "alt_name": "Babussalam, Aceh Tenggara Regency, Aceh, Indonesia",
  "docstatus": 0,
  "doctype": "Kecamatan",
  "id": 1104040,
  "latitude": "3.49307",
  "longitude": "97.80145",
  "modified": "2024-10-04 23:25:45.007826",
  "nama": "BABUSSALAM",
  "name": "BABUSSALAM",
  "regency_id": "1104"
 },
 {
  "alt_name": "Lawe Bulan, Aceh Tenggara Regency, Aceh, Indonesia",
  "docstatus": 0,
  "doctype": "Kecamatan",
  "id": 1104041,
  "latitude": "3.50254",
  "longitude": "97.86672",
  "modified": "2024-10-04 23:25:45.016767",
  "nama": "LAWE BULAN",
  "name": "LAWE BULAN",
  "regency_id": "1104"
 },
 {
  "alt_name": "Badar, Aceh Tenggara Regency, Aceh, Indonesia",
  "docstatus": 0,
  "doctype": "Kecamatan",
  "id": 1104050,
  "latitude": "3.57817",
  "longitude": "97.81776",
  "modified": "2024-10-04 23:25:45.026053",
  "nama": "BADAR",
  "name": "BADAR",
  "regency_id": "1104"
 },
 {
  "alt_name": "Darul Hasanah, Aceh Tenggara Regency, Aceh, Indonesia",
  "docstatus": 0,
  "doctype": "Kecamatan",
  "id": 1104051,
  "latitude": "3.51003",
  "longitude": "97.56806",
  "modified": "2024-10-04 23:25:45.034918",
  "nama": "DARUL HASANAH",
  "name": "DARUL HASANAH",
  "regency_id": "1104"
 },
 {
  "alt_name": "Ketambe, Aceh Tenggara Regency, Aceh, Indonesia",
  "docstatus": 0,
  "doctype": "Kecamatan",
  "id": 1104052,
  "latitude": "3.68955",
  "longitude": "97.71995",
  "modified": "2024-10-04 23:25:45.044083",
  "nama": "KETAMBE",
  "name": "KETAMBE",
  "regency_id": "1104"
 },
 {
  "alt_name": "Deleng Pokhkisen, Aceh Tenggara Regency, Aceh, Indonesia",
  "docstatus": 0,
  "doctype": "Kecamatan",
  "id": 1104053,
  "latitude": "3.53767",
  "longitude": "97.86128",
  "modified": "2024-10-04 23:25:45.053966",
  "nama": "DELENG POKHKISEN",
  "name": "DELENG POKHKISEN",
  "regency_id": "1104"
 },
 {
  "alt_name": "Serba Jadi, East Aceh Regency, Aceh, Indonesia",
  "docstatus": 0,
  "doctype": "Kecamatan",
  "id": 1105080,
  "latitude": "4.44155",
  "longitude": "97.52472",
  "modified": "2024-10-04 23:25:45.065070",
  "nama": "SERBA JADI",
  "name": "SERBA JADI",
  "regency_id": "1105"
 },
 {
  "alt_name": "Simpang Jernih, East Aceh Regency, Aceh, Indonesia",
  "docstatus": 0,
  "doctype": "Kecamatan",
  "id": 1105081,
  "latitude": "4.37877",
  "longitude": "97.67652",
  "modified": "2024-10-04 23:25:45.074309",
  "nama": "SIMPANG JERNIH",
  "name": "SIMPANG JERNIH",
  "regency_id": "1105"
 },
 {
  "alt_name": "Peunaron, East Aceh Regency, Aceh, Indonesia",
  "docstatus": 0,
  "doctype": "Kecamatan",
  "id": 1105082,
  "latitude": "4.62454",
  "longitude": "97.63311",
  "modified": "2024-10-04 23:25:45.083165",
  "nama": "PEUNARON",
  "name": "PEUNARON",
  "regency_id": "1105"
 },
 {
  "alt_name": "Birem Bayeun, East Aceh Regency, Aceh, Indonesia",
  "docstatus": 0,
  "doctype": "Kecamatan",
  "id": 1105090,
  "latitude": "4.47923",
  "longitude": "97.82864",
  "modified": "2024-10-04 23:25:45.092005",
  "nama": "BIREM BAYEUN",
  "name": "BIREM BAYEUN",
  "regency_id": "1105"
 },
 {
  "alt_name": "Rantau Selamat, East Aceh Regency, Aceh, Indonesia",
  "docstatus": 0,
  "doctype": "Kecamatan",
  "id": 1105100,
  "latitude": "4.62312",
  "longitude": "97.7634",
  "modified": "2024-10-04 23:25:45.101314",
  "nama": "RANTAU SELAMAT",
  "name": "RANTAU SELAMAT",
  "regency_id": "1105"
 },
 {
  "alt_name": "Peureulak, Keude Peureulak, Peureulak, Kabupaten Aceh Timur, Aceh, Indonesia",
  "docstatus": 0,
  "doctype": "Kecamatan",
  "id": 1105110,
  "latitude": "4.80929",
  "longitude": "97.8923",
  "modified": "2024-10-04 23:25:45.120317",
  "nama": "PEUREULAK",
  "name": "PEUREULAK",
  "regency_id": "1105"
 },
 {
  "alt_name": "East Peureulak, East Aceh Regency, Aceh, Indonesia",
  "docstatus": 0,
  "doctype": "Kecamatan",
  "id": 1105111,
  "latitude": "4.71404",
  "longitude": "97.88304",
  "modified": "2024-10-04 23:25:45.129110",
  "nama": "PEUREULAK TIMUR",
  "name": "PEUREULAK TIMUR",
  "regency_id": "1105"
 },
 {
  "alt_name": "West Peureulak, East Aceh Regency, Aceh, Indonesia",
  "docstatus": 0,
  "doctype": "Kecamatan",
  "id": 1105112,
  "latitude": "4.85808",
  "longitude": "97.86128",
  "modified": "2024-10-04 23:25:45.138034",
  "nama": "PEUREULAK BARAT",
  "name": "PEUREULAK BARAT",
  "regency_id": "1105"
 },
 {
  "alt_name": "RANTO PEUREULAK",
  "docstatus": 0,
  "doctype": "Kecamatan",
  "id": 1105120,
  "latitude": null,
  "longitude": null,
  "modified": "2024-10-04 23:25:45.147053",
  "nama": "RANTO PEUREULAK",
  "name": "RANTO PEUREULAK",
  "regency_id": "1105"
 },
 {
  "alt_name": "Idi Rayeuk, East Aceh Regency, Aceh, Indonesia",
  "docstatus": 0,
  "doctype": "Kecamatan",
  "id": 1105130,
  "latitude": "4.9623",
  "longitude": "97.75254",
  "modified": "2024-10-04 23:25:45.156562",
  "nama": "IDI RAYEUK",
  "name": "IDI RAYEUK",
  "regency_id": "1105"
 },
 {
  "alt_name": "Peudawa, East Aceh Regency, Aceh, Indonesia",
  "docstatus": 0,
  "doctype": "Kecamatan",
  "id": 1105131,
  "latitude": "4.87916",
  "longitude": "97.81776",
  "modified": "2024-10-04 23:25:45.167538",
  "nama": "PEUDAWA",
  "name": "PEUDAWA",
  "regency_id": "1105"
 },
 {
  "alt_name": "Banda Alam, East Aceh Regency, Aceh, Indonesia",
  "docstatus": 0,
  "doctype": "Kecamatan",
  "id": 1105132,
  "latitude": "4.86008",
  "longitude": "97.68737",
  "modified": "2024-10-04 23:25:45.179414",
  "nama": "BANDA ALAM",
  "name": "BANDA ALAM",
  "regency_id": "1105"
 },
 {
  "alt_name": "Idi Tunong, East Aceh Regency, Aceh, Indonesia",
  "docstatus": 0,
  "doctype": "Kecamatan",
  "id": 1105133,
  "latitude": "4.91626",
  "longitude": "97.72538",
  "modified": "2024-10-04 23:25:45.186313",
  "nama": "IDI TUNONG",
  "name": "IDI TUNONG",
  "regency_id": "1105"
 },
 {
  "alt_name": "Darul Ihsan, East Aceh Regency, Aceh, Indonesia",
  "docstatus": 0,
  "doctype": "Kecamatan",
  "id": 1105134,
  "latitude": "4.90558",
  "longitude": "97.75797",
  "modified": "2024-10-04 23:25:45.199526",
  "nama": "DARUL IHSAN",
  "name": "DARUL IHSAN",
  "regency_id": "1105"
 },
 {
  "alt_name": "East Idi, East Aceh Regency, Aceh, Indonesia",
  "docstatus": 0,
  "doctype": "Kecamatan",
  "id": 1105135,
  "latitude": "4.9155",
  "longitude": "97.79058",
  "modified": "2024-10-04 23:25:45.208881",
  "nama": "IDI TIMUR",
  "name": "IDI TIMUR",
  "regency_id": "1105"
 },
 {
  "alt_name": "Darul Aman, East Aceh Regency, Aceh, Indonesia",
  "docstatus": 0,
  "doctype": "Kecamatan",
  "id": 1105140,
  "latitude": "4.96281",
  "longitude": "97.70909",
  "modified": "2024-10-04 23:25:45.217936",
  "nama": "DARUL AMAN",
  "name": "DARUL AMAN",
  "regency_id": "1105"
 },
 {
  "alt_name": "Nurussalam, East Aceh Regency, Aceh, Indonesia",
  "docstatus": 0,
  "doctype": "Kecamatan",
  "id": 1105150,
  "latitude": "4.97884",
  "longitude": "97.66024",
  "modified": "2024-10-04 23:25:45.228083",
  "nama": "NURUSSALAM",
  "name": "NURUSSALAM",
  "regency_id": "1105"
 },
 {
  "alt_name": "Darul Falah, East Aceh Regency, Aceh, Indonesia",
  "docstatus": 0,
  "doctype": "Kecamatan",
  "id": 1105151,
  "latitude": "5.01004",
  "longitude": "97.63854",
  "modified": "2024-10-04 23:25:45.237215",
  "nama": "DARUL FALAH",
  "name": "DARUL FALAH",
  "regency_id": "1105"
 },
 {
  "alt_name": "Julok, East Aceh Regency, Aceh, Indonesia",
  "docstatus": 0,
  "doctype": "Kecamatan",
  "id": 1105160,
  "latitude": "5.03641",
  "longitude": "97.58974",
  "modified": "2024-10-04 23:25:45.246578",
  "nama": "JULOK",
  "name": "JULOK",
  "regency_id": "1105"
 },
 {
  "alt_name": "Indra Makmur, East Aceh Regency, Aceh, Indonesia",
  "docstatus": 0,
  "doctype": "Kecamatan",
  "id": 1105161,
  "latitude": "4.87148",
  "longitude": "97.58974",
  "modified": "2024-10-04 23:25:45.255990",
  "nama": "INDRA MAKMUR",
  "name": "INDRA MAKMUR",
  "regency_id": "1105"
 },
 {
  "alt_name": "Pante Bidari, East Aceh Regency, Aceh, Indonesia",
  "docstatus": 0,
  "doctype": "Kecamatan",
  "id": 1105170,
  "latitude": "4.80675",
  "longitude": "97.48981",
  "modified": "2024-10-04 23:25:45.267132",
  "nama": "PANTE BIDARI",
  "name": "PANTE BIDARI",
  "regency_id": "1105"
 },
 {
  "alt_name": "Simpang Ulim, East Aceh Regency, Aceh, Indonesia",
  "docstatus": 0,
  "doctype": "Kecamatan",
  "id": 1105180,
  "latitude": "5.10885",
  "longitude": "97.5789",
  "modified": "2024-10-04 23:25:45.277410",
  "nama": "SIMPANG ULIM",
  "name": "SIMPANG ULIM",
  "regency_id": "1105"
 },
 {
  "alt_name": "Madat, East Aceh Regency, Aceh, Indonesia",
  "docstatus": 0,
  "doctype": "Kecamatan",
  "id": 1105181,
  "latitude": "5.17168",
  "longitude": "97.51389",
  "modified": "2024-10-04 23:25:45.285773",
  "nama": "MADAT",
  "name": "MADAT",
  "regency_id": "1105"
 },
 {
  "alt_name": "Linge, Central Aceh, Aceh, Indonesia",
  "docstatus": 0,
  "doctype": "Kecamatan",
  "id": 1106010,
  "latitude": "4.3237",
  "longitude": "97.04984",
  "modified": "2024-10-04 23:25:45.294403",
  "nama": "LINGE",
  "name": "LINGE",
  "regency_id": "1106"
 },
 {
  "alt_name": "Atu Lintang, Central Aceh, Aceh, Indonesia",
  "docstatus": 0,
  "doctype": "Kecamatan",
  "id": 1106011,
  "latitude": "4.43853",
  "longitude": "96.78152",
  "modified": "2024-10-04 23:25:45.303275",
  "nama": "ATU LINTANG",
  "name": "ATU LINTANG",
  "regency_id": "1106"
 },
 {
  "alt_name": "Jagong Jeget, Central Aceh, Aceh, Indonesia",
  "docstatus": 0,
  "doctype": "Kecamatan",
  "id": 1106012,
  "latitude": "4.3879",
  "longitude": "96.72799",
  "modified": "2024-10-04 23:25:45.312512",
  "nama": "JAGONG JEGET",
  "name": "JAGONG JEGET",
  "regency_id": "1106"
 },
 {
  "alt_name": "Bintan Island, Riau Islands, Indonesia",
  "docstatus": 0,
  "doctype": "Kecamatan",
  "id": 1106020,
  "latitude": "1.1367",
  "longitude": "104.42575",
  "modified": "2024-10-04 23:25:45.321679",
  "nama": "BINTANG",
  "name": "BINTANG",
  "regency_id": "1106"
 },
 {
  "alt_name": "Lut Tawar, Central Aceh, Aceh, Indonesia",
  "docstatus": 0,
  "doctype": "Kecamatan",
  "id": 1106031,
  "latitude": "4.58088",
  "longitude": "96.88872",
  "modified": "2024-10-04 23:25:45.330207",
  "nama": "LUT TAWAR",
  "name": "LUT TAWAR",
  "regency_id": "1106"
 },
 {
  "alt_name": "Kebayakan, Central Aceh, Aceh, Indonesia",
  "docstatus": 0,
  "doctype": "Kecamatan",
  "id": 1106032,
  "latitude": "4.64772",
  "longitude": "96.87263",
  "modified": "2024-10-04 23:25:45.339200",
  "nama": "KEBAYAKAN",
  "name": "KEBAYAKAN",
  "regency_id": "1106"
 },
 {
  "alt_name": "Pegasing, Central Aceh, Aceh, Indonesia",
  "docstatus": 0,
  "doctype": "Kecamatan",
  "id": 1106040,
  "latitude": "4.51027",
  "longitude": "96.77081",
  "modified": "2024-10-04 23:25:45.348306",
  "nama": "PEGASING",
  "name": "PEGASING",
  "regency_id": "1106"
 },
 {
  "alt_name": "Bies, Central Aceh, Aceh, Indonesia",
  "docstatus": 0,
  "doctype": "Kecamatan",
  "id": 1106041,
  "latitude": "4.6075",
  "longitude": "96.78688",
  "modified": "2024-10-04 23:25:45.357607",
  "nama": "BIES",
  "name": "BIES",
  "regency_id": "1106"
 },
 {
  "alt_name": "Bebesen, Central Aceh, Aceh, Indonesia",
  "docstatus": 0,
  "doctype": "Kecamatan",
  "id": 1106050,
  "latitude": "4.64326",
  "longitude": "96.80295",
  "modified": "2024-10-04 23:25:45.367455",
  "nama": "BEBESEN",
  "name": "BEBESEN",
  "regency_id": "1106"
 },
 {
  "alt_name": "Kute Panang, Central Aceh, Aceh, Indonesia",
  "docstatus": 0,
  "doctype": "Kecamatan",
  "id": 1106051,
  "latitude": "4.68455",
  "longitude": "96.78152",
  "modified": "2024-10-04 23:25:45.379698",
  "nama": "KUTE PANANG",
  "name": "KUTE PANANG",
  "regency_id": "1106"
 },
 {
  "alt_name": "Silih Nara, Central Aceh, Aceh, Indonesia",
  "docstatus": 0,
  "doctype": "Kecamatan",
  "id": 1106060,
  "latitude": "4.63371",
  "longitude": "96.72799",
  "modified": "2024-10-04 23:25:45.389693",
  "nama": "SILIH NARA",
  "name": "SILIH NARA",
  "regency_id": "1106"
 },
 {
  "alt_name": "Ketol, Central Aceh, Aceh, Indonesia",
  "docstatus": 0,
  "doctype": "Kecamatan",
  "id": 1106061,
  "latitude": "4.81986",
  "longitude": "96.62106",
  "modified": "2024-10-04 23:25:45.396966",
  "nama": "KETOL",
  "name": "KETOL",
  "regency_id": "1106"
 },
 {
  "alt_name": "Celala, Central Aceh, Aceh, Indonesia",
  "docstatus": 0,
  "doctype": "Kecamatan",
  "id": 1106062,
  "latitude": "4.55205",
  "longitude": "96.6852",
  "modified": "2024-10-04 23:25:45.405860",
  "nama": "CELALA",
  "name": "CELALA",
  "regency_id": "1106"
 },
 {
  "alt_name": "Rusip Antara, Central Aceh, Aceh, Indonesia",
  "docstatus": 0,
  "doctype": "Kecamatan",
  "id": 1106063,
  "latitude": "4.73911",
  "longitude": "96.45034",
  "modified": "2024-10-04 23:25:45.414881",
  "nama": "RUSIP ANTARA",
  "name": "RUSIP ANTARA",
  "regency_id": "1106"
 },
 {
  "alt_name": "Johan Pahlawan, West Aceh Regency, Aceh, Indonesia",
  "docstatus": 0,
  "doctype": "Kecamatan",
  "id": 1107050,
  "latitude": "4.19909",
  "longitude": "96.12089",
  "modified": "2024-10-04 23:25:45.427055",
  "nama": "JOHAN PAHLAWAN",
  "name": "JOHAN PAHLAWAN",
  "regency_id": "1107"
 },
 {
  "alt_name": "Samatiga, West Aceh Regency, Aceh, Indonesia",
  "docstatus": 0,
  "doctype": "Kecamatan",
  "id": 1107060,
  "latitude": "4.23026",
  "longitude": "96.04674",
  "modified": "2024-10-04 23:25:45.436401",
  "nama": "SAMATIGA",
  "name": "SAMATIGA",
  "regency_id": "1107"
 },
 {
  "alt_name": "Bubon, West Aceh Regency, Aceh, Indonesia",
  "docstatus": 0,
  "doctype": "Kecamatan",
  "id": 1107061,
  "latitude": "4.30112",
  "longitude": "96.12089",
  "modified": "2024-10-04 23:25:45.446036",
  "nama": "BUBON",
  "name": "BUBON",
  "regency_id": "1107"
 },
 {
  "alt_name": "Arongan Lambalek, West Aceh Regency, Aceh, Indonesia",
  "docstatus": 0,
  "doctype": "Kecamatan",
  "id": 1107062,
  "latitude": "4.34334",
  "longitude": "95.95154",
  "modified": "2024-10-04 23:25:45.456125",
  "nama": "ARONGAN LAMBALEK",
  "name": "ARONGAN LAMBALEK",
  "regency_id": "1107"
 },
 {
  "alt_name": "Woyla, West Aceh Regency, Aceh, Indonesia",
  "docstatus": 0,
  "doctype": "Kecamatan",
  "id": 1107070,
  "latitude": "4.38324",
  "longitude": "96.07851",
  "modified": "2024-10-04 23:25:45.466836",
  "nama": "WOYLA",
  "name": "WOYLA",
  "regency_id": "1107"
 },
 {
  "alt_name": "West Woyla, West Aceh Regency, Aceh, Indonesia",
  "docstatus": 0,
  "doctype": "Kecamatan",
  "id": 1107071,
  "latitude": "4.39407",
  "longitude": "96.00441",
  "modified": "2024-10-04 23:25:45.477246",
  "nama": "WOYLA BARAT",
  "name": "WOYLA BARAT",
  "regency_id": "1107"
 },
 {
  "alt_name": "East Woyla, West Aceh Regency, Aceh, Indonesia",
  "docstatus": 0,
  "doctype": "Kecamatan",
  "id": 1107072,
  "latitude": "4.47529",
  "longitude": "96.0891",
  "modified": "2024-10-04 23:25:45.487810",
  "nama": "WOYLA TIMUR",
  "name": "WOYLA TIMUR",
  "regency_id": "1107"
 },
 {
  "alt_name": "Kaway XVI, West Aceh Regency, Aceh, Indonesia",
  "docstatus": 0,
  "doctype": "Kecamatan",
  "id": 1107080,
  "latitude": "4.26973",
  "longitude": "96.21636",
  "modified": "2024-10-04 23:25:45.496549",
  "nama": "KAWAY XVI",
  "name": "KAWAY XVI",
  "regency_id": "1107"
 },
 {
  "alt_name": "Meureubo, West Aceh Regency, Aceh, Indonesia",
  "docstatus": 0,
  "doctype": "Kecamatan",
  "id": 1107081,
  "latitude": "4.14741",
  "longitude": "96.21636",
  "modified": "2024-10-04 23:25:45.505418",
  "nama": "MEUREUBO",
  "name": "MEUREUBO",
  "regency_id": "1107"
 },
 {
  "alt_name": "Pantai Ceuremen, West Aceh Regency, Aceh, Indonesia",
  "docstatus": 0,
  "doctype": "Kecamatan",
  "id": 1107082,
  "latitude": "4.49344",
  "longitude": "96.36516",
  "modified": "2024-10-04 23:25:45.514629",
  "nama": "PANTAI CEUREMEN",
  "name": "PANTAI CEUREMEN",
  "regency_id": "1107"
 },
 {
  "alt_name": "Panton Reu, West Aceh Regency, Aceh, Indonesia",
  "docstatus": 0,
  "doctype": "Kecamatan",
  "id": 1107083,
  "latitude": "4.44359",
  "longitude": "96.20574",
  "modified": "2024-10-04 23:25:45.523830",
  "nama": "PANTON REU",
  "name": "PANTON REU",
  "regency_id": "1107"
 },
 {
  "alt_name": "MAS River, West Aceh Regency, Aceh, Indonesia",
  "docstatus": 0,
  "doctype": "Kecamatan",
  "id": 1107090,
  "latitude": "4.57768",
  "longitude": "96.11029",
  "modified": "2024-10-04 23:25:45.532539",
  "nama": "SUNGAI MAS",
  "name": "SUNGAI MAS",
  "regency_id": "1107"
 },
 {
  "alt_name": "Lhoong, Aceh Besar Regency, Aceh, Indonesia",
  "docstatus": 0,
  "doctype": "Kecamatan",
  "id": 1108010,
  "latitude": "5.26695",
  "longitude": "95.28934",
  "modified": "2024-10-04 23:25:45.546537",
  "nama": "LHOONG",
  "name": "LHOONG",
  "regency_id": "1108"
 },
 {
  "alt_name": "Lhoknga, Aceh Besar Regency, Aceh, Indonesia",
  "docstatus": 0,
  "doctype": "Kecamatan",
  "id": 1108020,
  "latitude": "5.46531",
  "longitude": "95.258",
  "modified": "2024-10-04 23:25:45.556162",
  "nama": "LHOKNGA",
  "name": "LHOKNGA",
  "regency_id": "1108"
 },
 {
  "alt_name": "Leupung, Meunasah Bak U, Leupung, Kabupaten Aceh Besar, Aceh, Indonesia",
  "docstatus": 0,
  "doctype": "Kecamatan",
  "id": 1108021,
  "latitude": "5.39239",
  "longitude": "95.25526",
  "modified": "2024-10-04 23:25:45.565734",
  "nama": "LEUPUNG",
  "name": "LEUPUNG",
  "regency_id": "1108"
 },
 {
  "alt_name": "Indrapuri, Aceh Besar Regency, Aceh, Indonesia",
  "docstatus": 0,
  "doctype": "Kecamatan",
  "id": 1108030,
  "latitude": "5.42189",
  "longitude": "95.44633",
  "modified": "2024-10-04 23:25:45.575597",
  "nama": "INDRAPURI",
  "name": "INDRAPURI",
  "regency_id": "1108"
 },
 {
  "alt_name": "Kuta Cot Glie, Aceh Besar Regency, Aceh, Indonesia",
  "docstatus": 0,
  "doctype": "Kecamatan",
  "id": 1108031,
  "latitude": "5.30677",
  "longitude": "95.49876",
  "modified": "2024-10-04 23:25:45.588059",
  "nama": "KUTA COT GLIE",
  "name": "KUTA COT GLIE",
  "regency_id": "1108"
 },
 {
  "alt_name": "Seulimeum, Aceh Besar Regency, Aceh, Indonesia",
  "docstatus": 0,
  "doctype": "Kecamatan",
  "id": 1108040,
  "latitude": "5.47244",
  "longitude": "95.62477",
  "modified": "2024-10-04 23:25:45.598129",
  "nama": "SEULIMEUM",
  "name": "SEULIMEUM",
  "regency_id": "1108"
 },
 {
  "alt_name": "Jantho, Kota Jantho, Kabupaten Aceh Besar, Aceh, Indonesia",
  "docstatus": 0,
  "doctype": "Kecamatan",
  "id": 1108041,
  "latitude": "5.28387",
  "longitude": "95.63125",
  "modified": "2024-10-04 23:25:45.605902",
  "nama": "KOTA JANTHO",
  "name": "KOTA JANTHO",
  "regency_id": "1108"
 },
 {
  "alt_name": "Lembah Seulawah, Aceh Besar Regency, Aceh, Indonesia",
  "docstatus": 0,
  "doctype": "Kecamatan",
  "id": 1108042,
  "latitude": "5.3882",
  "longitude": "95.70892",
  "modified": "2024-10-04 23:25:45.615110",
  "nama": "LEMBAH SEULAWAH",
  "name": "LEMBAH SEULAWAH",
  "regency_id": "1108"
 },
 {
  "alt_name": "Mesjid Raya, Aceh Besar Regency, Aceh, Indonesia",
  "docstatus": 0,
  "doctype": "Kecamatan",
  "id": 1108050,
  "latitude": "5.56757",
  "longitude": "95.50925",
  "modified": "2024-10-04 23:25:45.624215",
  "nama": "MESJID RAYA",
  "name": "MESJID RAYA",
  "regency_id": "1108"
 },
 {
  "alt_name": "Darussalam, Aceh Besar Regency, Aceh, Indonesia",
  "docstatus": 0,
  "doctype": "Kecamatan",
  "id": 1108060,
  "latitude": "5.59455",
  "longitude": "95.42014",
  "modified": "2024-10-04 23:25:45.633289",
  "nama": "DARUSSALAM",
  "name": "DARUSSALAM",
  "regency_id": "1108"
 },
 {
  "alt_name": "Baitussalam, Aceh Besar Regency, Aceh, Indonesia",
  "docstatus": 0,
  "doctype": "Kecamatan",
  "id": 1108061,
  "latitude": "5.6053",
  "longitude": "95.38872",
  "modified": "2024-10-04 23:25:45.643017",
  "nama": "BAITUSSALAM",
  "name": "BAITUSSALAM",
  "regency_id": "1108"
 },
 {
  "alt_name": "Kuta Baro, Aceh Besar Regency, Aceh, Indonesia",
  "docstatus": 0,
  "doctype": "Kecamatan",
  "id": 1108070,
  "latitude": "5.54742",
  "longitude": "95.42538",
  "modified": "2024-10-04 23:25:45.652043",
  "nama": "KUTA BARO",
  "name": "KUTA BARO",
  "regency_id": "1108"
 },
 {
  "alt_name": "Montasik, Aceh Besar Regency, Aceh, Indonesia",
  "docstatus": 0,
  "doctype": "Kecamatan",
  "id": 1108080,
  "latitude": "5.46583",
  "longitude": "95.42273",
  "modified": "2024-10-04 23:25:45.661275",
  "nama": "MONTASIK",
  "name": "MONTASIK",
  "regency_id": "1108"
 },
 {
  "alt_name": "Blang Bintang, Aceh Besar Regency, Aceh, Indonesia",
  "docstatus": 0,
  "doctype": "Kecamatan",
  "id": 1108081,
  "latitude": "5.50561",
  "longitude": "95.42538",
  "modified": "2024-10-04 23:25:45.670446",
  "nama": "BLANG BINTANG",
  "name": "BLANG BINTANG",
  "regency_id": "1108"
 },
 {
  "alt_name": "Ingin Jaya, Aceh Besar Regency, Aceh, Indonesia",
  "docstatus": 0,
  "doctype": "Kecamatan",
  "id": 1108090,
  "latitude": "5.51136",
  "longitude": "95.36778",
  "modified": "2024-10-04 23:25:45.683317",
  "nama": "INGIN JAYA",
  "name": "INGIN JAYA",
  "regency_id": "1108"
 },
 {
  "alt_name": "Krueng Barona Jaya, Aceh Besar Regency, Aceh, Indonesia",
  "docstatus": 0,
  "doctype": "Kecamatan",
  "id": 1108091,
  "latitude": "5.55058",
  "longitude": "95.36517",
  "modified": "2024-10-04 23:25:45.694172",
  "nama": "KRUENG BARONA JAYA",
  "name": "KRUENG BARONA JAYA",
  "regency_id": "1108"
 },
 {
  "alt_name": "Suka Makmur, Deli Tua, Deli Serdang Regency, North Sumatra, Indonesia",
  "docstatus": 0,
  "doctype": "Kecamatan",
  "id": 1108100,
  "latitude": "3.51408",
  "longitude": "98.68069",
  "modified": "2024-10-04 23:25:45.704097",
  "nama": "SUKA MAKMUR",
  "name": "SUKA MAKMUR",
  "regency_id": "1108"
 },
 {
  "alt_name": "Kuta Malaka, Aceh Besar Regency, Aceh, Indonesia",
  "docstatus": 0,
  "doctype": "Kecamatan",
  "id": 1108101,
  "latitude": "5.42762",
  "longitude": "95.38872",
  "modified": "2024-10-04 23:25:45.710988",
  "nama": "KUTA MALAKA",
  "name": "KUTA MALAKA",
  "regency_id": "1108"
 },
 {
  "alt_name": "Darul Imarah, Aceh Besar Regency, Aceh, Indonesia",
  "docstatus": 0,
  "doctype": "Kecamatan",
  "id": 1108110,
  "latitude": "5.50137",
  "longitude": "95.31548",
  "modified": "2024-10-04 23:25:45.729825",
  "nama": "DARUL IMARAH",
  "name": "DARUL IMARAH",
  "regency_id": "1108"
 },
 {
  "alt_name": "Darul Kamal, Aceh Besar Regency, Aceh, Indonesia",
  "docstatus": 0,
  "doctype": "Kecamatan",
  "id": 1108111,
  "latitude": "5.46476",
  "longitude": "95.32071",
  "modified": "2024-10-04 23:25:45.738678",
  "nama": "DARUL KAMAL",
  "name": "DARUL KAMAL",
  "regency_id": "1108"
 },
 {
  "alt_name": "Peukan Bada, Aceh Besar Regency, Aceh, Indonesia",
  "docstatus": 0,
  "doctype": "Kecamatan",
  "id": 1108120,
  "latitude": "5.53338",
  "longitude": "95.24233",
  "modified": "2024-10-04 23:25:45.747767",
  "nama": "PEUKAN BADA",
  "name": "PEUKAN BADA",
  "regency_id": "1108"
 },
 {
  "alt_name": "Pulo, Seulimeum, Aceh Besar Regency, Aceh, Indonesia",
  "docstatus": 0,
  "doctype": "Kecamatan",
  "id": 1108130,
  "latitude": "5.4619",
  "longitude": "95.63528",
  "modified": "2024-10-04 23:25:45.756921",
  "nama": "PULO ACEH",
  "name": "PULO ACEH",
  "regency_id": "1108"
 },
 {
  "alt_name": "Geumpang, Pidie Regency, Aceh, Indonesia",
  "docstatus": 0,
  "doctype": "Kecamatan",
  "id": 1109010,
  "latitude": "4.82386",
  "longitude": "96.19513",
  "modified": "2024-10-04 23:25:45.766247",
  "nama": "GEUMPANG",
  "name": "GEUMPANG",
  "regency_id": "1109"
 },
 {
  "alt_name": "Mane, Pidie Regency, Aceh, Indonesia",
  "docstatus": 0,
  "doctype": "Kecamatan",
  "id": 1109011,
  "latitude": "4.88673",
  "longitude": "96.0891",
  "modified": "2024-10-04 23:25:45.776655",
  "nama": "MANE",
  "name": "MANE",
  "regency_id": "1109"
 },
 {
  "alt_name": "Glumpang Tiga, Pidie Regency, Aceh, Indonesia",
  "docstatus": 0,
  "doctype": "Kecamatan",
  "id": 1109070,
  "latitude": "5.20823",
  "longitude": "96.03616",
  "modified": "2024-10-04 23:25:45.786243",
  "nama": "GLUMPANG TIGA",
  "name": "GLUMPANG TIGA",
  "regency_id": "1109"
 },
 {
  "alt_name": "Glumpang Baro, Pidie Regency, Aceh, Indonesia",
  "docstatus": 0,
  "doctype": "Kecamatan",
  "id": 1109071,
  "latitude": "5.27583",
  "longitude": "96.03087",
  "modified": "2024-10-04 23:25:45.797048",
  "nama": "GLUMPANG BARO",
  "name": "GLUMPANG BARO",
  "regency_id": "1109"
 },
 {
  "alt_name": "Mutiara, Pidie Regency, Aceh, Indonesia",
  "docstatus": 0,
  "doctype": "Kecamatan",
  "id": 1109080,
  "latitude": "5.28674",
  "longitude": "95.97797",
  "modified": "2024-10-04 23:25:45.807462",
  "nama": "MUTIARA",
  "name": "MUTIARA",
  "regency_id": "1109"
 },
 {
  "alt_name": "East Mutiara, Pidie Regency, Aceh, Indonesia",
  "docstatus": 0,
  "doctype": "Kecamatan",
  "id": 1109081,
  "latitude": "5.25544",
  "longitude": "95.98855",
  "modified": "2024-10-04 23:25:45.815300",
  "nama": "MUTIARA TIMUR",
  "name": "MUTIARA TIMUR",
  "regency_id": "1109"
 },
 {
  "alt_name": "Tiro/Trusep, Pidie Regency, Aceh, Indonesia",
  "docstatus": 0,
  "doctype": "Kecamatan",
  "id": 1109090,
  "latitude": "5.17779",
  "longitude": "95.96211",
  "modified": "2024-10-04 23:25:45.824668",
  "nama": "TIRO/TRUSEB",
  "name": "TIRO/TRUSEB",
  "regency_id": "1109"
 },
 {
  "alt_name": "Tangse, Pulo Sejahtra, Tangse, Kabupaten Pidie, Aceh, Indonesia",
  "docstatus": 0,
  "doctype": "Kecamatan",
  "id": 1109100,
  "latitude": "5.00935",
  "longitude": "95.91063",
  "modified": "2024-10-04 23:25:45.833864",
  "nama": "TANGSE",
  "name": "TANGSE",
  "regency_id": "1109"
 },
 {
  "alt_name": "Keumala, Pidie Regency, Aceh, Indonesia",
  "docstatus": 0,
  "doctype": "Kecamatan",
  "id": 1109111,
  "latitude": "5.23061",
  "longitude": "95.86704",
  "modified": "2024-10-04 23:25:45.842413",
  "nama": "KEUMALA",
  "name": "KEUMALA",
  "regency_id": "1109"
 },
 {
  "alt_name": "Titeue, Pidie Regency, Aceh, Indonesia",
  "docstatus": 0,
  "doctype": "Kecamatan",
  "id": 1109112,
  "latitude": "5.20943",
  "longitude": "95.90928",
  "modified": "2024-10-04 23:25:45.851588",
  "nama": "TITEUE",
  "name": "TITEUE",
  "regency_id": "1109"
 },
 {
  "alt_name": "Sakti, Nusapenida, Klungkung Regency, Bali, Indonesia",
  "docstatus": 0,
  "doctype": "Kecamatan",
  "id": 1109120,
  "latitude": "-8.71731",
  "longitude": "115.47928",
  "modified": "2024-10-04 23:25:45.859798",
  "nama": "SAKTI",
  "name": "SAKTI",
  "regency_id": "1109"
 },
 {
  "alt_name": "Mila, Pidie Regency, Aceh, Indonesia",
  "docstatus": 0,
  "doctype": "Kecamatan",
  "id": 1109130,
  "latitude": "5.28764",
  "longitude": "95.88288",
  "modified": "2024-10-04 23:25:45.896235",
  "nama": "MILA",
  "name": "MILA",
  "regency_id": "1109"
 },
 {
  "alt_name": "Padang Tiji, Pidie Regency, Aceh, Indonesia",
  "docstatus": 0,
  "doctype": "Kecamatan",
  "id": 1109140,
  "latitude": "5.34534",
  "longitude": "95.83538",
  "modified": "2024-10-04 23:25:45.919925",
  "nama": "PADANG TIJI",
  "name": "PADANG TIJI",
  "regency_id": "1109"
 },
 {
  "alt_name": "Delima, Tampan, Pekanbaru City, Riau, Indonesia",
  "docstatus": 0,
  "doctype": "Kecamatan",
  "id": 1109150,
  "latitude": "0.48298",
  "longitude": "101.40553",
  "modified": "2024-10-04 23:25:45.931421",
  "nama": "DELIMA",
  "name": "DELIMA",
  "regency_id": "1109"
 },
 {
  "alt_name": "Grong Grong, Pidie Regency, Aceh, Indonesia",
  "docstatus": 0,
  "doctype": "Kecamatan",
  "id": 1109151,
  "latitude": "5.37072",
  "longitude": "95.90399",
  "modified": "2024-10-04 23:25:45.939443",
  "nama": "GRONG GRONG",
  "name": "GRONG GRONG",
  "regency_id": "1109"
 },
 {
  "alt_name": "Indrajaya, Pidie Regency, Aceh, Indonesia",
  "docstatus": 0,
  "doctype": "Kecamatan",
  "id": 1109160,
  "latitude": "5.31835",
  "longitude": "95.93569",
  "modified": "2024-10-04 23:25:45.947872",
  "nama": "INDRAJAYA",
  "name": "INDRAJAYA",
  "regency_id": "1109"
 },
 {
  "alt_name": "Peukan Baro, Pidie Regency, Aceh, Indonesia",
  "docstatus": 0,
  "doctype": "Kecamatan",
  "id": 1109170,
  "latitude": "5.32846",
  "longitude": "95.9674",
  "modified": "2024-10-04 23:25:45.957108",
  "nama": "PEUKAN BARO",
  "name": "PEUKAN BARO",
  "regency_id": "1109"
 },
 {
  "alt_name": "Kembang Tanjong, Pidie Regency, Aceh, Indonesia",
  "docstatus": 0,
  "doctype": "Kecamatan",
  "id": 1109180,
  "latitude": "5.31218",
  "longitude": "96.03616",
  "modified": "2024-10-04 23:25:45.966980",
  "nama": "KEMBANG TANJONG",
  "name": "KEMBANG TANJONG",
  "regency_id": "1109"
 },
 {
  "alt_name": "Simpang Tiga, Bukit Raya, Pekanbaru City, Riau, Indonesia",
  "docstatus": 0,
  "doctype": "Kecamatan",
  "id": 1109190,
  "latitude": "0.45513",
  "longitude": "101.46231",
  "modified": "2024-10-04 23:25:45.976088",
  "nama": "SIMPANG TIGA",
  "name": "SIMPANG TIGA",
  "regency_id": "1109"
 },
 {
  "alt_name": "Sigli, Sigli City, Pidie Regency, Aceh, Indonesia",
  "docstatus": 0,
  "doctype": "Kecamatan",
  "id": 1109200,
  "latitude": "5.38396",
  "longitude": "95.95886",
  "modified": "2024-10-04 23:25:45.985276",
  "nama": "KOTA SIGLI",
  "name": "KOTA SIGLI",
  "regency_id": "1109"
 },
 {
  "alt_name": "Pidie, Pidie Regency, Aceh, Indonesia",
  "docstatus": 0,
  "doctype": "Kecamatan",
  "id": 1109210,
  "latitude": "5.37041",
  "longitude": "95.93569",
  "modified": "2024-10-04 23:25:45.995635",
  "nama": "PIDIE",
  "name": "PIDIE",
  "regency_id": "1109"
 },
 {
  "alt_name": "Pulau Batee, Pulo Bunta, Peukan Bada, Kabupaten Aceh Besar, Aceh, Indonesia",
  "docstatus": 0,
  "doctype": "Kecamatan",
  "id": 1109220,
  "latitude": "5.58028",
  "longitude": "95.19944",
  "modified": "2024-10-04 23:25:46.004578",
  "nama": "BATEE",
  "name": "BATEE",
  "regency_id": "1109"
 },
 {
  "alt_name": "Muara Tiga, Pidie Regency, Aceh, Indonesia",
  "docstatus": 0,
  "doctype": "Kecamatan",
  "id": 1109230,
  "latitude": "5.51261",
  "longitude": "95.7932",
  "modified": "2024-10-04 23:25:46.015475",
  "nama": "MUARA TIGA",
  "name": "MUARA TIGA",
  "regency_id": "1109"
 },
 {
  "alt_name": "Samalanga, Bireuen Regency, Aceh, Indonesia",
  "docstatus": 0,
  "doctype": "Kecamatan",
  "id": 1110010,
  "latitude": "5.08049",
  "longitude": "96.3758",
  "modified": "2024-10-04 23:25:46.024805",
  "nama": "SAMALANGA",
  "name": "SAMALANGA",
  "regency_id": "1110"
 },
 {
  "alt_name": "Simpang Mamplam, Bireuen Regency, Aceh, Indonesia",
  "docstatus": 0,
  "doctype": "Kecamatan",
  "id": 1110011,
  "latitude": "5.10078",
  "longitude": "96.41839",
  "modified": "2024-10-04 23:25:46.033099",
  "nama": "SIMPANG MAMPLAM",
  "name": "SIMPANG MAMPLAM",
  "regency_id": "1110"
 },
 {
  "alt_name": "Jl. Nasional 15, Indonesia",
  "docstatus": 0,
  "doctype": "Kecamatan",
  "id": 1110020,
  "latitude": "-7.49087",
  "longitude": "111.60149",
  "modified": "2024-10-04 23:25:46.041712",
  "nama": "PANDRAH",
  "name": "PANDRAH",
  "regency_id": "1110"
 },
 {
  "alt_name": "Jeunieb, Garot, Pandrah, Kabupaten Bireuen, Aceh, Indonesia",
  "docstatus": 0,
  "doctype": "Kecamatan",
  "id": 1110030,
  "latitude": "5.1715",
  "longitude": "96.48244",
  "modified": "2024-10-04 23:25:46.049467",
  "nama": "JEUNIEB",
  "name": "JEUNIEB",
  "regency_id": "1110"
 },
 {
  "alt_name": "Peulimbang, Bireuen Regency, Aceh, Indonesia",
  "docstatus": 0,
  "doctype": "Kecamatan",
  "id": 1110031,
  "latitude": "5.03782",
  "longitude": "96.50364",
  "modified": "2024-10-04 23:25:46.057824",
  "nama": "PEULIMBANG",
  "name": "PEULIMBANG",
  "regency_id": "1110"
 },
 {
  "alt_name": "Peudada, Bireuen Regency, Aceh, Indonesia",
  "docstatus": 0,
  "doctype": "Kecamatan",
  "id": 1110040,
  "latitude": "5.04763",
  "longitude": "96.55699",
  "modified": "2024-10-04 23:25:46.066828",
  "nama": "PEUDADA",
  "name": "PEUDADA",
  "regency_id": "1110"
 },
 {
  "alt_name": "Juli, Bireuen Regency, Aceh, Indonesia",
  "docstatus": 0,
  "doctype": "Kecamatan",
  "id": 1110050,
  "latitude": "5.04633",
  "longitude": "96.6852",
  "modified": "2024-10-04 23:25:46.075895",
  "nama": "JULI",
  "name": "JULI",
  "regency_id": "1110"
 },
 {
  "alt_name": "Juang City, Bireuen Regency, Aceh, Indonesia",
  "docstatus": 0,
  "doctype": "Kecamatan",
  "id": 1110061,
  "latitude": "5.2066",
  "longitude": "96.71194",
  "modified": "2024-10-04 23:25:46.094001",
  "nama": "KOTA JUANG",
  "name": "KOTA JUANG",
  "regency_id": "1110"
 },
 {
  "alt_name": "Jangka, Indonesia",
  "docstatus": 0,
  "doctype": "Kecamatan",
  "id": 1110070,
  "latitude": "0.88083",
  "longitude": "103.71528",
  "modified": "2024-10-04 23:25:46.113251",
  "nama": "JANGKA",
  "name": "JANGKA",
  "regency_id": "1110"
 },
 {
  "alt_name": "Peusangan, Bireuen Regency, Aceh, Indonesia",
  "docstatus": 0,
  "doctype": "Kecamatan",
  "id": 1110080,
  "latitude": "5.2009",
  "longitude": "96.76011",
  "modified": "2024-10-04 23:25:46.122211",
  "nama": "PEUSANGAN",
  "name": "PEUSANGAN",
  "regency_id": "1110"
 },
 {
  "alt_name": "South Peusangan, Bireuen Regency, Aceh, Indonesia",
  "docstatus": 0,
  "doctype": "Kecamatan",
  "id": 1110081,
  "latitude": "5.0559",
  "longitude": "96.76011",
  "modified": "2024-10-04 23:25:46.130032",
  "nama": "PEUSANGAN SELATAN",
  "name": "PEUSANGAN SELATAN",
  "regency_id": "1110"
 },
 {
  "alt_name": "Peusangan Siblah Krueng, Bireuen Regency, Aceh, Indonesia",
  "docstatus": 0,
  "doctype": "Kecamatan",
  "id": 1110082,
  "latitude": "5.07614",
  "longitude": "96.80295",
  "modified": "2024-10-04 23:25:46.138636",
  "nama": "PEUSANGAN SIBLAH KRUENG",
  "name": "PEUSANGAN SIBLAH KRUENG",
  "regency_id": "1110"
 },
 {
  "alt_name": "Makmur, Bireuen Regency, Aceh, Indonesia",
  "docstatus": 0,
  "doctype": "Kecamatan",
  "id": 1110090,
  "latitude": "5.1378",
  "longitude": "96.84582",
  "modified": "2024-10-04 23:25:46.146965",
  "nama": "MAKMUR",
  "name": "MAKMUR",
  "regency_id": "1110"
 },
 {
  "alt_name": "Ganda Pura, Bireuen Regency, Aceh, Indonesia",
  "docstatus": 0,
  "doctype": "Kecamatan",
  "id": 1110100,
  "latitude": "5.22025",
  "longitude": "96.88872",
  "modified": "2024-10-04 23:25:46.155963",
  "nama": "GANDA PURA",
  "name": "GANDA PURA",
  "regency_id": "1110"
 },
 {
  "alt_name": "Kuta Blang, Bireuen Regency, Aceh, Indonesia",
  "docstatus": 0,
  "doctype": "Kecamatan",
  "id": 1110101,
  "latitude": "5.20534",
  "longitude": "96.82974",
  "modified": "2024-10-04 23:25:46.164991",
  "nama": "KUTA BLANG",
  "name": "KUTA BLANG",
  "regency_id": "1110"
 },
 {
  "alt_name": "Sawang, North Aceh Regency, Aceh, Indonesia",
  "docstatus": 0,
  "doctype": "Kecamatan",
  "id": 1111010,
  "latitude": "5.04409",
  "longitude": "96.89945",
  "modified": "2024-10-04 23:25:46.174008",
  "nama": "SAWANG",
  "name": "SAWANG",
  "regency_id": "1111"
 },
 {
  "alt_name": "Nisam, North Aceh Regency, Aceh, Indonesia",
  "docstatus": 0,
  "doctype": "Kecamatan",
  "id": 1111020,
  "latitude": "5.17737",
  "longitude": "97.01759",
  "modified": "2024-10-04 23:25:46.185458",
  "nama": "NISAM",
  "name": "NISAM",
  "regency_id": "1111"
 },
 {
  "alt_name": "Nisam Antara, North Aceh Regency, Aceh, Indonesia",
  "docstatus": 0,
  "doctype": "Kecamatan",
  "id": 1111021,
  "latitude": "5.03318",
  "longitude": "96.95312",
  "modified": "2024-10-04 23:25:46.195305",
  "nama": "NISAM ANTARA",
  "name": "NISAM ANTARA",
  "regency_id": "1111"
 },
 {
  "alt_name": "Banda Baro, North Aceh Regency, Aceh, Indonesia",
  "docstatus": 0,
  "doctype": "Kecamatan",
  "id": 1111022,
  "latitude": "5.19344",
  "longitude": "96.96923",
  "modified": "2024-10-04 23:25:46.205715",
  "nama": "BANDA BARO",
  "name": "BANDA BARO",
  "regency_id": "1111"
 },
 {
  "alt_name": "Kuta Makmur, North Aceh Regency, Aceh, Indonesia",
  "docstatus": 0,
  "doctype": "Kecamatan",
  "id": 1111030,
  "latitude": "5.0943",
  "longitude": "97.03909",
  "modified": "2024-10-04 23:25:46.215930",
  "nama": "KUTA MAKMUR",
  "name": "KUTA MAKMUR",
  "regency_id": "1111"
 },
 {
  "alt_name": "Simpang Keramat, North Aceh Regency, Aceh, Indonesia",
  "docstatus": 0,
  "doctype": "Kecamatan",
  "id": 1111031,
  "latitude": "5.03179",
  "longitude": "97.08212",
  "modified": "2024-10-04 23:25:46.225609",
  "nama": "SIMPANG KERAMAT",
  "name": "SIMPANG KERAMAT",
  "regency_id": "1111"
 },
 {
  "alt_name": "Syamtalira Bayu, North Aceh Regency, Aceh, Indonesia",
  "docstatus": 0,
  "doctype": "Kecamatan",
  "id": 1111040,
  "latitude": "5.07719",
  "longitude": "97.18441",
  "modified": "2024-10-04 23:25:46.234925",
  "nama": "SYAMTALIRA BAYU",
  "name": "SYAMTALIRA BAYU",
  "regency_id": "1111"
 },
 {
  "alt_name": "Geureudong Pase, North Aceh Regency, Aceh, Indonesia",
  "docstatus": 0,
  "doctype": "Kecamatan",
  "id": 1111041,
  "latitude": "4.94988",
  "longitude": "97.01759",
  "modified": "2024-10-04 23:25:46.243319",
  "nama": "GEUREUDONG PASE",
  "name": "GEUREUDONG PASE",
  "regency_id": "1111"
 },
 {
  "alt_name": "Meurah Mulia, North Aceh Regency, Aceh, Indonesia",
  "docstatus": 0,
  "doctype": "Kecamatan",
  "id": 1111050,
  "latitude": "5.07172",
  "longitude": "97.21136",
  "modified": "2024-10-04 23:25:46.251799",
  "nama": "MEURAH MULIA",
  "name": "MEURAH MULIA",
  "regency_id": "1111"
 },
 {
  "alt_name": "Matangkuli, North Aceh Regency, Aceh, Indonesia",
  "docstatus": 0,
  "doctype": "Kecamatan",
  "id": 1111060,
  "latitude": "5.03489",
  "longitude": "97.27068",
  "modified": "2024-10-04 23:25:46.261744",
  "nama": "MATANGKULI",
  "name": "MATANGKULI",
  "regency_id": "1111"
 },
 {
  "alt_name": "Paya Bakong, North Aceh Regency, Aceh, Indonesia",
  "docstatus": 0,
  "doctype": "Kecamatan",
  "id": 1111061,
  "latitude": "4.91651",
  "longitude": "97.24371",
  "modified": "2024-10-04 23:25:46.270862",
  "nama": "PAYA BAKONG",
  "name": "PAYA BAKONG",
  "regency_id": "1111"
 },
 {
  "alt_name": "Pirak Timu, North Aceh Regency, Aceh, Indonesia",
  "docstatus": 0,
  "doctype": "Kecamatan",
  "id": 1111062,
  "latitude": "4.98836",
  "longitude": "97.27608",
  "modified": "2024-10-04 23:25:46.280225",
  "nama": "PIRAK TIMU",
  "name": "PIRAK TIMU",
  "regency_id": "1111"
 },
 {
  "alt_name": "Cot Girek, North Aceh Regency, Aceh, Indonesia",
  "docstatus": 0,
  "doctype": "Kecamatan",
  "id": 1111070,
  "latitude": "4.83318",
  "longitude": "97.33005",
  "modified": "2024-10-04 23:25:46.289763",
  "nama": "COT GIREK",
  "name": "COT GIREK",
  "regency_id": "1111"
 },
 {
  "alt_name": "Tanah Jambo Aye, North Aceh Regency, Aceh, Indonesia",
  "docstatus": 0,
  "doctype": "Kecamatan",
  "id": 1111080,
  "latitude": "5.08969",
  "longitude": "97.44895",
  "modified": "2024-10-04 23:25:46.299633",
  "nama": "TANAH JAMBO AYE",
  "name": "TANAH JAMBO AYE",
  "regency_id": "1111"
 },
 {
  "alt_name": "Langkahan, North Aceh Regency, Aceh, Indonesia",
  "docstatus": 0,
  "doctype": "Kecamatan",
  "id": 1111081,
  "latitude": "4.87293",
  "longitude": "97.45977",
  "modified": "2024-10-04 23:25:46.309979",
  "nama": "LANGKAHAN",
  "name": "LANGKAHAN",
  "regency_id": "1111"
 },
 {
  "alt_name": "SEUNUDDON",
  "docstatus": 0,
  "doctype": "Kecamatan",
  "id": 1111090,
  "latitude": null,
  "longitude": null,
  "modified": "2024-10-04 23:25:46.318904",
  "nama": "SEUNUDDON",
  "name": "SEUNUDDON",
  "regency_id": "1111"
 },
 {
  "alt_name": "Baktiya, North Aceh Regency, Aceh, Indonesia",
  "docstatus": 0,
  "doctype": "Kecamatan",
  "id": 1111100,
  "latitude": "5.09019",
  "longitude": "97.40569",
  "modified": "2024-10-04 23:25:46.328387",
  "nama": "BAKTIYA",
  "name": "BAKTIYA",
  "regency_id": "1111"
 },
 {
  "alt_name": "West Baktiya, North Aceh Regency, Aceh, Indonesia",
  "docstatus": 0,
  "doctype": "Kecamatan",
  "id": 1111101,
  "latitude": "5.13231",
  "longitude": "97.34085",
  "modified": "2024-10-04 23:25:46.335978",
  "nama": "BAKTIYA BARAT",
  "name": "BAKTIYA BARAT",
  "regency_id": "1111"
 },
 {
  "alt_name": "Lhoksukon, Meunasah Asan Ab, Lhoksukon, Kabupaten Aceh Utara, Aceh, Indonesia",
  "docstatus": 0,
  "doctype": "Kecamatan",
  "id": 1111110,
  "latitude": "5.0517",
  "longitude": "97.31812",
  "modified": "2024-10-04 23:25:46.344512",
  "nama": "LHOKSUKON",
  "name": "LHOKSUKON",
  "regency_id": "1111"
 },
 {
  "alt_name": "Tanah Luas, North Aceh Regency, Aceh, Indonesia",
  "docstatus": 0,
  "doctype": "Kecamatan",
  "id": 1111120,
  "latitude": "4.96913",
  "longitude": "97.14671",
  "modified": "2024-10-04 23:25:46.353333",
  "nama": "TANAH LUAS",
  "name": "TANAH LUAS",
  "regency_id": "1111"
 },
 {
  "alt_name": "Nibong, North Aceh Regency, Aceh, Indonesia",
  "docstatus": 0,
  "doctype": "Kecamatan",
  "id": 1111121,
  "latitude": "5.03287",
  "longitude": "97.21945",
  "modified": "2024-10-04 23:25:46.362076",
  "nama": "NIBONG",
  "name": "NIBONG",
  "regency_id": "1111"
 },
 {
  "alt_name": "Samudera, North Aceh Regency, Aceh, Indonesia",
  "docstatus": 0,
  "doctype": "Kecamatan",
  "id": 1111130,
  "latitude": "5.12842",
  "longitude": "97.22753",
  "modified": "2024-10-04 23:25:46.371121",
  "nama": "SAMUDERA",
  "name": "SAMUDERA",
  "regency_id": "1111"
 },
 {
  "alt_name": "Meuria Aron, Syamtalira Aron, North Aceh Regency, Aceh, Indonesia",
  "docstatus": 0,
  "doctype": "Kecamatan",
  "id": 1111140,
  "latitude": "5.09057",
  "longitude": "97.25854",
  "modified": "2024-10-04 23:25:46.380426",
  "nama": "SYAMTALIRA ARON",
  "name": "SYAMTALIRA ARON",
  "regency_id": "1111"
 },
 {
  "alt_name": "Tanah Pasir, North Aceh Regency, Aceh, Indonesia",
  "docstatus": 0,
  "doctype": "Kecamatan",
  "id": 1111150,
  "latitude": "5.1384",
  "longitude": "97.25989",
  "modified": "2024-10-04 23:25:46.389555",
  "nama": "TANAH PASIR",
  "name": "TANAH PASIR",
  "regency_id": "1111"
 },
 {
  "alt_name": "Lapang, North Aceh Regency, Aceh, Indonesia",
  "docstatus": 0,
  "doctype": "Kecamatan",
  "id": 1111151,
  "latitude": "5.14839",
  "longitude": "97.29226",
  "modified": "2024-10-04 23:25:46.398616",
  "nama": "LAPANG",
  "name": "LAPANG",
  "regency_id": "1111"
 },
 {
  "alt_name": "Muara Batu, North Aceh Regency, Aceh, Indonesia",
  "docstatus": 0,
  "doctype": "Kecamatan",
  "id": 1111160,
  "latitude": "5.24553",
  "longitude": "96.94775",
  "modified": "2024-10-04 23:25:46.408088",
  "nama": "MUARA BATU",
  "name": "MUARA BATU",
  "regency_id": "1111"
 },
 {
  "alt_name": "Dewantara, North Aceh Regency, Aceh, Indonesia",
  "docstatus": 0,
  "doctype": "Kecamatan",
  "id": 1111170,
  "latitude": "5.23957",
  "longitude": "97.01759",
  "modified": "2024-10-04 23:25:46.419892",
  "nama": "DEWANTARA",
  "name": "DEWANTARA",
  "regency_id": "1111"
 },
 {
  "alt_name": "Manggeng, Blang Manggeng, Manggeng, Kabupaten Aceh Barat Daya, Aceh, Indonesia",
  "docstatus": 0,
  "doctype": "Kecamatan",
  "id": 1112010,
  "latitude": "3.60821",
  "longitude": "96.9188",
  "modified": "2024-10-04 23:25:46.431096",
  "nama": "MANGGENG",
  "name": "MANGGENG",
  "regency_id": "1112"
 },
 {
  "alt_name": "Lembah Sabil, Southwest Aceh Regency, Aceh, Indonesia",
  "docstatus": 0,
  "doctype": "Kecamatan",
  "id": 1112011,
  "latitude": "3.6249",
  "longitude": "97.01759",
  "modified": "2024-10-04 23:25:46.439114",
  "nama": "LEMBAH SABIL",
  "name": "LEMBAH SABIL",
  "regency_id": "1112"
 },
 {
  "alt_name": "Tangan-Tangan, Southwest Aceh Regency, Aceh, Indonesia",
  "docstatus": 0,
  "doctype": "Kecamatan",
  "id": 1112020,
  "latitude": "3.69598",
  "longitude": "96.94238",
  "modified": "2024-10-04 23:25:46.446644",
  "nama": "TANGAN-TANGAN",
  "name": "TANGAN-TANGAN",
  "regency_id": "1112"
 },
 {
  "alt_name": "Setia, Southwest Aceh Regency, Aceh, Indonesia",
  "docstatus": 0,
  "doctype": "Kecamatan",
  "id": 1112021,
  "latitude": "3.70156",
  "longitude": "96.87263",
  "modified": "2024-10-04 23:25:46.454394",
  "nama": "SETIA",
  "name": "SETIA",
  "regency_id": "1112"
 },
 {
  "alt_name": "Blang Pidie, Southwest Aceh Regency, Aceh, Indonesia",
  "docstatus": 0,
  "doctype": "Kecamatan",
  "id": 1112030,
  "latitude": "3.74315",
  "longitude": "96.83265",
  "modified": "2024-10-04 23:25:46.463386",
  "nama": "BLANG PIDIE",
  "name": "BLANG PIDIE",
  "regency_id": "1112"
 },
 {
  "alt_name": "Jeumpa, Bireuen Regency, Aceh, Indonesia",
  "docstatus": 0,
  "doctype": "Kecamatan",
  "id": 1112031,
  "latitude": "5.16056",
  "longitude": "96.65312",
  "modified": "2024-10-04 23:25:46.472809",
  "nama": "JEUMPA",
  "name": "JEUMPA",
  "regency_id": "1112"
 },
 {
  "alt_name": "Susoh, Padang Baru, Susoh, Kabupaten Aceh Barat Daya, Aceh, Indonesia",
  "docstatus": 0,
  "doctype": "Kecamatan",
  "id": 1112040,
  "latitude": "3.72858",
  "longitude": "96.81258",
  "modified": "2024-10-04 23:25:46.481892",
  "nama": "SUSOH",
  "name": "SUSOH",
  "regency_id": "1112"
 },
 {
  "alt_name": "Kuala Batee, Southwest Aceh Regency, Aceh, Indonesia",
  "docstatus": 0,
  "doctype": "Kecamatan",
  "id": 1112050,
  "latitude": "3.9395",
  "longitude": "96.81366",
  "modified": "2024-10-04 23:25:46.490875",
  "nama": "KUALA BATEE",
  "name": "KUALA BATEE",
  "regency_id": "1112"
 },
 {
  "alt_name": "Babah Rot, Southwest Aceh Regency, Aceh, Indonesia",
  "docstatus": 0,
  "doctype": "Kecamatan",
  "id": 1112060,
  "latitude": "3.92012",
  "longitude": "96.70659",
  "modified": "2024-10-04 23:25:46.499964",
  "nama": "BABAH ROT",
  "name": "BABAH ROT",
  "regency_id": "1112"
 },
 {
  "alt_name": "Kerukunan Kuta Panjang, Kutapanjang, Gayo Lues Regency, Aceh, Indonesia",
  "docstatus": 0,
  "doctype": "Kecamatan",
  "id": 1113010,
  "latitude": "4.01786",
  "longitude": "97.27742",
  "modified": "2024-10-04 23:25:46.509139",
  "nama": "KUTA PANJANG",
  "name": "KUTA PANJANG",
  "regency_id": "1113"
 },
 {
  "alt_name": "Blang Jerango, Gayo Lues Regency, Aceh, Indonesia",
  "docstatus": 0,
  "doctype": "Kecamatan",
  "id": 1113011,
  "latitude": "3.97712",
  "longitude": "97.15748",
  "modified": "2024-10-04 23:25:46.519409",
  "nama": "BLANG JERANGO",
  "name": "BLANG JERANGO",
  "regency_id": "1113"
 },
 {
  "alt_name": "Blangkejeren, Gayo Lues Regency, Aceh, Indonesia",
  "docstatus": 0,
  "doctype": "Kecamatan",
  "id": 1113020,
  "latitude": "3.99672",
  "longitude": "97.34162",
  "modified": "2024-10-04 23:25:46.529223",
  "nama": "BLANGKEJEREN",
  "name": "BLANGKEJEREN",
  "regency_id": "1113"
 },
 {
  "alt_name": "Putri Betung, Gayo Lues Regency, Aceh, Indonesia",
  "docstatus": 0,
  "doctype": "Kecamatan",
  "id": 1113021,
  "latitude": "3.75203",
  "longitude": "97.48142",
  "modified": "2024-10-04 23:25:46.540438",
  "nama": "PUTRI BETUNG",
  "name": "PUTRI BETUNG",
  "regency_id": "1113"
 },
 {
  "alt_name": "Dabun Gelang, Gayo Lues Regency, Aceh, Indonesia",
  "docstatus": 0,
  "doctype": "Kecamatan",
  "id": 1113022,
  "latitude": "3.93357",
  "longitude": "97.50307",
  "modified": "2024-10-04 23:25:46.547787",
  "nama": "DABUN GELANG",
  "name": "DABUN GELANG",
  "regency_id": "1113"
 },
 {
  "alt_name": "Blang Pegayon, Gayo Lues Regency, Aceh, Indonesia",
  "docstatus": 0,
  "doctype": "Kecamatan",
  "id": 1113023,
  "latitude": "3.81421",
  "longitude": "97.28687",
  "modified": "2024-10-04 23:25:46.556336",
  "nama": "BLANG PEGAYON",
  "name": "BLANG PEGAYON",
  "regency_id": "1113"
 },
 {
  "alt_name": "Pining, Gayo Lues Regency, Aceh, Indonesia",
  "docstatus": 0,
  "doctype": "Kecamatan",
  "id": 1113030,
  "latitude": "3.99289",
  "longitude": "97.65481",
  "modified": "2024-10-04 23:25:46.565245",
  "nama": "PINING",
  "name": "PINING",
  "regency_id": "1113"
 },
 {
  "alt_name": "Rikit Gaib, Gayo Lues Regency, Aceh, Indonesia",
  "docstatus": 0,
  "doctype": "Kecamatan",
  "id": 1113040,
  "latitude": "4.13828",
  "longitude": "97.28687",
  "modified": "2024-10-04 23:25:46.574303",
  "nama": "RIKIT GAIB",
  "name": "RIKIT GAIB",
  "regency_id": "1113"
 },
 {
  "alt_name": "Pantan Cuaca, Gayo Lues Regency, Aceh, Indonesia",
  "docstatus": 0,
  "doctype": "Kecamatan",
  "id": 1113041,
  "latitude": "4.17973",
  "longitude": "97.20058",
  "modified": "2024-10-04 23:25:46.583526",
  "nama": "PANTAN CUACA",
  "name": "PANTAN CUACA",
  "regency_id": "1113"
 },
 {
  "alt_name": "Terangun, Gayo Lues Regency, Aceh, Indonesia",
  "docstatus": 0,
  "doctype": "Kecamatan",
  "id": 1113050,
  "latitude": "3.99905",
  "longitude": "96.96386",
  "modified": "2024-10-04 23:25:46.593042",
  "nama": "TERANGUN",
  "name": "TERANGUN",
  "regency_id": "1113"
 },
 {
  "alt_name": "Tripe Jaya, Gayo Lues Regency, Aceh, Indonesia",
  "docstatus": 0,
  "doctype": "Kecamatan",
  "id": 1113051,
  "latitude": "4.141",
  "longitude": "96.98535",
  "modified": "2024-10-04 23:25:46.602480",
  "nama": "TRIPE JAYA",
  "name": "TRIPE JAYA",
  "regency_id": "1113"
 },
 {
  "alt_name": "Tamiang Hulu, Aceh Tamiang Regency, Aceh, Indonesia",
  "docstatus": 0,
  "doctype": "Kecamatan",
  "id": 1114010,
  "latitude": "4.1534",
  "longitude": "97.82864",
  "modified": "2024-10-04 23:25:46.611873",
  "nama": "TAMIANG HULU",
  "name": "TAMIANG HULU",
  "regency_id": "1114"
 },
 {
  "alt_name": "Bandar Pusaka, Aceh Tamiang Regency, Aceh, Indonesia",
  "docstatus": 0,
  "doctype": "Kecamatan",
  "id": 1114011,
  "latitude": "4.28542",
  "longitude": "97.83952",
  "modified": "2024-10-04 23:25:46.621462",
  "nama": "BANDAR PUSAKA",
  "name": "BANDAR PUSAKA",
  "regency_id": "1114"
 },
 {
  "alt_name": "Kejuruan Muda, Aceh Tamiang Regency, Aceh, Indonesia",
  "docstatus": 0,
  "doctype": "Kecamatan",
  "id": 1114020,
  "latitude": "4.21234",
  "longitude": "98.0247",
  "modified": "2024-10-04 23:25:46.632316",
  "nama": "KEJURUAN MUDA",
  "name": "KEJURUAN MUDA",
  "regency_id": "1114"
 },
 {
  "alt_name": "Tenggulun, Aceh Tamiang Regency, Aceh, Indonesia",
  "docstatus": 0,
  "doctype": "Kecamatan",
  "id": 1114021,
  "latitude": "3.99042",
  "longitude": "97.91571",
  "modified": "2024-10-04 23:25:46.642933",
  "nama": "TENGGULUN",
  "name": "TENGGULUN",
  "regency_id": "1114"
 },
 {
  "alt_name": "Rantau, Kupang, Tapin Utara, Kabupaten Tapin, Kalimantan Selatan, Indonesia",
  "docstatus": 0,
  "doctype": "Kecamatan",
  "id": 1114030,
  "latitude": "-2.93757",
  "longitude": "115.144",
  "modified": "2024-10-04 23:25:46.650586",
  "nama": "RANTAU",
  "name": "RANTAU",
  "regency_id": "1114"
 },
 {
  "alt_name": "Kuala Simpang City, Aceh Tamiang Regency, Aceh, Indonesia",
  "docstatus": 0,
  "doctype": "Kecamatan",
  "id": 1114040,
  "latitude": "4.28566",
  "longitude": "98.06016",
  "modified": "2024-10-04 23:25:46.658854",
  "nama": "KOTA KUALA SIMPANG",
  "name": "KOTA KUALA SIMPANG",
  "regency_id": "1114"
 },
 {
  "alt_name": "Seruway, Tj. Mulia, Bendahara, Kabupaten Aceh Tamiang, Aceh, Indonesia",
  "docstatus": 0,
  "doctype": "Kecamatan",
  "id": 1114050,
  "latitude": "4.36069",
  "longitude": "98.18462",
  "modified": "2024-10-04 23:25:46.667624",
  "nama": "SERUWAY",
  "name": "SERUWAY",
  "regency_id": "1114"
 },
 {
  "alt_name": "Bendahara, Aceh Tamiang Regency, Aceh, Indonesia",
  "docstatus": 0,
  "doctype": "Kecamatan",
  "id": 1114060,
  "latitude": "4.4039",
  "longitude": "98.18849",
  "modified": "2024-10-04 23:25:46.676560",
  "nama": "BENDAHARA",
  "name": "BENDAHARA",
  "regency_id": "1114"
 },
 {
  "alt_name": "Banda Mulia, Aceh Tamiang Regency, Aceh, Indonesia",
  "docstatus": 0,
  "doctype": "Kecamatan",
  "id": 1114061,
  "latitude": "4.44517",
  "longitude": "98.14478",
  "modified": "2024-10-04 23:25:46.687857",
  "nama": "BANDA MULIA",
  "name": "BANDA MULIA",
  "regency_id": "1114"
 },
 {
  "alt_name": "Karang Baru, Aceh Tamiang Regency, Aceh, Indonesia",
  "docstatus": 0,
  "doctype": "Kecamatan",
  "id": 1114070,
  "latitude": "4.33293",
  "longitude": "98.07561",
  "modified": "2024-10-04 23:25:46.697282",
  "nama": "KARANG BARU",
  "name": "KARANG BARU",
  "regency_id": "1114"
 },
 {
  "alt_name": "Sekerak, Aceh Tamiang Regency, Aceh, Indonesia",
  "docstatus": 0,
  "doctype": "Kecamatan",
  "id": 1114071,
  "latitude": "4.32523",
  "longitude": "97.9266",
  "modified": "2024-10-04 23:25:46.706651",
  "nama": "SEKERAK",
  "name": "SEKERAK",
  "regency_id": "1114"
 },
 {
  "alt_name": "Manyak Payed, Aceh Tamiang Regency, Aceh, Indonesia",
  "docstatus": 0,
  "doctype": "Kecamatan",
  "id": 1114080,
  "latitude": "4.42573",
  "longitude": "98.05743",
  "modified": "2024-10-04 23:25:46.716064",
  "nama": "MANYAK PAYED",
  "name": "MANYAK PAYED",
  "regency_id": "1114"
 },
 {
  "alt_name": "Darul Makmur, Nagan Raya Regency, Aceh, Indonesia",
  "docstatus": 0,
  "doctype": "Kecamatan",
  "id": 1115010,
  "latitude": "4.00258",
  "longitude": "96.53564",
  "modified": "2024-10-04 23:25:46.725608",
  "nama": "DARUL MAKMUR",
  "name": "DARUL MAKMUR",
  "regency_id": "1115"
 },
 {
  "alt_name": "Tripa Makmur, Nagan Raya Regency, Aceh, Indonesia",
  "docstatus": 0,
  "doctype": "Kecamatan",
  "id": 1115011,
  "latitude": "3.93251",
  "longitude": "96.41839",
  "modified": "2024-10-04 23:25:46.737232",
  "nama": "TRIPA MAKMUR",
  "name": "TRIPA MAKMUR",
  "regency_id": "1115"
 },
 {
  "alt_name": "Kuala Pesisir, Nagan Raya Regency, Aceh, Indonesia",
  "docstatus": 0,
  "doctype": "Kecamatan",
  "id": 1115021,
  "latitude": "4.09645",
  "longitude": "96.22698",
  "modified": "2024-10-04 23:25:46.757039",
  "nama": "KUALA PESISIR",
  "name": "KUALA PESISIR",
  "regency_id": "1115"
 },
 {
  "alt_name": "Tadu Raya, Nagan Raya Regency, Aceh, Indonesia",
  "docstatus": 0,
  "doctype": "Kecamatan",
  "id": 1115022,
  "latitude": "4.0647",
  "longitude": "96.38644",
  "modified": "2024-10-04 23:25:46.766051",
  "nama": "TADU RAYA",
  "name": "TADU RAYA",
  "regency_id": "1115"
 },
 {
  "alt_name": "Beutong, Blang Puuk, Kec. Beutong Ateuh Banggalang, Kabupaten Nagan Raya, Aceh, Indonesia",
  "docstatus": 0,
  "doctype": "Kecamatan",
  "id": 1115030,
  "latitude": "4.45",
  "longitude": "96.55",
  "modified": "2024-10-04 23:25:46.776279",
  "nama": "BEUTONG",
  "name": "BEUTONG",
  "regency_id": "1115"
 },
 {
  "alt_name": "Beutong Ateuh Banggalang, Nagan Raya Regency, Aceh, Indonesia",
  "docstatus": 0,
  "doctype": "Kecamatan",
  "id": 1115031,
  "latitude": "4.46131",
  "longitude": "96.52498",
  "modified": "2024-10-04 23:25:46.785898",
  "nama": "BEUTONG ATEUH BANGGALANG",
  "name": "BEUTONG ATEUH BANGGALANG",
  "regency_id": "1115"
 },
 {
  "alt_name": "Seunagan, Nagan Raya Regency, Aceh, Indonesia",
  "docstatus": 0,
  "doctype": "Kecamatan",
  "id": 1115040,
  "latitude": "4.23852",
  "longitude": "96.29071",
  "modified": "2024-10-04 23:25:46.797740",
  "nama": "SEUNAGAN",
  "name": "SEUNAGAN",
  "regency_id": "1115"
 },
 {
  "alt_name": "Suka Makmue, Nagan Raya Regency, Aceh, Indonesia",
  "docstatus": 0,
  "doctype": "Kecamatan",
  "id": 1115041,
  "latitude": "4.1772",
  "longitude": "96.31197",
  "modified": "2024-10-04 23:25:46.807353",
  "nama": "SUKA MAKMUE",
  "name": "SUKA MAKMUE",
  "regency_id": "1115"
 },
 {
  "alt_name": "East Seunagan, Nagan Raya Regency, Aceh, Indonesia",
  "docstatus": 0,
  "doctype": "Kecamatan",
  "id": 1115050,
  "latitude": "4.30951",
  "longitude": "96.34388",
  "modified": "2024-10-04 23:25:46.817037",
  "nama": "SEUNAGAN TIMUR",
  "name": "SEUNAGAN TIMUR",
  "regency_id": "1115"
 },
 {
  "alt_name": "Teunom, Aceh Jaya Regency, Aceh, Indonesia",
  "docstatus": 0,
  "doctype": "Kecamatan",
  "id": 1116010,
  "latitude": "4.43603",
  "longitude": "95.8776",
  "modified": "2024-10-04 23:25:46.826409",
  "nama": "TEUNOM",
  "name": "TEUNOM",
  "regency_id": "1116"
 },
 {
  "alt_name": "Pasie Raya, Aceh Jaya Regency, Aceh, Indonesia",
  "docstatus": 0,
  "doctype": "Kecamatan",
  "id": 1116011,
  "latitude": "4.59947",
  "longitude": "95.96211",
  "modified": "2024-10-04 23:25:46.838213",
  "nama": "PASIE RAYA",
  "name": "PASIE RAYA",
  "regency_id": "1116"
 },
 {
  "alt_name": "Panga, Aceh Jaya Regency, Aceh, Indonesia",
  "docstatus": 0,
  "doctype": "Kecamatan",
  "id": 1116020,
  "latitude": "4.64198",
  "longitude": "95.7932",
  "modified": "2024-10-04 23:25:46.849298",
  "nama": "PANGA",
  "name": "PANGA",
  "regency_id": "1116"
 },
 {
  "alt_name": "Krueng Sabee, Aceh Jaya Regency, Aceh, Indonesia",
  "docstatus": 0,
  "doctype": "Kecamatan",
  "id": 1116030,
  "latitude": "4.82686",
  "longitude": "95.85649",
  "modified": "2024-10-04 23:25:46.859254",
  "nama": "KRUENG SABEE",
  "name": "KRUENG SABEE",
  "regency_id": "1116"
 },
 {
  "alt_name": "Setia Bakti, Aceh Jaya Regency, Aceh, Indonesia",
  "docstatus": 0,
  "doctype": "Kecamatan",
  "id": 1116040,
  "latitude": "4.74647",
  "longitude": "95.60375",
  "modified": "2024-10-04 23:25:46.867630",
  "nama": "SETIA BAKTI",
  "name": "SETIA BAKTI",
  "regency_id": "1116"
 },
 {
  "alt_name": "Sampoiniet, Aceh Jaya Regency, Aceh, Indonesia",
  "docstatus": 0,
  "doctype": "Kecamatan",
  "id": 1116050,
  "latitude": "4.93318",
  "longitude": "95.49876",
  "modified": "2024-10-04 23:25:46.877055",
  "nama": "SAMPOINIET",
  "name": "SAMPOINIET",
  "regency_id": "1116"
 },
 {
  "alt_name": "Darul Hikmah, Aceh Jaya Regency, Aceh, Indonesia",
  "docstatus": 0,
  "doctype": "Kecamatan",
  "id": 1116051,
  "latitude": "4.89078",
  "longitude": "95.62477",
  "modified": "2024-10-04 23:25:46.885872",
  "nama": "DARUL HIKMAH",
  "name": "DARUL HIKMAH",
  "regency_id": "1116"
 },
 {
  "alt_name": "Puncak Jaya, Tembagapura, Mimika Regency, Papua, Indonesia",
  "docstatus": 0,
  "doctype": "Kecamatan",
  "id": 1116060,
  "latitude": "-4.0846",
  "longitude": "137.18661",
  "modified": "2024-10-04 23:25:46.895001",
  "nama": "JAYA",
  "name": "JAYA",
  "regency_id": "1116"
 },
 {
  "alt_name": "Indra Jaya, Aceh Jaya Regency, Aceh, Indonesia",
  "docstatus": 0,
  "doctype": "Kecamatan",
  "id": 1116061,
  "latitude": "5.01668",
  "longitude": "95.4149",
  "modified": "2024-10-04 23:25:46.904166",
  "nama": "INDRA JAYA",
  "name": "INDRA JAYA",
  "regency_id": "1116"
 },
 {
  "alt_name": "Timang Gajah, Bener Meriah Regency, Aceh, Indonesia",
  "docstatus": 0,
  "doctype": "Kecamatan",
  "id": 1117010,
  "latitude": "4.7668",
  "longitude": "96.78152",
  "modified": "2024-10-04 23:25:46.913243",
  "nama": "TIMANG GAJAH",
  "name": "TIMANG GAJAH",
  "regency_id": "1117"
 },
 {
  "alt_name": "Gajah Putih, Bener Meriah Regency, Aceh, Indonesia",
  "docstatus": 0,
  "doctype": "Kecamatan",
  "id": 1117011,
  "latitude": "4.80819",
  "longitude": "96.76011",
  "modified": "2024-10-04 23:25:46.922900",
  "nama": "GAJAH PUTIH",
  "name": "GAJAH PUTIH",
  "regency_id": "1117"
 },
 {
  "alt_name": "Pintu Rime Gayo, Bener Meriah Regency, Aceh, Indonesia",
  "docstatus": 0,
  "doctype": "Kecamatan",
  "id": 1117020,
  "latitude": "4.88022",
  "longitude": "96.77081",
  "modified": "2024-10-04 23:25:46.936128",
  "nama": "PINTU RIME GAYO",
  "name": "PINTU RIME GAYO",
  "regency_id": "1117"
 },
 {
  "alt_name": "BUKIT",
  "docstatus": 0,
  "doctype": "Kecamatan",
  "id": 1117030,
  "latitude": null,
  "longitude": null,
  "modified": "2024-10-04 23:25:46.945660",
  "nama": "BUKIT",
  "name": "BUKIT",
  "regency_id": "1117"
 },
 {
  "alt_name": "Wih Pesam, Bener Meriah Regency, Aceh, Indonesia",
  "docstatus": 0,
  "doctype": "Kecamatan",
  "id": 1117040,
  "latitude": "4.72545",
  "longitude": "96.80295",
  "modified": "2024-10-04 23:25:46.956017",
  "nama": "WIH PESAM",
  "name": "WIH PESAM",
  "regency_id": "1117"
 },
 {
  "alt_name": "Bener Kelipah, Bener Meriah Regency, Aceh, Indonesia",
  "docstatus": 0,
  "doctype": "Kecamatan",
  "id": 1117051,
  "latitude": "4.77062",
  "longitude": "96.91555",
  "modified": "2024-10-04 23:25:46.971637",
  "nama": "BENER KELIPAH",
  "name": "BENER KELIPAH",
  "regency_id": "1117"
 },
 {
  "alt_name": "Syiah Utama, Bener Meriah Regency, Aceh, Indonesia",
  "docstatus": 0,
  "doctype": "Kecamatan",
  "id": 1117060,
  "latitude": "4.65024",
  "longitude": "97.13594",
  "modified": "2024-10-04 23:25:46.980347",
  "nama": "SYIAH UTAMA",
  "name": "SYIAH UTAMA",
  "regency_id": "1117"
 },
 {
  "alt_name": "Mesidah, Bener Meriah Regency, Aceh, Indonesia",
  "docstatus": 0,
  "doctype": "Kecamatan",
  "id": 1117061,
  "latitude": "4.75405",
  "longitude": "97.02834",
  "modified": "2024-10-04 23:25:46.989133",
  "nama": "MESIDAH",
  "name": "MESIDAH",
  "regency_id": "1117"
 },
 {
  "alt_name": "Permata, Bener Meriah Regency, Aceh, Indonesia",
  "docstatus": 0,
  "doctype": "Kecamatan",
  "id": 1117070,
  "latitude": "4.83725",
  "longitude": "96.94238",
  "modified": "2024-10-04 23:25:46.998358",
  "nama": "PERMATA",
  "name": "PERMATA",
  "regency_id": "1117"
 },
 {
  "alt_name": "Meureudu, Pidie Jaya Regency, Aceh, Indonesia",
  "docstatus": 0,
  "doctype": "Kecamatan",
  "id": 1118010,
  "latitude": "4.98828",
  "longitude": "96.28009",
  "modified": "2024-10-04 23:25:47.007501",
  "nama": "MEUREUDU",
  "name": "MEUREUDU",
  "regency_id": "1118"
 },
 {
  "alt_name": "Meurah Dua, Pidie Jaya Regency, Aceh, Indonesia",
  "docstatus": 0,
  "doctype": "Kecamatan",
  "id": 1118020,
  "latitude": "5.23274",
  "longitude": "96.2602",
  "modified": "2024-10-04 23:25:47.016514",
  "nama": "MEURAH DUA",
  "name": "MEURAH DUA",
  "regency_id": "1118"
 },
 {
  "alt_name": "Bandar Dua, Pidie Jaya Regency, Aceh, Indonesia",
  "docstatus": 0,
  "doctype": "Kecamatan",
  "id": 1118030,
  "latitude": "5.09158",
  "longitude": "96.30134",
  "modified": "2024-10-04 23:25:47.025752",
  "nama": "BANDAR DUA",
  "name": "BANDAR DUA",
  "regency_id": "1118"
 },
 {
  "alt_name": "Jangka Buya, Pidie Jaya Regency, Aceh, Indonesia",
  "docstatus": 0,
  "doctype": "Kecamatan",
  "id": 1118040,
  "latitude": "5.22095",
  "longitude": "96.32792",
  "modified": "2024-10-04 23:25:47.034869",
  "nama": "JANGKA BUYA",
  "name": "JANGKA BUYA",
  "regency_id": "1118"
 },
 {
  "alt_name": "Ulim, Pidie Jaya Regency, Aceh, Indonesia",
  "docstatus": 0,
  "doctype": "Kecamatan",
  "id": 1118050,
  "latitude": "5.20061",
  "longitude": "96.2854",
  "modified": "2024-10-04 23:25:47.044107",
  "nama": "ULIM",
  "name": "ULIM",
  "regency_id": "1118"
 },
 {
  "alt_name": "Trienggadeng, Pidie Jaya Regency, Aceh, Indonesia",
  "docstatus": 0,
  "doctype": "Kecamatan",
  "id": 1118060,
  "latitude": "5.207",
  "longitude": "96.1633",
  "modified": "2024-10-04 23:25:47.054152",
  "nama": "TRIENGGADENG",
  "name": "TRIENGGADENG",
  "regency_id": "1118"
 },
 {
  "alt_name": "Panteraja, Pidie Jaya Regency, Aceh, Indonesia",
  "docstatus": 0,
  "doctype": "Kecamatan",
  "id": 1118070,
  "latitude": "5.2539",
  "longitude": "96.1474",
  "modified": "2024-10-04 23:25:47.064672",
  "nama": "PANTERAJA",
  "name": "PANTERAJA",
  "regency_id": "1118"
 },
 {
  "alt_name": "Bandar Baru, Kuta Alam, Banda Aceh City, Aceh, Indonesia",
  "docstatus": 0,
  "doctype": "Kecamatan",
  "id": 1118080,
  "latitude": "5.56521",
  "longitude": "95.3377",
  "modified": "2024-10-04 23:25:47.072905",
  "nama": "BANDAR BARU",
  "name": "BANDAR BARU",
  "regency_id": "1118"
 },
 {
  "alt_name": "Meuraxa, Banda Aceh City, Aceh, Indonesia",
  "docstatus": 0,
  "doctype": "Kecamatan",
  "id": 1171010,
  "latitude": "5.55383",
  "longitude": "95.29457",
  "modified": "2024-10-04 23:25:47.081581",
  "nama": "MEURAXA",
  "name": "MEURAXA",
  "regency_id": "1171"
 },
 {
  "alt_name": "Jaya Baru, Banda Aceh City, Aceh, Indonesia",
  "docstatus": 0,
  "doctype": "Kecamatan",
  "id": 1171011,
  "latitude": "5.53551",
  "longitude": "95.29718",
  "modified": "2024-10-04 23:25:47.090296",
  "nama": "JAYA BARU",
  "name": "JAYA BARU",
  "regency_id": "1171"
 },
 {
  "alt_name": "Banda, Central Maluku Regency, Maluku, Indonesia",
  "docstatus": 0,
  "doctype": "Kecamatan",
  "id": 1171012,
  "latitude": "-4.55431",
  "longitude": "129.92989",
  "modified": "2024-10-04 23:25:47.099298",
  "nama": "BANDA RAYA",
  "name": "BANDA RAYA",
  "regency_id": "1171"
 },
 {
  "alt_name": "Baiturrahman, Banda Aceh City, Aceh, Indonesia",
  "docstatus": 0,
  "doctype": "Kecamatan",
  "id": 1171020,
  "latitude": "5.54578",
  "longitude": "95.31809",
  "modified": "2024-10-04 23:25:47.108436",
  "nama": "BAITURRAHMAN",
  "name": "BAITURRAHMAN",
  "regency_id": "1171"
 },
 {
  "alt_name": "Lueng Bata, Banda Aceh City, Aceh, Indonesia",
  "docstatus": 0,
  "doctype": "Kecamatan",
  "id": 1171021,
  "latitude": "5.54041",
  "longitude": "95.33378",
  "modified": "2024-10-04 23:25:47.117869",
  "nama": "LUENG BATA",
  "name": "LUENG BATA",
  "regency_id": "1171"
 },
 {
  "alt_name": "Kuta Alam, Banda Aceh City, Aceh, Indonesia",
  "docstatus": 0,
  "doctype": "Kecamatan",
  "id": 1171030,
  "latitude": "5.56401",
  "longitude": "95.32594",
  "modified": "2024-10-04 23:25:47.126911",
  "nama": "KUTA ALAM",
  "name": "KUTA ALAM",
  "regency_id": "1171"
 },
 {
  "alt_name": "Kutaraja, Maleber, Kuningan Regency, West Java, Indonesia",
  "docstatus": 0,
  "doctype": "Kecamatan",
  "id": 1171031,
  "latitude": "-7.01796",
  "longitude": "108.56264",
  "modified": "2024-10-04 23:25:47.136378",
  "nama": "KUTA RAJA",
  "name": "KUTA RAJA",
  "regency_id": "1171"
 },
 {
  "alt_name": "Syiah Kuala, Banda Aceh City, Aceh, Indonesia",
  "docstatus": 0,
  "doctype": "Kecamatan",
  "id": 1171040,
  "latitude": "5.58475",
  "longitude": "95.34686",
  "modified": "2024-10-04 23:25:47.146830",
  "nama": "SYIAH KUALA",
  "name": "SYIAH KUALA",
  "regency_id": "1171"
 },
 {
  "alt_name": "Ulee Kareng, Banda Aceh City, Aceh, Indonesia",
  "docstatus": 0,
  "doctype": "Kecamatan",
  "id": 1171041,
  "latitude": "5.55073",
  "longitude": "95.34947",
  "modified": "2024-10-04 23:25:47.158359",
  "nama": "ULEE KARENG",
  "name": "ULEE KARENG",
  "regency_id": "1171"
 },
 {
  "alt_name": "East Langsa, Langsa City, Aceh, Indonesia",
  "docstatus": 0,
  "doctype": "Kecamatan",
  "id": 1173010,
  "latitude": "4.4466",
  "longitude": "98.01379",
  "modified": "2024-10-04 23:25:47.187712",
  "nama": "LANGSA TIMUR",
  "name": "LANGSA TIMUR",
  "regency_id": "1173"
 },
 {
  "alt_name": "Langsa Lama, Langsa City, Aceh, Indonesia",
  "docstatus": 0,
  "doctype": "Kecamatan",
  "id": 1173011,
  "latitude": "4.45224",
  "longitude": "97.96474",
  "modified": "2024-10-04 23:25:47.197062",
  "nama": "LANGSA LAMA",
  "name": "LANGSA LAMA",
  "regency_id": "1173"
 },
 {
  "alt_name": "West Langsa, Langsa City, Aceh, Indonesia",
  "docstatus": 0,
  "doctype": "Kecamatan",
  "id": 1173020,
  "latitude": "4.5081",
  "longitude": "97.99199",
  "modified": "2024-10-04 23:25:47.206449",
  "nama": "LANGSA BARAT",
  "name": "LANGSA BARAT",
  "regency_id": "1173"
 },
 {
  "alt_name": "Langsa Baro, Langsa City, Aceh, Indonesia",
  "docstatus": 0,
  "doctype": "Kecamatan",
  "id": 1173021,
  "latitude": "4.48838",
  "longitude": "97.9266",
  "modified": "2024-10-04 23:25:47.216046",
  "nama": "LANGSA BARO",
  "name": "LANGSA BARO",
  "regency_id": "1173"
 },
 {
  "alt_name": "Langsa, Langsa City, Aceh, Indonesia",
  "docstatus": 0,
  "doctype": "Kecamatan",
  "id": 1173030,
  "latitude": "4.47578",
  "longitude": "97.9641",
  "modified": "2024-10-04 23:25:47.225619",
  "nama": "LANGSA KOTA",
  "name": "LANGSA KOTA",
  "regency_id": "1173"
 },
 {
  "alt_name": "Blang Mangat, Lhokseumawe City, Aceh, Indonesia",
  "docstatus": 0,
  "doctype": "Kecamatan",
  "id": 1174010,
  "latitude": "5.11916",
  "longitude": "97.13055",
  "modified": "2024-10-04 23:25:47.235131",
  "nama": "BLANG MANGAT",
  "name": "BLANG MANGAT",
  "regency_id": "1174"
 },
 {
  "alt_name": "Muara Dua, Lhokseumawe City, Aceh, Indonesia",
  "docstatus": 0,
  "doctype": "Kecamatan",
  "id": 1174020,
  "latitude": "5.16057",
  "longitude": "97.13055",
  "modified": "2024-10-04 23:25:47.244645",
  "nama": "MUARA DUA",
  "name": "MUARA DUA",
  "regency_id": "1174"
 },
 {
  "alt_name": "Muara Satu, Lhokseumawe City, Aceh, Indonesia",
  "docstatus": 0,
  "doctype": "Kecamatan",
  "id": 1174021,
  "latitude": "5.19737",
  "longitude": "97.08212",
  "modified": "2024-10-04 23:25:47.254914",
  "nama": "MUARA SATU",
  "name": "MUARA SATU",
  "regency_id": "1174"
 },
 {
  "alt_name": "Banda Sakti, Lhokseumawe City, Aceh, Indonesia",
  "docstatus": 0,
  "doctype": "Kecamatan",
  "id": 1174030,
  "latitude": "5.18116",
  "longitude": "97.14132",
  "modified": "2024-10-04 23:25:47.267911",
  "nama": "BANDA SAKTI",
  "name": "BANDA SAKTI",
  "regency_id": "1174"
 },
 {
  "alt_name": "Simpang Kiri, Subulussalam City, Aceh, Indonesia",
  "docstatus": 0,
  "doctype": "Kecamatan",
  "id": 1175010,
  "latitude": "2.68221",
  "longitude": "97.97018",
  "modified": "2024-10-04 23:25:47.276539",
  "nama": "SIMPANG KIRI",
  "name": "SIMPANG KIRI",
  "regency_id": "1175"
 },
 {
  "alt_name": "Penanggalan, Jawa Timur, Indonesia",
  "docstatus": 0,
  "doctype": "Kecamatan",
  "id": 1175020,
  "latitude": "-7.55978",
  "longitude": "112.36237",
  "modified": "2024-10-04 23:25:47.285553",
  "nama": "PENANGGALAN",
  "name": "PENANGGALAN",
  "regency_id": "1175"
 },
 {
  "alt_name": "Rundeng, Subulussalam City, Aceh, Indonesia",
  "docstatus": 0,
  "doctype": "Kecamatan",
  "id": 1175030,
  "latitude": "2.69284",
  "longitude": "97.8504",
  "modified": "2024-10-04 23:25:47.294533",
  "nama": "RUNDENG",
  "name": "RUNDENG",
  "regency_id": "1175"
 },
 {
  "alt_name": "Sultan Daulat, Subulussalam City, Aceh, Indonesia",
  "docstatus": 0,
  "doctype": "Kecamatan",
  "id": 1175040,
  "latitude": "2.79102",
  "longitude": "97.91571",
  "modified": "2024-10-04 23:25:47.304372",
  "nama": "SULTAN DAULAT",
  "name": "SULTAN DAULAT",
  "regency_id": "1175"
 },
 {
  "alt_name": "Longkib, Subulussalam City, Aceh, Indonesia",
  "docstatus": 0,
  "doctype": "Kecamatan",
  "id": 1175050,
  "latitude": "2.56513",
  "longitude": "97.81776",
  "modified": "2024-10-04 23:25:47.313882",
  "nama": "LONGKIB",
  "name": "LONGKIB",
  "regency_id": "1175"
 },
 {
  "alt_name": "Idano Gawo, Nias Regency, North Sumatra, Indonesia",
  "docstatus": 0,
  "doctype": "Kecamatan",
  "id": 1201060,
  "latitude": "1.02994",
  "longitude": "97.7634",
  "modified": "2024-10-04 23:25:47.323176",
  "nama": "IDANO GAWO",
  "name": "IDANO GAWO",
  "regency_id": "1201"
 },
 {
  "alt_name": "Bawolato, Nias Regency, North Sumatra, Indonesia",
  "docstatus": 0,
  "doctype": "Kecamatan",
  "id": 1201061,
  "latitude": "0.95393",
  "longitude": "97.8504",
  "modified": "2024-10-04 23:25:47.332892",
  "nama": "BAWOLATO",
  "name": "BAWOLATO",
  "regency_id": "1201"
 },
 {
  "alt_name": "Ulugawo, Nias Regency, North Sumatra, Indonesia",
  "docstatus": 0,
  "doctype": "Kecamatan",
  "id": 1201062,
  "latitude": "0.98267",
  "longitude": "97.70909",
  "modified": "2024-10-04 23:25:47.342171",
  "nama": "ULUGAWO",
  "name": "ULUGAWO",
  "regency_id": "1201"
 },
 {
  "alt_name": "Gido, Nias Regency, North Sumatra, Indonesia",
  "docstatus": 0,
  "doctype": "Kecamatan",
  "id": 1201070,
  "latitude": "1.13461",
  "longitude": "97.68737",
  "modified": "2024-10-04 23:25:47.351573",
  "nama": "GIDO",
  "name": "GIDO",
  "regency_id": "1201"
 },
 {
  "alt_name": "Sogae'adu, Kabupaten Nias, Sumatera Utara, Indonesia",
  "docstatus": 0,
  "doctype": "Kecamatan",
  "id": 1201071,
  "latitude": "1.09642",
  "longitude": "97.75254",
  "modified": "2024-10-04 23:25:47.367040",
  "nama": "SOGAEADU",
  "name": "SOGAEADU",
  "regency_id": "1201"
 },
 {
  "alt_name": "Gn. Kakumahu, Biloro, Kepala Madan, Kabupaten Buru Selatan, Maluku, Indonesia",
  "docstatus": 0,
  "doctype": "Kecamatan",
  "id": 1201081,
  "latitude": "-3.23444",
  "longitude": "126.07556",
  "modified": "2024-10-04 23:25:47.377494",
  "nama": "MA U",
  "name": "MA U",
  "regency_id": "1201"
 },
 {
  "alt_name": "Somolo - Molo, Nias Regency, North Sumatra, Indonesia",
  "docstatus": 0,
  "doctype": "Kecamatan",
  "id": 1201082,
  "latitude": "1.02069",
  "longitude": "97.66566",
  "modified": "2024-10-04 23:25:47.385774",
  "nama": "SOMOLO - MOLO",
  "name": "SOMOLO - MOLO",
  "regency_id": "1201"
 },
 {
  "alt_name": "Hiliduho, Nias Regency, North Sumatra, Indonesia",
  "docstatus": 0,
  "doctype": "Kecamatan",
  "id": 1201130,
  "latitude": "1.24934",
  "longitude": "97.53556",
  "modified": "2024-10-04 23:25:47.394614",
  "nama": "HILIDUHO",
  "name": "HILIDUHO",
  "regency_id": "1201"
 },
 {
  "alt_name": "Hili Serangkai, Nias Regency, North Sumatra, Indonesia",
  "docstatus": 0,
  "doctype": "Kecamatan",
  "id": 1201131,
  "latitude": "1.17766",
  "longitude": "97.606",
  "modified": "2024-10-04 23:25:47.403399",
  "nama": "HILI SERANGKAI",
  "name": "HILI SERANGKAI",
  "regency_id": "1201"
 },
 {
  "alt_name": "Botomuzoi, Nias Regency, North Sumatra, Indonesia",
  "docstatus": 0,
  "doctype": "Kecamatan",
  "id": 1201132,
  "latitude": "1.17309",
  "longitude": "97.53556",
  "modified": "2024-10-04 23:25:47.412463",
  "nama": "BOTOMUZOI",
  "name": "BOTOMUZOI",
  "regency_id": "1201"
 },
 {
  "alt_name": "Batahan, Sari Kenanga, Batahan, Kabupaten Mandailing Natal, Sumatera Utara, Indonesia",
  "docstatus": 0,
  "doctype": "Kecamatan",
  "id": 1202010,
  "latitude": "0.396",
  "longitude": "99.14162",
  "modified": "2024-10-04 23:25:47.421469",
  "nama": "BATAHAN",
  "name": "BATAHAN",
  "regency_id": "1202"
 },
 {
  "alt_name": "Sinunukan, Mandailing Natal Regency, North Sumatra, Indonesia",
  "docstatus": 0,
  "doctype": "Kecamatan",
  "id": 1202011,
  "latitude": "0.46306",
  "longitude": "99.21206",
  "modified": "2024-10-04 23:25:47.430860",
  "nama": "SINUNUKAN",
  "name": "SINUNUKAN",
  "regency_id": "1202"
 },
 {
  "alt_name": "Batang Natal, Mandailing Natal Regency, North Sumatra, Indonesia",
  "docstatus": 0,
  "doctype": "Kecamatan",
  "id": 1202020,
  "latitude": "0.70565",
  "longitude": "99.41172",
  "modified": "2024-10-04 23:25:47.442891",
  "nama": "BATANG NATAL",
  "name": "BATANG NATAL",
  "regency_id": "1202"
 },
 {
  "alt_name": "Lingga Bayu, Mandailing Natal Regency, North Sumatra, Indonesia",
  "docstatus": 0,
  "doctype": "Kecamatan",
  "id": 1202021,
  "latitude": "0.61234",
  "longitude": "99.25639",
  "modified": "2024-10-04 23:25:47.452248",
  "nama": "LINGGA BAYU",
  "name": "LINGGA BAYU",
  "regency_id": "1202"
 },
 {
  "alt_name": "Ranto Baek, Mandailing Natal Regency, North Sumatra, Indonesia",
  "docstatus": 0,
  "doctype": "Kecamatan",
  "id": 1202022,
  "latitude": "0.53739",
  "longitude": "99.38951",
  "modified": "2024-10-04 23:25:47.461827",
  "nama": "RANTO BAEK",
  "name": "RANTO BAEK",
  "regency_id": "1202"
 },
 {
  "alt_name": "Kotanopan, Mandailing Natal Regency, North Sumatra, Indonesia",
  "docstatus": 0,
  "doctype": "Kecamatan",
  "id": 1202030,
  "latitude": "0.64883",
  "longitude": "99.74556",
  "modified": "2024-10-04 23:25:47.477944",
  "nama": "KOTANOPAN",
  "name": "KOTANOPAN",
  "regency_id": "1202"
 },
 {
  "alt_name": "Ulu Pungkut, Mandailing Natal Regency, North Sumatra, Indonesia",
  "docstatus": 0,
  "doctype": "Kecamatan",
  "id": 1202031,
  "latitude": "0.55544",
  "longitude": "99.76787",
  "modified": "2024-10-04 23:25:47.485185",
  "nama": "ULU PUNGKUT",
  "name": "ULU PUNGKUT",
  "regency_id": "1202"
 },
 {
  "alt_name": "Tambangan, Tambang Rambang, Rambang Kuang, Kabupaten Ogan Ilir, Sumatera Selatan, Indonesia",
  "docstatus": 0,
  "doctype": "Kecamatan",
  "id": 1202032,
  "latitude": "-3.54429",
  "longitude": "104.4683",
  "modified": "2024-10-04 23:25:47.493379",
  "nama": "TAMBANGAN",
  "name": "TAMBANGAN",
  "regency_id": "1202"
 },
 {
  "alt_name": "Lembah Sorik Marapi, Mandailing Natal Regency, North Sumatra, Indonesia",
  "docstatus": 0,
  "doctype": "Kecamatan",
  "id": 1202033,
  "latitude": "0.73336",
  "longitude": "99.60073",
  "modified": "2024-10-04 23:25:47.502205",
  "nama": "LEMBAH SORIK MARAPI",
  "name": "LEMBAH SORIK MARAPI",
  "regency_id": "1202"
 },
 {
  "alt_name": "Puncak Sorik Marapi, Mandailing Natal Regency, North Sumatra, Indonesia",
  "docstatus": 0,
  "doctype": "Kecamatan",
  "id": 1202034,
  "latitude": "0.67722",
  "longitude": "99.57848",
  "modified": "2024-10-04 23:25:47.511141",
  "nama": "PUNCAK SORIK MARAPI",
  "name": "PUNCAK SORIK MARAPI",
  "regency_id": "1202"
 },
 {
  "alt_name": "Muara Sipongi, Mandailing Natal Regency, North Sumatra, Indonesia",
  "docstatus": 0,
  "doctype": "Kecamatan",
  "id": 1202040,
  "latitude": "0.61122",
  "longitude": "99.87947",
  "modified": "2024-10-04 23:25:47.520242",
  "nama": "MUARA SIPONGI",
  "name": "MUARA SIPONGI",
  "regency_id": "1202"
 },
 {
  "alt_name": "Pakantan, Mandailing Natal Regency, North Sumatra, Indonesia",
  "docstatus": 0,
  "doctype": "Kecamatan",
  "id": 1202041,
  "latitude": "0.52728",
  "longitude": "99.89064",
  "modified": "2024-10-04 23:25:47.529290",
  "nama": "PAKANTAN",
  "name": "PAKANTAN",
  "regency_id": "1202"
 },
 {
  "alt_name": "Panyabungan, Mandailing Natal Regency, North Sumatra, Indonesia",
  "docstatus": 0,
  "doctype": "Kecamatan",
  "id": 1202050,
  "latitude": "0.87414",
  "longitude": "99.61187",
  "modified": "2024-10-04 23:25:47.538620",
  "nama": "PANYABUNGAN",
  "name": "PANYABUNGAN",
  "regency_id": "1202"
 },
 {
  "alt_name": "South Panyabungan, Mandailing Natal Regency, North Sumatra, Indonesia",
  "docstatus": 0,
  "doctype": "Kecamatan",
  "id": 1202051,
  "latitude": "0.75225",
  "longitude": "99.53397",
  "modified": "2024-10-04 23:25:47.548094",
  "nama": "PANYABUNGAN SELATAN",
  "name": "PANYABUNGAN SELATAN",
  "regency_id": "1202"
 },
 {
  "alt_name": "West Panyabungan, Mandailing Natal Regency, North Sumatra, Indonesia",
  "docstatus": 0,
  "doctype": "Kecamatan",
  "id": 1202052,
  "latitude": "0.82745",
  "longitude": "99.4895",
  "modified": "2024-10-04 23:25:47.557429",
  "nama": "PANYABUNGAN BARAT",
  "name": "PANYABUNGAN BARAT",
  "regency_id": "1202"
 },
 {
  "alt_name": "North Panyabungan, Mandailing Natal Regency, North Sumatra, Indonesia",
  "docstatus": 0,
  "doctype": "Kecamatan",
  "id": 1202053,
  "latitude": "0.92139",
  "longitude": "99.53397",
  "modified": "2024-10-04 23:25:47.576695",
  "nama": "PANYABUNGAN UTARA",
  "name": "PANYABUNGAN UTARA",
  "regency_id": "1202"
 },
 {
  "alt_name": "East Panyabungan, Mandailing Natal Regency, North Sumatra, Indonesia",
  "docstatus": 0,
  "doctype": "Kecamatan",
  "id": 1202054,
  "latitude": "0.77985",
  "longitude": "99.76787",
  "modified": "2024-10-04 23:25:47.587579",
  "nama": "PANYABUNGAN TIMUR",
  "name": "PANYABUNGAN TIMUR",
  "regency_id": "1202"
 },
 {
  "alt_name": "Huta Bargot, Mandailing Natal Regency, North Sumatra, Indonesia",
  "docstatus": 0,
  "doctype": "Kecamatan",
  "id": 1202055,
  "latitude": "0.88398",
  "longitude": "99.44504",
  "modified": "2024-10-04 23:25:47.596233",
  "nama": "HUTA BARGOT",
  "name": "HUTA BARGOT",
  "regency_id": "1202"
 },
 {
  "alt_name": "Natal, Ps. V Natal, Natal, Kabupaten Mandailing Natal, Sumatera Utara, Indonesia",
  "docstatus": 0,
  "doctype": "Kecamatan",
  "id": 1202060,
  "latitude": "0.55598",
  "longitude": "99.11739",
  "modified": "2024-10-04 23:25:47.605402",
  "nama": "NATAL",
  "name": "NATAL",
  "regency_id": "1202"
 },
 {
  "alt_name": "Muara Batang Gadis, Mandailing Natal Regency, North Sumatra, Indonesia",
  "docstatus": 0,
  "doctype": "Kecamatan",
  "id": 1202070,
  "latitude": "0.9697",
  "longitude": "99.10135",
  "modified": "2024-10-04 23:25:47.614770",
  "nama": "MUARA BATANG GADIS",
  "name": "MUARA BATANG GADIS",
  "regency_id": "1202"
 },
 {
  "alt_name": "Siabu, Kabupaten Mandailing Natal, Sumatera Utara, Indonesia",
  "docstatus": 0,
  "doctype": "Kecamatan",
  "id": 1202080,
  "latitude": "1.01608",
  "longitude": "99.49105",
  "modified": "2024-10-04 23:25:47.623831",
  "nama": "SIABU",
  "name": "SIABU",
  "regency_id": "1202"
 },
 {
  "alt_name": "Bukit Malintang, Mandailing Natal Regency, North Sumatra, Indonesia",
  "docstatus": 0,
  "doctype": "Kecamatan",
  "id": 1202081,
  "latitude": "0.97787",
  "longitude": "99.55622",
  "modified": "2024-10-04 23:25:47.632835",
  "nama": "BUKIT MALINTANG",
  "name": "BUKIT MALINTANG",
  "regency_id": "1202"
 },
 {
  "alt_name": "Naga Juang, Mandailing Natal Regency, North Sumatra, Indonesia",
  "docstatus": 0,
  "doctype": "Kecamatan",
  "id": 1202082,
  "latitude": "0.94048",
  "longitude": "99.44504",
  "modified": "2024-10-04 23:25:47.642244",
  "nama": "NAGA JUANG",
  "name": "NAGA JUANG",
  "regency_id": "1202"
 },
 {
  "alt_name": "Batang Angkola, South Tapanuli Regency, North Sumatra, Indonesia",
  "docstatus": 0,
  "doctype": "Kecamatan",
  "id": 1203010,
  "latitude": "1.21533",
  "longitude": "99.25639",
  "modified": "2024-10-04 23:25:47.652005",
  "nama": "BATANG ANGKOLA",
  "name": "BATANG ANGKOLA",
  "regency_id": "1203"
 },
 {
  "alt_name": "Sayur Matinggi, South Tapanuli Regency, North Sumatra, Indonesia",
  "docstatus": 0,
  "doctype": "Kecamatan",
  "id": 1203011,
  "latitude": "1.13932",
  "longitude": "99.30074",
  "modified": "2024-10-04 23:25:47.661309",
  "nama": "SAYUR MATINGGI",
  "name": "SAYUR MATINGGI",
  "regency_id": "1203"
 },
 {
  "alt_name": "TANO TOMBANGAN ANGKOLA",
  "docstatus": 0,
  "doctype": "Kecamatan",
  "id": 1203012,
  "latitude": null,
  "longitude": null,
  "modified": "2024-10-04 23:25:47.679156",
  "nama": "TANO TOMBANGAN ANGKOLA",
  "name": "TANO TOMBANGAN ANGKOLA",
  "regency_id": "1203"
 },
 {
  "alt_name": "East Angkola, South Tapanuli Regency, North Sumatra, Indonesia",
  "docstatus": 0,
  "doctype": "Kecamatan",
  "id": 1203070,
  "latitude": "1.48158",
  "longitude": "99.34511",
  "modified": "2024-10-04 23:25:47.690911",
  "nama": "ANGKOLA TIMUR",
  "name": "ANGKOLA TIMUR",
  "regency_id": "1203"
 },
 {
  "alt_name": "South Angkola, South Tapanuli Regency, North Sumatra, Indonesia",
  "docstatus": 0,
  "doctype": "Kecamatan",
  "id": 1203080,
  "latitude": "1.32973",
  "longitude": "99.16776",
  "modified": "2024-10-04 23:25:47.700012",
  "nama": "ANGKOLA SELATAN",
  "name": "ANGKOLA SELATAN",
  "regency_id": "1203"
 },
 {
  "alt_name": "West Angkola, South Tapanuli Regency, North Sumatra, Indonesia",
  "docstatus": 0,
  "doctype": "Kecamatan",
  "id": 1203090,
  "latitude": "1.40613",
  "longitude": "99.12348",
  "modified": "2024-10-04 23:25:47.709590",
  "nama": "ANGKOLA  BARAT",
  "name": "ANGKOLA  BARAT",
  "regency_id": "1203"
 },
 {
  "alt_name": "Angkola Sangkunur, South Tapanuli Regency, North Sumatra, Indonesia",
  "docstatus": 0,
  "doctype": "Kecamatan",
  "id": 1203091,
  "latitude": "1.36833",
  "longitude": "99.035",
  "modified": "2024-10-04 23:25:47.718928",
  "nama": "ANGKOLA SANGKUNUR",
  "name": "ANGKOLA SANGKUNUR",
  "regency_id": "1203"
 },
 {
  "alt_name": "Batang Toru, South Tapanuli Regency, North Sumatra, Indonesia",
  "docstatus": 0,
  "doctype": "Kecamatan",
  "id": 1203100,
  "latitude": "1.55923",
  "longitude": "99.07923",
  "modified": "2024-10-04 23:25:47.728170",
  "nama": "BATANG TORU",
  "name": "BATANG TORU",
  "regency_id": "1203"
 },
 {
  "alt_name": "Marancar, Marancar Julu, Marancar, Kabupaten Tapanuli Selatan, Sumatera Utara, Indonesia",
  "docstatus": 0,
  "doctype": "Kecamatan",
  "id": 1203101,
  "latitude": "1.51667",
  "longitude": "99.16667",
  "modified": "2024-10-04 23:25:47.737462",
  "nama": "MARANCAR",
  "name": "MARANCAR",
  "regency_id": "1203"
 },
 {
  "alt_name": "Muara Batang Toru, South Tapanuli Regency, North Sumatra, Indonesia",
  "docstatus": 0,
  "doctype": "Kecamatan",
  "id": 1203102,
  "latitude": "1.36883",
  "longitude": "98.90246",
  "modified": "2024-10-04 23:25:47.746928",
  "nama": "MUARA BATANG TORU",
  "name": "MUARA BATANG TORU",
  "regency_id": "1203"
 },
 {
  "alt_name": "Sipirok, Silangge, Sipirok, Kabupaten Tapanuli Selatan, Sumatera Utara, Indonesia",
  "docstatus": 0,
  "doctype": "Kecamatan",
  "id": 1203110,
  "latitude": "1.61271",
  "longitude": "99.26152",
  "modified": "2024-10-04 23:25:47.756816",
  "nama": "SIPIROK",
  "name": "SIPIROK",
  "regency_id": "1203"
 },
 {
  "alt_name": "Arse, South Tapanuli Regency, North Sumatra, Indonesia",
  "docstatus": 0,
  "doctype": "Kecamatan",
  "id": 1203120,
  "latitude": "1.71141",
  "longitude": "99.34511",
  "modified": "2024-10-04 23:25:47.765917",
  "nama": "ARSE",
  "name": "ARSE",
  "regency_id": "1203"
 },
 {
  "alt_name": "Saipar Dolok Hole, South Tapanuli Regency, North Sumatra, Indonesia",
  "docstatus": 0,
  "doctype": "Kecamatan",
  "id": 1203160,
  "latitude": "1.84569",
  "longitude": "99.41172",
  "modified": "2024-10-04 23:25:47.788596",
  "nama": "SAIPAR DOLOK HOLE",
  "name": "SAIPAR DOLOK HOLE",
  "regency_id": "1203"
 },
 {
  "alt_name": "Aek Bilah, South Tapanuli Regency, North Sumatra, Indonesia",
  "docstatus": 0,
  "doctype": "Kecamatan",
  "id": 1203161,
  "latitude": "1.98009",
  "longitude": "99.52285",
  "modified": "2024-10-04 23:25:47.798073",
  "nama": "AEK BILAH",
  "name": "AEK BILAH",
  "regency_id": "1203"
 },
 {
  "alt_name": "Pinang sori, Central Tapanuli Regency, North Sumatra, Indonesia",
  "docstatus": 0,
  "doctype": "Kecamatan",
  "id": 1204010,
  "latitude": "1.5314",
  "longitude": "98.86936",
  "modified": "2024-10-04 23:25:47.806860",
  "nama": "PINANG SORI",
  "name": "PINANG SORI",
  "regency_id": "1204"
 },
 {
  "alt_name": "Badiri, Central Tapanuli Regency, North Sumatra, Indonesia",
  "docstatus": 0,
  "doctype": "Kecamatan",
  "id": 1204011,
  "latitude": "1.59851",
  "longitude": "98.85833",
  "modified": "2024-10-04 23:25:47.816081",
  "nama": "BADIRI",
  "name": "BADIRI",
  "regency_id": "1204"
 },
 {
  "alt_name": "Sibabangun, Central Tapanuli Regency, North Sumatra, Indonesia",
  "docstatus": 0,
  "doctype": "Kecamatan",
  "id": 1204020,
  "latitude": "1.5883",
  "longitude": "99.00184",
  "modified": "2024-10-04 23:25:47.825441",
  "nama": "SIBABANGUN",
  "name": "SIBABANGUN",
  "regency_id": "1204"
 },
 {
  "alt_name": "Lumut, Pengkadan Sungai Rupa, Dedai, Kabupaten Sintang, Kalimantan Barat, Indonesia",
  "docstatus": 0,
  "doctype": "Kecamatan",
  "id": 1204021,
  "latitude": "-0.06627",
  "longitude": "111.7648",
  "modified": "2024-10-04 23:25:47.835416",
  "nama": "LUMUT",
  "name": "LUMUT",
  "regency_id": "1204"
 },
 {
  "alt_name": "Sukabangun, Central Tapanuli Regency, North Sumatra, Indonesia",
  "docstatus": 0,
  "doctype": "Kecamatan",
  "id": 1204022,
  "latitude": "1.45941",
  "longitude": "98.93005",
  "modified": "2024-10-04 23:25:47.844072",
  "nama": "SUKABANGUN",
  "name": "SUKABANGUN",
  "regency_id": "1204"
 },
 {
  "alt_name": "Pandan, Penahan, Arut Utara, Kabupaten Kotawaringin Barat, Kalimantan Tengah, Indonesia",
  "docstatus": 0,
  "doctype": "Kecamatan",
  "id": 1204030,
  "latitude": "-1.86667",
  "longitude": "111.86667",
  "modified": "2024-10-04 23:25:47.852616",
  "nama": "PANDAN",
  "name": "PANDAN",
  "regency_id": "1204"
 },
 {
  "alt_name": "Tukka, Central Tapanuli Regency, North Sumatra, Indonesia",
  "docstatus": 0,
  "doctype": "Kecamatan",
  "id": 1204031,
  "latitude": "1.71333",
  "longitude": "98.94661",
  "modified": "2024-10-04 23:25:47.862208",
  "nama": "TUKKA",
  "name": "TUKKA",
  "regency_id": "1204"
 },