[
    {
        "id": "1101010",
        "regency_id": "1101",
        "name": "TEUPAH SELATAN",
        "alt_name": "South Teupah, Simeulue Regency, Aceh, Indonesia",
        "latitude": 2.38603,
        "longitude": 96.42904,
        "nama": "TEUPAH SELATAN"
    },
    {
        "id": "1101020",
        "regency_id": "1101",
        "name": "SIMEULUE TIMUR",
        "alt_name": "East Simeulue, Simeulue Regency, Aceh, Indonesia",
        "latitude": 2.51438,
        "longitude": 96.31197,
        "nama": "SIMEULUE TIMUR"
    },
    {
        "id": "1101021",
        "regency_id": "1101",
        "name": "TEUPAH BARAT",
        "alt_name": "West Teupah, Simeulue Regency, Aceh, Indonesia",
        "latitude": 2.505,
        "longitude": 96.21636,
        "nama": "TEUPAH BARAT"
    },
    {
        "id": "1101022",
        "regency_id": "1101",
        "name": "TEUPAH TENGAH",
        "alt_name": "Teupah Tengah, Kabupaten Simeulue, Aceh, Indonesia",
        "latitude": 2.41594,
        "longitude": 96.33324,
        "nama": "TEUPAH TENGAH"
    },
    {
        "id": "1101030",
        "regency_id": "1101",
        "name": "SIMEULUE TENGAH",
        "alt_name": "Central Simeulue Sub-District, Simeulue Regency, Aceh, Indonesia",
        "latitude": 2.62412,
        "longitude": 96.04674,
        "nama": "SIMEULUE TENGAH"
    },
    {
        "id": "1101031",
        "regency_id": "1101",
        "name": "TELUK DALAM",
        "alt_name": "Teluk Dalam, South Nias Regency, North Sumatra, Indonesia",
        "latitude": 0.60523,
        "longitude": 97.83952,
        "nama": "TELUK DALAM"
    },
    {
        "id": "1101032",
        "regency_id": "1101",
        "name": "SIMEULUE CUT",
        "alt_name": "Simeulue Cut, Kabupaten Simeulue, Aceh, Indonesia",
        "latitude": 2.59997,
        "longitude": 95.93569,
        "nama": "SIMEULUE CUT"
    },
    {
        "id": "1101040",
        "regency_id": "1101",
        "name": "SALANG",
        "alt_name": "Salang, Simeulue Regency, Aceh, Indonesia",
        "latitude": 2.66445,
        "longitude": 95.8776,
        "nama": "SALANG"
    },
    {
        "id": "1101050",
        "regency_id": "1101",
        "name": "SIMEULUE BARAT",
        "alt_name": "West Simeulue, Simeulue Regency, Aceh, Indonesia",
        "latitude": 2.783,
        "longitude": 95.91984,
        "nama": "SIMEULUE BARAT"
    },
    {
        "id": "1101051",
        "regency_id": "1101",
        "name": "ALAFAN",
        "alt_name": "Alafan, Simeulue Regency, Aceh, Indonesia",
        "latitude": 2.78384,
        "longitude": 95.75105,
        "nama": "ALAFAN"
    },
    {
        "id": "1102010",
        "regency_id": "1102",
        "name": "PULAU BANYAK",
        "alt_name": "Banyak Island, Aceh Singkil Regency, Aceh, Indonesia",
        "latitude": 2.31989,
        "longitude": 97.4138,
        "nama": "PULAU BANYAK"
    },
    {
        "id": "1102011",
        "regency_id": "1102",
        "name": "PULAU BANYAK BARAT",
        "alt_name": "West Banyak Island, Aceh Singkil Regency, Aceh, Indonesia",
        "latitude": 2.14721,
        "longitude": 97.28687,
        "nama": "PULAU BANYAK BARAT"
    },
    {
        "id": "1102020",
        "regency_id": "1102",
        "name": "SINGKIL",
        "alt_name": "Singkil, Aceh Singkil Regency, Aceh, Indonesia",
        "latitude": 2.28361,
        "longitude": 97.79873,
        "nama": "SINGKIL"
    },
    {
        "id": "1102021",
        "regency_id": "1102",
        "name": "SINGKIL UTARA",
        "alt_name": "North Singkil, Aceh Singkil Regency, Aceh, Indonesia",
        "latitude": 2.29969,
        "longitude": 97.98108,
        "nama": "SINGKIL UTARA"
    },
    {
        "id": "1102022",
        "regency_id": "1102",
        "name": "KUALA BARU",
        "alt_name": "Kuala Baru, Aceh Singkil Regency, Aceh, Indonesia",
        "latitude": 2.3891,
        "longitude": 97.73081,
        "nama": "KUALA BARU"
    },
    {
        "id": "1102030",
        "regency_id": "1102",
        "name": "SIMPANG KANAN",
        "alt_name": "Simpang Kanan, Rokan Hilir Regency, Riau, Indonesia",
        "latitude": 1.85952,
        "longitude": 100.37225,
        "nama": "SIMPANG KANAN"
    },
    {
        "id": "1102031",
        "regency_id": "1102",
        "name": "GUNUNG MERIAH",
        "alt_name": "Gunung Meriah, Deli Serdang Regency, North Sumatra, Indonesia",
        "latitude": 3.12177,
        "longitude": 98.68206,
        "nama": "GUNUNG MERIAH"
    },
    {
        "id": "1102032",
        "regency_id": "1102",
        "name": "DANAU PARIS",
        "alt_name": "Danau Paris, Aceh Singkil Regency, Aceh, Indonesia",
        "latitude": 2.29895,
        "longitude": 98.11201,
        "nama": "DANAU PARIS"
    },
    {
        "id": "1102033",
        "regency_id": "1102",
        "name": "SURO",
        "alt_name": "Suro, Kalibagor, Banyumas Regency, Central Java, Indonesia",
        "latitude": -7.49036,
        "longitude": 109.32479,
        "nama": "SURO"
    },
    {
        "id": "1102042",
        "regency_id": "1102",
        "name": "SINGKOHOR",
        "alt_name": "Singkohor, Aceh Singkil Regency, Aceh, Indonesia",
        "latitude": 2.53493,
        "longitude": 97.93749,
        "nama": "SINGKOHOR"
    },
    {
        "id": "1102043",
        "regency_id": "1102",
        "name": "KOTA BAHARU",
        "alt_name": "Banjarbaru City, South Kalimantan, Indonesia",
        "latitude": -3.4667,
        "longitude": 114.74907,
        "nama": "KOTA BAHARU"
    },
    {
        "id": "1103010",
        "regency_id": "1103",
        "name": "TRUMON",
        "alt_name": "Trumon, South Aceh Regency, Aceh, Indonesia",
        "latitude": 2.63444,
        "longitude": 97.74167,
        "nama": "TRUMON"
    },
    {
        "id": "1103011",
        "regency_id": "1103",
        "name": "TRUMON TIMUR",
        "alt_name": "East Trumon, South Aceh Regency, Aceh, Indonesia",
        "latitude": 2.8906,
        "longitude": 97.80689,
        "nama": "TRUMON TIMUR"
    },
    {
        "id": "1103012",
        "regency_id": "1103",
        "name": "TRUMON TENGAH",
        "alt_name": "Central Trumon, South Aceh Regency, Aceh, Indonesia",
        "latitude": 2.90147,
        "longitude": 97.66566,
        "nama": "TRUMON TENGAH"
    },
    {
        "id": "1103020",
        "regency_id": "1103",
        "name": "BAKONGAN",
        "alt_name": "Bakongan, South Aceh Regency, Aceh, Indonesia",
        "latitude": 2.96224,
        "longitude": 97.47059,
        "nama": "BAKONGAN"
    },
    {
        "id": "1103021",
        "regency_id": "1103",
        "name": "BAKONGAN TIMUR",
        "alt_name": "East Bakongan, South Aceh Regency, Aceh, Indonesia",
        "latitude": 2.90205,
        "longitude": 97.5789,
        "nama": "BAKONGAN TIMUR"
    },
    {
        "id": "1103022",
        "regency_id": "1103",
        "name": "KOTA BAHAGIA",
        "alt_name": "Bahagia City, South Aceh Regency, Aceh, Indonesia",
        "latitude": 3.01133,
        "longitude": 97.54639,
        "nama": "KOTA BAHAGIA"
    },
    {
        "id": "1103030",
        "regency_id": "1103",
        "name": "KLUET SELATAN",
        "alt_name": "South Kluet, South Aceh Regency, Aceh, Indonesia",
        "latitude": 3.05166,
        "longitude": 97.45977,
        "nama": "KLUET SELATAN"
    },
    {
        "id": "1103031",
        "regency_id": "1103",
        "name": "KLUET TIMUR",
        "alt_name": "East Kluet, South Aceh Regency, Aceh, Indonesia",
        "latitude": 3.17104,
        "longitude": 97.45977,
        "nama": "KLUET TIMUR"
    },
    {
        "id": "1103040",
        "regency_id": "1103",
        "name": "KLUET UTARA",
        "alt_name": "North Kluet, South Aceh Regency, Aceh, Indonesia",
        "latitude": 3.1221,
        "longitude": 97.34085,
        "nama": "KLUET UTARA"
    },
    {
        "id": "1103041",
        "regency_id": "1103",
        "name": "PASIE RAJA",
        "alt_name": "Pasie Raja, South Aceh Regency, Aceh, Indonesia",
        "latitude": 3.2021,
        "longitude": 97.29766,
        "nama": "PASIE RAJA"
    },
    {
        "id": "1103042",
        "regency_id": "1103",
        "name": "KLUET TENGAH",
        "alt_name": "Central Kluet, South Aceh Regency, Aceh, Indonesia",
        "latitude": 3.43189,
        "longitude": 97.30846,
        "nama": "KLUET TENGAH"
    },
    {
        "id": "1103050",
        "regency_id": "1103",
        "name": "TAPAK TUAN",
        "alt_name": "Tapak Tuan, South Aceh Regency, Aceh, Indonesia",
        "latitude": 3.26156,
        "longitude": 97.18037,
        "nama": "TAPAK TUAN"
    },
    {
        "id": "1103060",
        "regency_id": "1103",
        "name": "SAMA DUA",
        "alt_name": "Sama Dua, South Aceh Regency, Aceh, Indonesia",
        "latitude": 3.34269,
        "longitude": 97.1898,
        "nama": "SAMA DUA"
    },
    {
        "id": "1103070",
        "regency_id": "1103",
        "name": "SAWANG",
        "alt_name": "Sawang, North Aceh Regency, Aceh, Indonesia",
        "latitude": 5.04409,
        "longitude": 96.89945,
        "nama": "SAWANG"
    },
    {
        "id": "1103080",
        "regency_id": "1103",
        "name": "MEUKEK",
        "alt_name": "Meukek, South Aceh Regency, Aceh, Indonesia",
        "latitude": 3.59312,
        "longitude": 97.22214,
        "nama": "MEUKEK"
    },
    {
        "id": "1103090",
        "regency_id": "1103",
        "name": "LABUHAN HAJI",
        "alt_name": "Labuhan Haji, East Lombok Regency, West Nusa Tenggara, Indonesia",
        "latitude": -8.64725,
        "longitude": 116.57868,
        "nama": "LABUHAN HAJI"
    },
    {
        "id": "1103091",
        "regency_id": "1103",
        "name": "LABUHAN HAJI TIMUR",
        "alt_name": "East Labuhan Haji, South Aceh Regency, Aceh, Indonesia",
        "latitude": 3.60394,
        "longitude": 97.12517,
        "nama": "LABUHAN HAJI TIMUR"
    },
    {
        "id": "1103092",
        "regency_id": "1103",
        "name": "LABUHAN HAJI BARAT",
        "alt_name": "West Labuhan Haji, South Aceh Regency, Aceh, Indonesia",
        "latitude": 3.58499,
        "longitude": 96.9746,
        "nama": "LABUHAN HAJI BARAT"
    },
    {
        "id": "1104010",
        "regency_id": "1104",
        "name": "LAWE ALAS",
        "alt_name": "Lawe Alas, Aceh Tenggara Regency, Aceh, Indonesia",
        "latitude": 3.43786,
        "longitude": 97.81776,
        "nama": "LAWE ALAS"
    },
    {
        "id": "1104011",
        "regency_id": "1104",
        "name": "BABUL RAHMAH",
        "alt_name": "BABUL RAHMAH",
        "latitude": null,
        "longitude": null,
        "nama": "BABUL RAHMAH"
    },
    {
        "id": "1104012",
        "regency_id": "1104",
        "name": "TANOH ALAS",
        "alt_name": "Tanoh Alas, Aceh Tenggara Regency, Aceh, Indonesia",
        "latitude": 3.26928,
        "longitude": 97.65481,
        "nama": "TANOH ALAS"
    },
    {
        "id": "1104020",
        "regency_id": "1104",
        "name": "LAWE SIGALA-GALA",
        "alt_name": "Lawe Sigala-Gala, Aceh Tenggara Regency, Aceh, Indonesia",
        "latitude": 3.35698,
        "longitude": 97.9266,
        "nama": "LAWE SIGALA-GALA"
    },
    {
        "id": "1104021",
        "regency_id": "1104",
        "name": "BABUL MAKMUR",
        "alt_name": "Babul Makmur, Aceh Tenggara Regency, Aceh, Indonesia",
        "latitude": 3.31651,
        "longitude": 97.99199,
        "nama": "BABUL MAKMUR"
    },
    {
        "id": "1104022",
        "regency_id": "1104",
        "name": "SEMADAM",
        "alt_name": "Semadam, Aceh Tenggara Regency, Aceh, Indonesia",
        "latitude": 3.39227,
        "longitude": 97.88849,
        "nama": "SEMADAM"
    },
    {
        "id": "1104023",
        "regency_id": "1104",
        "name": "LAUSER",
        "alt_name": "Lauser, Aceh Tenggara Regency, Aceh, Indonesia",
        "latitude": 3.12769,
        "longitude": 97.93749,
        "nama": "LAUSER"
    },
    {
        "id": "1104030",
        "regency_id": "1104",
        "name": "BAMBEL",
        "alt_name": "Bambel, Aceh Tenggara Regency, Aceh, Indonesia",
        "latitude": 3.45716,
        "longitude": 97.90482,
        "nama": "BAMBEL"
    },
    {
        "id": "1104031",
        "regency_id": "1104",
        "name": "BUKIT TUSAM",
        "alt_name": "Bukit Tusam, Aceh Tenggara Regency, Aceh, Indonesia",
        "latitude": 3.41244,
        "longitude": 97.86672,
        "nama": "BUKIT TUSAM"
    },
    {
        "id": "1104032",
        "regency_id": "1104",
        "name": "LAWE SUMUR",
        "alt_name": "Lawe Sumur, Aceh Tenggara Regency, Aceh, Indonesia",
        "latitude": 3.48232,
        "longitude": 97.88849,
        "nama": "LAWE SUMUR"
    },
    {
        "id": "1104040",
        "regency_id": "1104",
        "name": "BABUSSALAM",
        "alt_name": "Babussalam, Aceh Tenggara Regency, Aceh, Indonesia",
        "latitude": 3.49307,
        "longitude": 97.80145,
        "nama": "BABUSSALAM"
    },
    {
        "id": "1104041",
        "regency_id": "1104",
        "name": "LAWE BULAN",
        "alt_name": "Lawe Bulan, Aceh Tenggara Regency, Aceh, Indonesia",
        "latitude": 3.50254,
        "longitude": 97.86672,
        "nama": "LAWE BULAN"
    },
    {
        "id": "1104050",
        "regency_id": "1104",
        "name": "BADAR",
        "alt_name": "Badar, Aceh Tenggara Regency, Aceh, Indonesia",
        "latitude": 3.57817,
        "longitude": 97.81776,
        "nama": "BADAR"
    },
    {
        "id": "1104051",
        "regency_id": "1104",
        "name": "DARUL HASANAH",
        "alt_name": "Darul Hasanah, Aceh Tenggara Regency, Aceh, Indonesia",
        "latitude": 3.51003,
        "longitude": 97.56806,
        "nama": "DARUL HASANAH"
    },
    {
        "id": "1104052",
        "regency_id": "1104",
        "name": "KETAMBE",
        "alt_name": "Ketambe, Aceh Tenggara Regency, Aceh, Indonesia",
        "latitude": 3.68955,
        "longitude": 97.71995,
        "nama": "KETAMBE"
    },
    {
        "id": "1104053",
        "regency_id": "1104",
        "name": "DELENG POKHKISEN",
        "alt_name": "Deleng Pokhkisen, Aceh Tenggara Regency, Aceh, Indonesia",
        "latitude": 3.53767,
        "longitude": 97.86128,
        "nama": "DELENG POKHKISEN"
    },
    {
        "id": "1105080",
        "regency_id": "1105",
        "name": "SERBA JADI",
        "alt_name": "Serba Jadi, East Aceh Regency, Aceh, Indonesia",
        "latitude": 4.44155,
        "longitude": 97.52472,
        "nama": "SERBA JADI"
    },
    {
        "id": "1105081",
        "regency_id": "1105",
        "name": "SIMPANG JERNIH",
        "alt_name": "Simpang Jernih, East Aceh Regency, Aceh, Indonesia",
        "latitude": 4.37877,
        "longitude": 97.67652,
        "nama": "SIMPANG JERNIH"
    },
    {
        "id": "1105082",
        "regency_id": "1105",
        "name": "PEUNARON",
        "alt_name": "Peunaron, East Aceh Regency, Aceh, Indonesia",
        "latitude": 4.62454,
        "longitude": 97.63311,
        "nama": "PEUNARON"
    },
    {
        "id": "1105090",
        "regency_id": "1105",
        "name": "BIREM BAYEUN",
        "alt_name": "Birem Bayeun, East Aceh Regency, Aceh, Indonesia",
        "latitude": 4.47923,
        "longitude": 97.82864,
        "nama": "BIREM BAYEUN"
    },
    {
        "id": "1105100",
        "regency_id": "1105",
        "name": "RANTAU SELAMAT",
        "alt_name": "Rantau Selamat, East Aceh Regency, Aceh, Indonesia",
        "latitude": 4.62312,
        "longitude": 97.7634,
        "nama": "RANTAU SELAMAT"
    },
    {
        "id": "1105101",
        "regency_id": "1105",
        "name": "SUNGAI RAYA",
        "alt_name": "Raya River, Kubu Raya Regency, West Kalimantan, Indonesia",
        "latitude": -0.2468,
        "longitude": 109.61632,
        "nama": "SUNGAI RAYA"
    },
    {
        "id": "1105110",
        "regency_id": "1105",
        "name": "PEUREULAK",
        "alt_name": "Peureulak, Keude Peureulak, Peureulak, Kabupaten Aceh Timur, Aceh, Indonesia",
        "latitude": 4.80929,
        "longitude": 97.8923,
        "nama": "PEUREULAK"
    },
    {
        "id": "1105111",
        "regency_id": "1105",
        "name": "PEUREULAK TIMUR",
        "alt_name": "East Peureulak, East Aceh Regency, Aceh, Indonesia",
        "latitude": 4.71404,
        "longitude": 97.88304,
        "nama": "PEUREULAK TIMUR"
    },
    {
        "id": "1105112",
        "regency_id": "1105",
        "name": "PEUREULAK BARAT",
        "alt_name": "West Peureulak, East Aceh Regency, Aceh, Indonesia",
        "latitude": 4.85808,
        "longitude": 97.86128,
        "nama": "PEUREULAK BARAT"
    },
    {
        "id": "1105120",
        "regency_id": "1105",
        "name": "RANTO PEUREULAK",
        "alt_name": "RANTO PEUREULAK",
        "latitude": null,
        "longitude": null,
        "nama": "RANTO PEUREULAK"
    },
    {
        "id": "1105130",
        "regency_id": "1105",
        "name": "IDI RAYEUK",
        "alt_name": "Idi Rayeuk, East Aceh Regency, Aceh, Indonesia",
        "latitude": 4.9623,
        "longitude": 97.75254,
        "nama": "IDI RAYEUK"
    },
    {
        "id": "1105131",
        "regency_id": "1105",
        "name": "PEUDAWA",
        "alt_name": "Peudawa, East Aceh Regency, Aceh, Indonesia",
        "latitude": 4.87916,
        "longitude": 97.81776,
        "nama": "PEUDAWA"
    },
    {
        "id": "1105132",
        "regency_id": "1105",
        "name": "BANDA ALAM",
        "alt_name": "Banda Alam, East Aceh Regency, Aceh, Indonesia",
        "latitude": 4.86008,
        "longitude": 97.68737,
        "nama": "BANDA ALAM"
    },
    {
        "id": "1105133",
        "regency_id": "1105",
        "name": "IDI TUNONG",
        "alt_name": "Idi Tunong, East Aceh Regency, Aceh, Indonesia",
        "latitude": 4.91626,
        "longitude": 97.72538,
        "nama": "IDI TUNONG"
    },
    {
        "id": "1105134",
        "regency_id": "1105",
        "name": "DARUL IHSAN",
        "alt_name": "Darul Ihsan, East Aceh Regency, Aceh, Indonesia",
        "latitude": 4.90558,
        "longitude": 97.75797,
        "nama": "DARUL IHSAN"
    },
    {
        "id": "1105135",
        "regency_id": "1105",
        "name": "IDI TIMUR",
        "alt_name": "East Idi, East Aceh Regency, Aceh, Indonesia",
        "latitude": 4.9155,
        "longitude": 97.79058,
        "nama": "IDI TIMUR"
    },
    {
        "id": "1105140",
        "regency_id": "1105",
        "name": "DARUL AMAN",
        "alt_name": "Darul Aman, East Aceh Regency, Aceh, Indonesia",
        "latitude": 4.96281,
        "longitude": 97.70909,
        "nama": "DARUL AMAN"
    },
    {
        "id": "1105150",
        "regency_id": "1105",
        "name": "NURUSSALAM",
        "alt_name": "Nurussalam, East Aceh Regency, Aceh, Indonesia",
        "latitude": 4.97884,
        "longitude": 97.66024,
        "nama": "NURUSSALAM"
    },
    {
        "id": "1105151",
        "regency_id": "1105",
        "name": "DARUL FALAH",
        "alt_name": "Darul Falah, East Aceh Regency, Aceh, Indonesia",
        "latitude": 5.01004,
        "longitude": 97.63854,
        "nama": "DARUL FALAH"
    },
    {
        "id": "1105160",
        "regency_id": "1105",
        "name": "JULOK",
        "alt_name": "Julok, East Aceh Regency, Aceh, Indonesia",
        "latitude": 5.03641,
        "longitude": 97.58974,
        "nama": "JULOK"
    },
    {
        "id": "1105161",
        "regency_id": "1105",
        "name": "INDRA MAKMUR",
        "alt_name": "Indra Makmur, East Aceh Regency, Aceh, Indonesia",
        "latitude": 4.87148,
        "longitude": 97.58974,
        "nama": "INDRA MAKMUR"
    },
    {
        "id": "1105170",
        "regency_id": "1105",
        "name": "PANTE BIDARI",
        "alt_name": "Pante Bidari, East Aceh Regency, Aceh, Indonesia",
        "latitude": 4.80675,
        "longitude": 97.48981,
        "nama": "PANTE BIDARI"
    },
    {
        "id": "1105180",
        "regency_id": "1105",
        "name": "SIMPANG ULIM",
        "alt_name": "Simpang Ulim, East Aceh Regency, Aceh, Indonesia",
        "latitude": 5.10885,
        "longitude": 97.5789,
        "nama": "SIMPANG ULIM"
    },
    {
        "id": "1105181",
        "regency_id": "1105",
        "name": "MADAT",
        "alt_name": "Madat, East Aceh Regency, Aceh, Indonesia",
        "latitude": 5.17168,
        "longitude": 97.51389,
        "nama": "MADAT"
    },
    {
        "id": "1106010",
        "regency_id": "1106",
        "name": "LINGE",
        "alt_name": "Linge, Central Aceh, Aceh, Indonesia",
        "latitude": 4.3237,
        "longitude": 97.04984,
        "nama": "LINGE"
    },
    {
        "id": "1106011",
        "regency_id": "1106",
        "name": "ATU LINTANG",
        "alt_name": "Atu Lintang, Central Aceh, Aceh, Indonesia",
        "latitude": 4.43853,
        "longitude": 96.78152,
        "nama": "ATU LINTANG"
    },
    {
        "id": "1106012",
        "regency_id": "1106",
        "name": "JAGONG JEGET",
        "alt_name": "Jagong Jeget, Central Aceh, Aceh, Indonesia",
        "latitude": 4.3879,
        "longitude": 96.72799,
        "nama": "JAGONG JEGET"
    },
    {
        "id": "1106020",
        "regency_id": "1106",
        "name": "BINTANG",
        "alt_name": "Bintan Island, Riau Islands, Indonesia",
        "latitude": 1.1367,
        "longitude": 104.42575,
        "nama": "BINTANG"
    },
    {
        "id": "1106031",
        "regency_id": "1106",
        "name": "LUT TAWAR",
        "alt_name": "Lut Tawar, Central Aceh, Aceh, Indonesia",
        "latitude": 4.58088,
        "longitude": 96.88872,
        "nama": "LUT TAWAR"
    },
    {
        "id": "1106032",
        "regency_id": "1106",
        "name": "KEBAYAKAN",
        "alt_name": "Kebayakan, Central Aceh, Aceh, Indonesia",
        "latitude": 4.64772,
        "longitude": 96.87263,
        "nama": "KEBAYAKAN"
    },
    {
        "id": "1106040",
        "regency_id": "1106",
        "name": "PEGASING",
        "alt_name": "Pegasing, Central Aceh, Aceh, Indonesia",
        "latitude": 4.51027,
        "longitude": 96.77081,
        "nama": "PEGASING"
    },
    {
        "id": "1106041",
        "regency_id": "1106",
        "name": "BIES",
        "alt_name": "Bies, Central Aceh, Aceh, Indonesia",
        "latitude": 4.6075,
        "longitude": 96.78688,
        "nama": "BIES"
    },
    {
        "id": "1106050",
        "regency_id": "1106",
        "name": "BEBESEN",
        "alt_name": "Bebesen, Central Aceh, Aceh, Indonesia",
        "latitude": 4.64326,
        "longitude": 96.80295,
        "nama": "BEBESEN"
    },
    {
        "id": "1106051",
        "regency_id": "1106",
        "name": "KUTE PANANG",
        "alt_name": "Kute Panang, Central Aceh, Aceh, Indonesia",
        "latitude": 4.68455,
        "longitude": 96.78152,
        "nama": "KUTE PANANG"
    },
    {
        "id": "1106060",
        "regency_id": "1106",
        "name": "SILIH NARA",
        "alt_name": "Silih Nara, Central Aceh, Aceh, Indonesia",
        "latitude": 4.63371,
        "longitude": 96.72799,
        "nama": "SILIH NARA"
    },
    {
        "id": "1106061",
        "regency_id": "1106",
        "name": "KETOL",
        "alt_name": "Ketol, Central Aceh, Aceh, Indonesia",
        "latitude": 4.81986,
        "longitude": 96.62106,
        "nama": "KETOL"
    },
    {
        "id": "1106062",
        "regency_id": "1106",
        "name": "CELALA",
        "alt_name": "Celala, Central Aceh, Aceh, Indonesia",
        "latitude": 4.55205,
        "longitude": 96.6852,
        "nama": "CELALA"
    },
    {
        "id": "1106063",
        "regency_id": "1106",
        "name": "RUSIP ANTARA",
        "alt_name": "Rusip Antara, Central Aceh, Aceh, Indonesia",
        "latitude": 4.73911,
        "longitude": 96.45034,
        "nama": "RUSIP ANTARA"
    },
    {
        "id": "1107050",
        "regency_id": "1107",
        "name": "JOHAN PAHLAWAN",
        "alt_name": "Johan Pahlawan, West Aceh Regency, Aceh, Indonesia",
        "latitude": 4.19909,
        "longitude": 96.12089,
        "nama": "JOHAN PAHLAWAN"
    },
    {
        "id": "1107060",
        "regency_id": "1107",
        "name": "SAMATIGA",
        "alt_name": "Samatiga, West Aceh Regency, Aceh, Indonesia",
        "latitude": 4.23026,
        "longitude": 96.04674,
        "nama": "SAMATIGA"
    },
    {
        "id": "1107061",
        "regency_id": "1107",
        "name": "BUBON",
        "alt_name": "Bubon, West Aceh Regency, Aceh, Indonesia",
        "latitude": 4.30112,
        "longitude": 96.12089,
        "nama": "BUBON"
    },
    {
        "id": "1107062",
        "regency_id": "1107",
        "name": "ARONGAN LAMBALEK",
        "alt_name": "Arongan Lambalek, West Aceh Regency, Aceh, Indonesia",
        "latitude": 4.34334,
        "longitude": 95.95154,
        "nama": "ARONGAN LAMBALEK"
    },
    {
        "id": "1107070",
        "regency_id": "1107",
        "name": "WOYLA",
        "alt_name": "Woyla, West Aceh Regency, Aceh, Indonesia",
        "latitude": 4.38324,
        "longitude": 96.07851,
        "nama": "WOYLA"
    },
    {
        "id": "1107071",
        "regency_id": "1107",
        "name": "WOYLA BARAT",
        "alt_name": "West Woyla, West Aceh Regency, Aceh, Indonesia",
        "latitude": 4.39407,
        "longitude": 96.00441,
        "nama": "WOYLA BARAT"
    },
    {
        "id": "1107072",
        "regency_id": "1107",
        "name": "WOYLA TIMUR",
        "alt_name": "East Woyla, West Aceh Regency, Aceh, Indonesia",
        "latitude": 4.47529,
        "longitude": 96.0891,
        "nama": "WOYLA TIMUR"
    },
    {
        "id": "1107080",
        "regency_id": "1107",
        "name": "KAWAY XVI",
        "alt_name": "Kaway XVI, West Aceh Regency, Aceh, Indonesia",
        "latitude": 4.26973,
        "longitude": 96.21636,
        "nama": "KAWAY XVI"
    },
    {
        "id": "1107081",
        "regency_id": "1107",
        "name": "MEUREUBO",
        "alt_name": "Meureubo, West Aceh Regency, Aceh, Indonesia",
        "latitude": 4.14741,
        "longitude": 96.21636,
        "nama": "MEUREUBO"
    },
    {
        "id": "1107082",
        "regency_id": "1107",
        "name": "PANTAI CEUREMEN",
        "alt_name": "Pantai Ceuremen, West Aceh Regency, Aceh, Indonesia",
        "latitude": 4.49344,
        "longitude": 96.36516,
        "nama": "PANTAI CEUREMEN"
    },
    {
        "id": "1107083",
        "regency_id": "1107",
        "name": "PANTON REU",
        "alt_name": "Panton Reu, West Aceh Regency, Aceh, Indonesia",
        "latitude": 4.44359,
        "longitude": 96.20574,
        "nama": "PANTON REU"
    },
    {
        "id": "1107090",
        "regency_id": "1107",
        "name": "SUNGAI MAS",
        "alt_name": "MAS River, West Aceh Regency, Aceh, Indonesia",
        "latitude": 4.57768,
        "longitude": 96.11029,
        "nama": "SUNGAI MAS"
    },
    {
        "id": "1108010",
        "regency_id": "1108",
        "name": "LHOONG",
        "alt_name": "Lhoong, Aceh Besar Regency, Aceh, Indonesia",
        "latitude": 5.26695,
        "longitude": 95.28934,
        "nama": "LHOONG"
    },
    {
        "id": "1108020",
        "regency_id": "1108",
        "name": "LHOKNGA",
        "alt_name": "Lhoknga, Aceh Besar Regency, Aceh, Indonesia",
        "latitude": 5.46531,
        "longitude": 95.258,
        "nama": "LHOKNGA"
    },
    {
        "id": "1108021",
        "regency_id": "1108",
        "name": "LEUPUNG",
        "alt_name": "Leupung, Meunasah Bak U, Leupung, Kabupaten Aceh Besar, Aceh, Indonesia",
        "latitude": 5.39239,
        "longitude": 95.25526,
        "nama": "LEUPUNG"
    },
    {
        "id": "1108030",
        "regency_id": "1108",
        "name": "INDRAPURI",
        "alt_name": "Indrapuri, Aceh Besar Regency, Aceh, Indonesia",
        "latitude": 5.42189,
        "longitude": 95.44633,
        "nama": "INDRAPURI"
    },
    {
        "id": "1108031",
        "regency_id": "1108",
        "name": "KUTA COT GLIE",
        "alt_name": "Kuta Cot Glie, Aceh Besar Regency, Aceh, Indonesia",
        "latitude": 5.30677,
        "longitude": 95.49876,
        "nama": "KUTA COT GLIE"
    },
    {
        "id": "1108040",
        "regency_id": "1108",
        "name": "SEULIMEUM",
        "alt_name": "Seulimeum, Aceh Besar Regency, Aceh, Indonesia",
        "latitude": 5.47244,
        "longitude": 95.62477,
        "nama": "SEULIMEUM"
    },
    {
        "id": "1108041",
        "regency_id": "1108",
        "name": "KOTA JANTHO",
        "alt_name": "Jantho, Kota Jantho, Kabupaten Aceh Besar, Aceh, Indonesia",
        "latitude": 5.28387,
        "longitude": 95.63125,
        "nama": "KOTA JANTHO"
    },
    {
        "id": "1108042",
        "regency_id": "1108",
        "name": "LEMBAH SEULAWAH",
        "alt_name": "Lembah Seulawah, Aceh Besar Regency, Aceh, Indonesia",
        "latitude": 5.3882,
        "longitude": 95.70892,
        "nama": "LEMBAH SEULAWAH"
    },
    {
        "id": "1108050",
        "regency_id": "1108",
        "name": "MESJID RAYA",
        "alt_name": "Mesjid Raya, Aceh Besar Regency, Aceh, Indonesia",
        "latitude": 5.56757,
        "longitude": 95.50925,
        "nama": "MESJID RAYA"
    },
    {
        "id": "1108060",
        "regency_id": "1108",
        "name": "DARUSSALAM",
        "alt_name": "Darussalam, Aceh Besar Regency, Aceh, Indonesia",
        "latitude": 5.59455,
        "longitude": 95.42014,
        "nama": "DARUSSALAM"
    },
    {
        "id": "1108061",
        "regency_id": "1108",
        "name": "BAITUSSALAM",
        "alt_name": "Baitussalam, Aceh Besar Regency, Aceh, Indonesia",
        "latitude": 5.6053,
        "longitude": 95.38872,
        "nama": "BAITUSSALAM"
    },
    {
        "id": "1108070",
        "regency_id": "1108",
        "name": "KUTA BARO",
        "alt_name": "Kuta Baro, Aceh Besar Regency, Aceh, Indonesia",
        "latitude": 5.54742,
        "longitude": 95.42538,
        "nama": "KUTA BARO"
    },
    {
        "id": "1108080",
        "regency_id": "1108",
        "name": "MONTASIK",
        "alt_name": "Montasik, Aceh Besar Regency, Aceh, Indonesia",
        "latitude": 5.46583,
        "longitude": 95.42273,
        "nama": "MONTASIK"
    },
    {
        "id": "1108081",
        "regency_id": "1108",
        "name": "BLANG BINTANG",
        "alt_name": "Blang Bintang, Aceh Besar Regency, Aceh, Indonesia",
        "latitude": 5.50561,
        "longitude": 95.42538,
        "nama": "BLANG BINTANG"
    },
    {
        "id": "1108090",
        "regency_id": "1108",
        "name": "INGIN JAYA",
        "alt_name": "Ingin Jaya, Aceh Besar Regency, Aceh, Indonesia",
        "latitude": 5.51136,
        "longitude": 95.36778,
        "nama": "INGIN JAYA"
    },
    {
        "id": "1108091",
        "regency_id": "1108",
        "name": "KRUENG BARONA JAYA",
        "alt_name": "Krueng Barona Jaya, Aceh Besar Regency, Aceh, Indonesia",
        "latitude": 5.55058,
        "longitude": 95.36517,
        "nama": "KRUENG BARONA JAYA"
    },
    {
        "id": "1108100",
        "regency_id": "1108",
        "name": "SUKA MAKMUR",
        "alt_name": "Suka Makmur, Deli Tua, Deli Serdang Regency, North Sumatra, Indonesia",
        "latitude": 3.51408,
        "longitude": 98.68069,
        "nama": "SUKA MAKMUR"
    },
    {
        "id": "1108101",
        "regency_id": "1108",
        "name": "KUTA MALAKA",
        "alt_name": "Kuta Malaka, Aceh Besar Regency, Aceh, Indonesia",
        "latitude": 5.42762,
        "longitude": 95.38872,
        "nama": "KUTA MALAKA"
    },
    {
        "id": "1108102",
        "regency_id": "1108",
        "name": "SIMPANG TIGA",
        "alt_name": "Simpang Tiga, Bukit Raya, Pekanbaru City, Riau, Indonesia",
        "latitude": 0.45513,
        "longitude": 101.46231,
        "nama": "SIMPANG TIGA"
    },
    {
        "id": "1108110",
        "regency_id": "1108",
        "name": "DARUL IMARAH",
        "alt_name": "Darul Imarah, Aceh Besar Regency, Aceh, Indonesia",
        "latitude": 5.50137,
        "longitude": 95.31548,
        "nama": "DARUL IMARAH"
    },
    {
        "id": "1108111",
        "regency_id": "1108",
        "name": "DARUL KAMAL",
        "alt_name": "Darul Kamal, Aceh Besar Regency, Aceh, Indonesia",
        "latitude": 5.46476,
        "longitude": 95.32071,
        "nama": "DARUL KAMAL"
    },
    {
        "id": "1108120",
        "regency_id": "1108",
        "name": "PEUKAN BADA",
        "alt_name": "Peukan Bada, Aceh Besar Regency, Aceh, Indonesia",
        "latitude": 5.53338,
        "longitude": 95.24233,
        "nama": "PEUKAN BADA"
    },
    {
        "id": "1108130",
        "regency_id": "1108",
        "name": "PULO ACEH",
        "alt_name": "Pulo, Seulimeum, Aceh Besar Regency, Aceh, Indonesia",
        "latitude": 5.4619,
        "longitude": 95.63528,
        "nama": "PULO ACEH"
    },
    {
        "id": "1109010",
        "regency_id": "1109",
        "name": "GEUMPANG",
        "alt_name": "Geumpang, Pidie Regency, Aceh, Indonesia",
        "latitude": 4.82386,
        "longitude": 96.19513,
        "nama": "GEUMPANG"
    },
    {
        "id": "1109011",
        "regency_id": "1109",
        "name": "MANE",
        "alt_name": "Mane, Pidie Regency, Aceh, Indonesia",
        "latitude": 4.88673,
        "longitude": 96.0891,
        "nama": "MANE"
    },
    {
        "id": "1109070",
        "regency_id": "1109",
        "name": "GLUMPANG TIGA",
        "alt_name": "Glumpang Tiga, Pidie Regency, Aceh, Indonesia",
        "latitude": 5.20823,
        "longitude": 96.03616,
        "nama": "GLUMPANG TIGA"
    },
    {
        "id": "1109071",
        "regency_id": "1109",
        "name": "GLUMPANG BARO",
        "alt_name": "Glumpang Baro, Pidie Regency, Aceh, Indonesia",
        "latitude": 5.27583,
        "longitude": 96.03087,
        "nama": "GLUMPANG BARO"
    },
    {
        "id": "1109080",
        "regency_id": "1109",
        "name": "MUTIARA",
        "alt_name": "Mutiara, Pidie Regency, Aceh, Indonesia",
        "latitude": 5.28674,
        "longitude": 95.97797,
        "nama": "MUTIARA"
    },
    {
        "id": "1109081",
        "regency_id": "1109",
        "name": "MUTIARA TIMUR",
        "alt_name": "East Mutiara, Pidie Regency, Aceh, Indonesia",
        "latitude": 5.25544,
        "longitude": 95.98855,
        "nama": "MUTIARA TIMUR"
    },
    {
        "id": "1109090",
        "regency_id": "1109",
        "name": "TIRO/TRUSEB",
        "alt_name": "Tiro/Trusep, Pidie Regency, Aceh, Indonesia",
        "latitude": 5.17779,
        "longitude": 95.96211,
        "nama": "TIRO/TRUSEB"
    },
    {
        "id": "1109100",
        "regency_id": "1109",
        "name": "TANGSE",
        "alt_name": "Tangse, Pulo Sejahtra, Tangse, Kabupaten Pidie, Aceh, Indonesia",
        "latitude": 5.00935,
        "longitude": 95.91063,
        "nama": "TANGSE"
    },
    {
        "id": "1109111",
        "regency_id": "1109",
        "name": "KEUMALA",
        "alt_name": "Keumala, Pidie Regency, Aceh, Indonesia",
        "latitude": 5.23061,
        "longitude": 95.86704,
        "nama": "KEUMALA"
    },
    {
        "id": "1109112",
        "regency_id": "1109",
        "name": "TITEUE",
        "alt_name": "Titeue, Pidie Regency, Aceh, Indonesia",
        "latitude": 5.20943,
        "longitude": 95.90928,
        "nama": "TITEUE"
    },
    {
        "id": "1109120",
        "regency_id": "1109",
        "name": "SAKTI",
        "alt_name": "Sakti, Nusapenida, Klungkung Regency, Bali, Indonesia",
        "latitude": -8.71731,
        "longitude": 115.47928,
        "nama": "SAKTI"
    },
    {
        "id": "1109130",
        "regency_id": "1109",
        "name": "MILA",
        "alt_name": "Mila, Pidie Regency, Aceh, Indonesia",
        "latitude": 5.28764,
        "longitude": 95.88288,
        "nama": "MILA"
    },
    {
        "id": "1109140",
        "regency_id": "1109",
        "name": "PADANG TIJI",
        "alt_name": "Padang Tiji, Pidie Regency, Aceh, Indonesia",
        "latitude": 5.34534,
        "longitude": 95.83538,
        "nama": "PADANG TIJI"
    },
    {
        "id": "1109150",
        "regency_id": "1109",
        "name": "DELIMA",
        "alt_name": "Delima, Tampan, Pekanbaru City, Riau, Indonesia",
        "latitude": 0.48298,
        "longitude": 101.40553,
        "nama": "DELIMA"
    },
    {
        "id": "1109151",
        "regency_id": "1109",
        "name": "GRONG GRONG",
        "alt_name": "Grong Grong, Pidie Regency, Aceh, Indonesia",
        "latitude": 5.37072,
        "longitude": 95.90399,
        "nama": "GRONG GRONG"
    },
    {
        "id": "1109160",
        "regency_id": "1109",
        "name": "INDRAJAYA",
        "alt_name": "Indrajaya, Pidie Regency, Aceh, Indonesia",
        "latitude": 5.31835,
        "longitude": 95.93569,
        "nama": "INDRAJAYA"
    },
    {
        "id": "1109170",
        "regency_id": "1109",
        "name": "PEUKAN BARO",
        "alt_name": "Peukan Baro, Pidie Regency, Aceh, Indonesia",
        "latitude": 5.32846,
        "longitude": 95.9674,
        "nama": "PEUKAN BARO"
    },
    {
        "id": "1109180",
        "regency_id": "1109",
        "name": "KEMBANG TANJONG",
        "alt_name": "Kembang Tanjong, Pidie Regency, Aceh, Indonesia",
        "latitude": 5.31218,
        "longitude": 96.03616,
        "nama": "KEMBANG TANJONG"
    },
    {
        "id": "1109190",
        "regency_id": "1109",
        "name": "SIMPANG TIGA",
        "alt_name": "Simpang Tiga, Bukit Raya, Pekanbaru City, Riau, Indonesia",
        "latitude": 0.45513,
        "longitude": 101.46231,
        "nama": "SIMPANG TIGA"
    },
    {
        "id": "1109200",
        "regency_id": "1109",
        "name": "KOTA SIGLI",
        "alt_name": "Sigli, Sigli City, Pidie Regency, Aceh, Indonesia",
        "latitude": 5.38396,
        "longitude": 95.95886,
        "nama": "KOTA SIGLI"
    },
    {
        "id": "1109210",
        "regency_id": "1109",
        "name": "PIDIE",
        "alt_name": "Pidie, Pidie Regency, Aceh, Indonesia",
        "latitude": 5.37041,
        "longitude": 95.93569,
        "nama": "PIDIE"
    },
    {
        "id": "1109220",
        "regency_id": "1109",
        "name": "BATEE",
        "alt_name": "Pulau Batee, Pulo Bunta, Peukan Bada, Kabupaten Aceh Besar, Aceh, Indonesia",
        "latitude": 5.58028,
        "longitude": 95.19944,
        "nama": "BATEE"
    },
    {
        "id": "1109230",
        "regency_id": "1109",
        "name": "MUARA TIGA",
        "alt_name": "Muara Tiga, Pidie Regency, Aceh, Indonesia",
        "latitude": 5.51261,
        "longitude": 95.7932,
        "nama": "MUARA TIGA"
    },
    {
        "id": "1110010",
        "regency_id": "1110",
        "name": "SAMALANGA",
        "alt_name": "Samalanga, Bireuen Regency, Aceh, Indonesia",
        "latitude": 5.08049,
        "longitude": 96.3758,
        "nama": "SAMALANGA"
    },
    {
        "id": "1110011",
        "regency_id": "1110",
        "name": "SIMPANG MAMPLAM",
        "alt_name": "Simpang Mamplam, Bireuen Regency, Aceh, Indonesia",
        "latitude": 5.10078,
        "longitude": 96.41839,
        "nama": "SIMPANG MAMPLAM"
    },
    {
        "id": "1110020",
        "regency_id": "1110",
        "name": "PANDRAH",
        "alt_name": "Jl. Nasional 15, Indonesia",
        "latitude": -7.49087,
        "longitude": 111.60149,
        "nama": "PANDRAH"
    },
    {
        "id": "1110030",
        "regency_id": "1110",
        "name": "JEUNIEB",
        "alt_name": "Jeunieb, Garot, Pandrah, Kabupaten Bireuen, Aceh, Indonesia",
        "latitude": 5.1715,
        "longitude": 96.48244,
        "nama": "JEUNIEB"
    },
    {
        "id": "1110031",
        "regency_id": "1110",
        "name": "PEULIMBANG",
        "alt_name": "Peulimbang, Bireuen Regency, Aceh, Indonesia",
        "latitude": 5.03782,
        "longitude": 96.50364,
        "nama": "PEULIMBANG"
    },
    {
        "id": "1110040",
        "regency_id": "1110",
        "name": "PEUDADA",
        "alt_name": "Peudada, Bireuen Regency, Aceh, Indonesia",
        "latitude": 5.04763,
        "longitude": 96.55699,
        "nama": "PEUDADA"
    },
    {
        "id": "1110050",
        "regency_id": "1110",
        "name": "JULI",
        "alt_name": "Juli, Bireuen Regency, Aceh, Indonesia",
        "latitude": 5.04633,
        "longitude": 96.6852,
        "nama": "JULI"
    },
    {
        "id": "1110060",
        "regency_id": "1110",
        "name": "JEUMPA",
        "alt_name": "Jeumpa, Bireuen Regency, Aceh, Indonesia",
        "latitude": 5.16056,
        "longitude": 96.65312,
        "nama": "JEUMPA"
    },
    {
        "id": "1110061",
        "regency_id": "1110",
        "name": "KOTA JUANG",
        "alt_name": "Juang City, Bireuen Regency, Aceh, Indonesia",
        "latitude": 5.2066,
        "longitude": 96.71194,
        "nama": "KOTA JUANG"
    },
    {
        "id": "1110062",
        "regency_id": "1110",
        "name": "KUALA",
        "alt_name": "Kuala, Langkat Regency, North Sumatra, Indonesia",
        "latitude": 3.48312,
        "longitude": 98.37457,
        "nama": "KUALA"
    },
    {
        "id": "1110070",
        "regency_id": "1110",
        "name": "JANGKA",
        "alt_name": "Jangka, Indonesia",
        "latitude": 0.88083,
        "longitude": 103.71528,
        "nama": "JANGKA"
    },
    {
        "id": "1110080",
        "regency_id": "1110",
        "name": "PEUSANGAN",
        "alt_name": "Peusangan, Bireuen Regency, Aceh, Indonesia",
        "latitude": 5.2009,
        "longitude": 96.76011,
        "nama": "PEUSANGAN"
    },
    {
        "id": "1110081",
        "regency_id": "1110",
        "name": "PEUSANGAN SELATAN",
        "alt_name": "South Peusangan, Bireuen Regency, Aceh, Indonesia",
        "latitude": 5.0559,
        "longitude": 96.76011,
        "nama": "PEUSANGAN SELATAN"
    },
    {
        "id": "1110082",
        "regency_id": "1110",
        "name": "PEUSANGAN SIBLAH KRUENG",
        "alt_name": "Peusangan Siblah Krueng, Bireuen Regency, Aceh, Indonesia",
        "latitude": 5.07614,
        "longitude": 96.80295,
        "nama": "PEUSANGAN SIBLAH KRUENG"
    },
    {
        "id": "1110090",
        "regency_id": "1110",
        "name": "MAKMUR",
        "alt_name": "Makmur, Bireuen Regency, Aceh, Indonesia",
        "latitude": 5.1378,
        "longitude": 96.84582,
        "nama": "MAKMUR"
    },
    {
        "id": "1110100",
        "regency_id": "1110",
        "name": "GANDA PURA",
        "alt_name": "Ganda Pura, Bireuen Regency, Aceh, Indonesia",
        "latitude": 5.22025,
        "longitude": 96.88872,
        "nama": "GANDA PURA"
    },
    {
        "id": "1110101",
        "regency_id": "1110",
        "name": "KUTA BLANG",
        "alt_name": "Kuta Blang, Bireuen Regency, Aceh, Indonesia",
        "latitude": 5.20534,
        "longitude": 96.82974,
        "nama": "KUTA BLANG"
    },
    {
        "id": "1111010",
        "regency_id": "1111",
        "name": "SAWANG",
        "alt_name": "Sawang, North Aceh Regency, Aceh, Indonesia",
        "latitude": 5.04409,
        "longitude": 96.89945,
        "nama": "SAWANG"
    },
    {
        "id": "1111020",
        "regency_id": "1111",
        "name": "NISAM",
        "alt_name": "Nisam, North Aceh Regency, Aceh, Indonesia",
        "latitude": 5.17737,
        "longitude": 97.01759,
        "nama": "NISAM"
    },
    {
        "id": "1111021",
        "regency_id": "1111",
        "name": "NISAM ANTARA",
        "alt_name": "Nisam Antara, North Aceh Regency, Aceh, Indonesia",
        "latitude": 5.03318,
        "longitude": 96.95312,
        "nama": "NISAM ANTARA"
    },
    {
        "id": "1111022",
        "regency_id": "1111",
        "name": "BANDA BARO",
        "alt_name": "Banda Baro, North Aceh Regency, Aceh, Indonesia",
        "latitude": 5.19344,
        "longitude": 96.96923,
        "nama": "BANDA BARO"
    },
    {
        "id": "1111030",
        "regency_id": "1111",
        "name": "KUTA MAKMUR",
        "alt_name": "Kuta Makmur, North Aceh Regency, Aceh, Indonesia",
        "latitude": 5.0943,
        "longitude": 97.03909,
        "nama": "KUTA MAKMUR"
    },
    {
        "id": "1111031",
        "regency_id": "1111",
        "name": "SIMPANG KERAMAT",
        "alt_name": "Simpang Keramat, North Aceh Regency, Aceh, Indonesia",
        "latitude": 5.03179,
        "longitude": 97.08212,
        "nama": "SIMPANG KERAMAT"
    },
    {
        "id": "1111040",
        "regency_id": "1111",
        "name": "SYAMTALIRA BAYU",
        "alt_name": "Syamtalira Bayu, North Aceh Regency, Aceh, Indonesia",
        "latitude": 5.07719,
        "longitude": 97.18441,
        "nama": "SYAMTALIRA BAYU"
    },
    {
        "id": "1111041",
        "regency_id": "1111",
        "name": "GEUREUDONG PASE",
        "alt_name": "Geureudong Pase, North Aceh Regency, Aceh, Indonesia",
        "latitude": 4.94988,
        "longitude": 97.01759,
        "nama": "GEUREUDONG PASE"
    },
    {
        "id": "1111050",
        "regency_id": "1111",
        "name": "MEURAH MULIA",
        "alt_name": "Meurah Mulia, North Aceh Regency, Aceh, Indonesia",
        "latitude": 5.07172,
        "longitude": 97.21136,
        "nama": "MEURAH MULIA"
    },
    {
        "id": "1111060",
        "regency_id": "1111",
        "name": "MATANGKULI",
        "alt_name": "Matangkuli, North Aceh Regency, Aceh, Indonesia",
        "latitude": 5.03489,
        "longitude": 97.27068,
        "nama": "MATANGKULI"
    },
    {
        "id": "1111061",
        "regency_id": "1111",
        "name": "PAYA BAKONG",
        "alt_name": "Paya Bakong, North Aceh Regency, Aceh, Indonesia",
        "latitude": 4.91651,
        "longitude": 97.24371,
        "nama": "PAYA BAKONG"
    },
    {
        "id": "1111062",
        "regency_id": "1111",
        "name": "PIRAK TIMU",
        "alt_name": "Pirak Timu, North Aceh Regency, Aceh, Indonesia",
        "latitude": 4.98836,
        "longitude": 97.27608,
        "nama": "PIRAK TIMU"
    },
    {
        "id": "1111070",
        "regency_id": "1111",
        "name": "COT GIREK",
        "alt_name": "Cot Girek, North Aceh Regency, Aceh, Indonesia",
        "latitude": 4.83318,
        "longitude": 97.33005,
        "nama": "COT GIREK"
    },
    {
        "id": "1111080",
        "regency_id": "1111",
        "name": "TANAH JAMBO AYE",
        "alt_name": "Tanah Jambo Aye, North Aceh Regency, Aceh, Indonesia",
        "latitude": 5.08969,
        "longitude": 97.44895,
        "nama": "TANAH JAMBO AYE"
    },
    {
        "id": "1111081",
        "regency_id": "1111",
        "name": "LANGKAHAN",
        "alt_name": "Langkahan, North Aceh Regency, Aceh, Indonesia",
        "latitude": 4.87293,
        "longitude": 97.45977,
        "nama": "LANGKAHAN"
    },
    {
        "id": "1111090",
        "regency_id": "1111",
        "name": "SEUNUDDON",
        "alt_name": "SEUNUDDON",
        "latitude": null,
        "longitude": null,
        "nama": "SEUNUDDON"
    },
    {
        "id": "1111100",
        "regency_id": "1111",
        "name": "BAKTIYA",
        "alt_name": "Baktiya, North Aceh Regency, Aceh, Indonesia",
        "latitude": 5.09019,
        "longitude": 97.40569,
        "nama": "BAKTIYA"
    },
    {
        "id": "1111101",
        "regency_id": "1111",
        "name": "BAKTIYA BARAT",
        "alt_name": "West Baktiya, North Aceh Regency, Aceh, Indonesia",
        "latitude": 5.13231,
        "longitude": 97.34085,
        "nama": "BAKTIYA BARAT"
    },
    {
        "id": "1111110",
        "regency_id": "1111",
        "name": "LHOKSUKON",
        "alt_name": "Lhoksukon, Meunasah Asan Ab, Lhoksukon, Kabupaten Aceh Utara, Aceh, Indonesia",
        "latitude": 5.0517,
        "longitude": 97.31812,
        "nama": "LHOKSUKON"
    },
    {
        "id": "1111120",
        "regency_id": "1111",
        "name": "TANAH LUAS",
        "alt_name": "Tanah Luas, North Aceh Regency, Aceh, Indonesia",
        "latitude": 4.96913,
        "longitude": 97.14671,
        "nama": "TANAH LUAS"
    },
    {
        "id": "1111121",
        "regency_id": "1111",
        "name": "NIBONG",
        "alt_name": "Nibong, North Aceh Regency, Aceh, Indonesia",
        "latitude": 5.03287,
        "longitude": 97.21945,
        "nama": "NIBONG"
    },
    {
        "id": "1111130",
        "regency_id": "1111",
        "name": "SAMUDERA",
        "alt_name": "Samudera, North Aceh Regency, Aceh, Indonesia",
        "latitude": 5.12842,
        "longitude": 97.22753,
        "nama": "SAMUDERA"
    },
    {
        "id": "1111140",
        "regency_id": "1111",
        "name": "SYAMTALIRA ARON",
        "alt_name": "Meuria Aron, Syamtalira Aron, North Aceh Regency, Aceh, Indonesia",
        "latitude": 5.09057,
        "longitude": 97.25854,
        "nama": "SYAMTALIRA ARON"
    },
    {
        "id": "1111150",
        "regency_id": "1111",
        "name": "TANAH PASIR",
        "alt_name": "Tanah Pasir, North Aceh Regency, Aceh, Indonesia",
        "latitude": 5.1384,
        "longitude": 97.25989,
        "nama": "TANAH PASIR"
    },
    {
        "id": "1111151",
        "regency_id": "1111",
        "name": "LAPANG",
        "alt_name": "Lapang, North Aceh Regency, Aceh, Indonesia",
        "latitude": 5.14839,
        "longitude": 97.29226,
        "nama": "LAPANG"
    },
    {
        "id": "1111160",
        "regency_id": "1111",
        "name": "MUARA BATU",
        "alt_name": "Muara Batu, North Aceh Regency, Aceh, Indonesia",
        "latitude": 5.24553,
        "longitude": 96.94775,
        "nama": "MUARA BATU"
    },
    {
        "id": "1111170",
        "regency_id": "1111",
        "name": "DEWANTARA",
        "alt_name": "Dewantara, North Aceh Regency, Aceh, Indonesia",
        "latitude": 5.23957,
        "longitude": 97.01759,
        "nama": "DEWANTARA"
    },
    {
        "id": "1112010",
        "regency_id": "1112",
        "name": "MANGGENG",
        "alt_name": "Manggeng, Blang Manggeng, Manggeng, Kabupaten Aceh Barat Daya, Aceh, Indonesia",
        "latitude": 3.60821,
        "longitude": 96.9188,
        "nama": "MANGGENG"
    },
    {
        "id": "1112011",
        "regency_id": "1112",
        "name": "LEMBAH SABIL",
        "alt_name": "Lembah Sabil, Southwest Aceh Regency, Aceh, Indonesia",
        "latitude": 3.6249,
        "longitude": 97.01759,
        "nama": "LEMBAH SABIL"
    },
    {
        "id": "1112020",
        "regency_id": "1112",
        "name": "TANGAN-TANGAN",
        "alt_name": "Tangan-Tangan, Southwest Aceh Regency, Aceh, Indonesia",
        "latitude": 3.69598,
        "longitude": 96.94238,
        "nama": "TANGAN-TANGAN"
    },
    {
        "id": "1112021",
        "regency_id": "1112",
        "name": "SETIA",
        "alt_name": "Setia, Southwest Aceh Regency, Aceh, Indonesia",
        "latitude": 3.70156,
        "longitude": 96.87263,
        "nama": "SETIA"
    },
    {
        "id": "1112030",
        "regency_id": "1112",
        "name": "BLANG PIDIE",
        "alt_name": "Blang Pidie, Southwest Aceh Regency, Aceh, Indonesia",
        "latitude": 3.74315,
        "longitude": 96.83265,
        "nama": "BLANG PIDIE"
    },
    {
        "id": "1112031",
        "regency_id": "1112",
        "name": "JEUMPA",
        "alt_name": "Jeumpa, Bireuen Regency, Aceh, Indonesia",
        "latitude": 5.16056,
        "longitude": 96.65312,
        "nama": "JEUMPA"
    },
    {
        "id": "1112040",
        "regency_id": "1112",
        "name": "SUSOH",
        "alt_name": "Susoh, Padang Baru, Susoh, Kabupaten Aceh Barat Daya, Aceh, Indonesia",
        "latitude": 3.72858,
        "longitude": 96.81258,
        "nama": "SUSOH"
    },
    {
        "id": "1112050",
        "regency_id": "1112",
        "name": "KUALA BATEE",
        "alt_name": "Kuala Batee, Southwest Aceh Regency, Aceh, Indonesia",
        "latitude": 3.9395,
        "longitude": 96.81366,
        "nama": "KUALA BATEE"
    },
    {
        "id": "1112060",
        "regency_id": "1112",
        "name": "BABAH ROT",
        "alt_name": "Babah Rot, Southwest Aceh Regency, Aceh, Indonesia",
        "latitude": 3.92012,
        "longitude": 96.70659,
        "nama": "BABAH ROT"
    },
    {
        "id": "1113010",
        "regency_id": "1113",
        "name": "KUTA PANJANG",
        "alt_name": "Kerukunan Kuta Panjang, Kutapanjang, Gayo Lues Regency, Aceh, Indonesia",
        "latitude": 4.01786,
        "longitude": 97.27742,
        "nama": "KUTA PANJANG"
    },
    {
        "id": "1113011",
        "regency_id": "1113",
        "name": "BLANG JERANGO",
        "alt_name": "Blang Jerango, Gayo Lues Regency, Aceh, Indonesia",
        "latitude": 3.97712,
        "longitude": 97.15748,
        "nama": "BLANG JERANGO"
    },
    {
        "id": "1113020",
        "regency_id": "1113",
        "name": "BLANGKEJEREN",
        "alt_name": "Blangkejeren, Gayo Lues Regency, Aceh, Indonesia",
        "latitude": 3.99672,
        "longitude": 97.34162,
        "nama": "BLANGKEJEREN"
    },
    {
        "id": "1113021",
        "regency_id": "1113",
        "name": "PUTRI BETUNG",
        "alt_name": "Putri Betung, Gayo Lues Regency, Aceh, Indonesia",
        "latitude": 3.75203,
        "longitude": 97.48142,
        "nama": "PUTRI BETUNG"
    },
    {
        "id": "1113022",
        "regency_id": "1113",
        "name": "DABUN GELANG",
        "alt_name": "Dabun Gelang, Gayo Lues Regency, Aceh, Indonesia",
        "latitude": 3.93357,
        "longitude": 97.50307,
        "nama": "DABUN GELANG"
    },
    {
        "id": "1113023",
        "regency_id": "1113",
        "name": "BLANG PEGAYON",
        "alt_name": "Blang Pegayon, Gayo Lues Regency, Aceh, Indonesia",
        "latitude": 3.81421,
        "longitude": 97.28687,
        "nama": "BLANG PEGAYON"
    },
    {
        "id": "1113030",
        "regency_id": "1113",
        "name": "PINING",
        "alt_name": "Pining, Gayo Lues Regency, Aceh, Indonesia",
        "latitude": 3.99289,
        "longitude": 97.65481,
        "nama": "PINING"
    },
    {
        "id": "1113040",
        "regency_id": "1113",
        "name": "RIKIT GAIB",
        "alt_name": "Rikit Gaib, Gayo Lues Regency, Aceh, Indonesia",
        "latitude": 4.13828,
        "longitude": 97.28687,
        "nama": "RIKIT GAIB"
    },
    {
        "id": "1113041",
        "regency_id": "1113",
        "name": "PANTAN CUACA",
        "alt_name": "Pantan Cuaca, Gayo Lues Regency, Aceh, Indonesia",
        "latitude": 4.17973,
        "longitude": 97.20058,
        "nama": "PANTAN CUACA"
    },
    {
        "id": "1113050",
        "regency_id": "1113",
        "name": "TERANGUN",
        "alt_name": "Terangun, Gayo Lues Regency, Aceh, Indonesia",
        "latitude": 3.99905,
        "longitude": 96.96386,
        "nama": "TERANGUN"
    },
    {
        "id": "1113051",
        "regency_id": "1113",
        "name": "TRIPE JAYA",
        "alt_name": "Tripe Jaya, Gayo Lues Regency, Aceh, Indonesia",
        "latitude": 4.141,
        "longitude": 96.98535,
        "nama": "TRIPE JAYA"
    },
    {
        "id": "1114010",
        "regency_id": "1114",
        "name": "TAMIANG HULU",
        "alt_name": "Tamiang Hulu, Aceh Tamiang Regency, Aceh, Indonesia",
        "latitude": 4.1534,
        "longitude": 97.82864,
        "nama": "TAMIANG HULU"
    },
    {
        "id": "1114011",
        "regency_id": "1114",
        "name": "BANDAR PUSAKA",
        "alt_name": "Bandar Pusaka, Aceh Tamiang Regency, Aceh, Indonesia",
        "latitude": 4.28542,
        "longitude": 97.83952,
        "nama": "BANDAR PUSAKA"
    },
    {
        "id": "1114020",
        "regency_id": "1114",
        "name": "KEJURUAN MUDA",
        "alt_name": "Kejuruan Muda, Aceh Tamiang Regency, Aceh, Indonesia",
        "latitude": 4.21234,
        "longitude": 98.0247,
        "nama": "KEJURUAN MUDA"
    },
    {
        "id": "1114021",
        "regency_id": "1114",
        "name": "TENGGULUN",
        "alt_name": "Tenggulun, Aceh Tamiang Regency, Aceh, Indonesia",
        "latitude": 3.99042,
        "longitude": 97.91571,
        "nama": "TENGGULUN"
    },
    {
        "id": "1114030",
        "regency_id": "1114",
        "name": "RANTAU",
        "alt_name": "Rantau, Kupang, Tapin Utara, Kabupaten Tapin, Kalimantan Selatan, Indonesia",
        "latitude": -2.93757,
        "longitude": 115.144,
        "nama": "RANTAU"
    },
    {
        "id": "1114040",
        "regency_id": "1114",
        "name": "KOTA KUALA SIMPANG",
        "alt_name": "Kuala Simpang City, Aceh Tamiang Regency, Aceh, Indonesia",
        "latitude": 4.28566,
        "longitude": 98.06016,
        "nama": "KOTA KUALA SIMPANG"
    },
    {
        "id": "1114050",
        "regency_id": "1114",
        "name": "SERUWAY",
        "alt_name": "Seruway, Tj. Mulia, Bendahara, Kabupaten Aceh Tamiang, Aceh, Indonesia",
        "latitude": 4.36069,
        "longitude": 98.18462,
        "nama": "SERUWAY"
    },
    {
        "id": "1114060",
        "regency_id": "1114",
        "name": "BENDAHARA",
        "alt_name": "Bendahara, Aceh Tamiang Regency, Aceh, Indonesia",
        "latitude": 4.4039,
        "longitude": 98.18849,
        "nama": "BENDAHARA"
    },
    {
        "id": "1114061",
        "regency_id": "1114",
        "name": "BANDA MULIA",
        "alt_name": "Banda Mulia, Aceh Tamiang Regency, Aceh, Indonesia",
        "latitude": 4.44517,
        "longitude": 98.14478,
        "nama": "BANDA MULIA"
    },
    {
        "id": "1114070",
        "regency_id": "1114",
        "name": "KARANG BARU",
        "alt_name": "Karang Baru, Aceh Tamiang Regency, Aceh, Indonesia",
        "latitude": 4.33293,
        "longitude": 98.07561,
        "nama": "KARANG BARU"
    },
    {
        "id": "1114071",
        "regency_id": "1114",
        "name": "SEKERAK",
        "alt_name": "Sekerak, Aceh Tamiang Regency, Aceh, Indonesia",
        "latitude": 4.32523,
        "longitude": 97.9266,
        "nama": "SEKERAK"
    },
    {
        "id": "1114080",
        "regency_id": "1114",
        "name": "MANYAK PAYED",
        "alt_name": "Manyak Payed, Aceh Tamiang Regency, Aceh, Indonesia",
        "latitude": 4.42573,
        "longitude": 98.05743,
        "nama": "MANYAK PAYED"
    },
    {
        "id": "1115010",
        "regency_id": "1115",
        "name": "DARUL MAKMUR",
        "alt_name": "Darul Makmur, Nagan Raya Regency, Aceh, Indonesia",
        "latitude": 4.00258,
        "longitude": 96.53564,
        "nama": "DARUL MAKMUR"
    },
    {
        "id": "1115011",
        "regency_id": "1115",
        "name": "TRIPA MAKMUR",
        "alt_name": "Tripa Makmur, Nagan Raya Regency, Aceh, Indonesia",
        "latitude": 3.93251,
        "longitude": 96.41839,
        "nama": "TRIPA MAKMUR"
    },
    {
        "id": "1115020",
        "regency_id": "1115",
        "name": "KUALA",
        "alt_name": "Kuala, Langkat Regency, North Sumatra, Indonesia",
        "latitude": 3.48312,
        "longitude": 98.37457,
        "nama": "KUALA"
    },
    {
        "id": "1115021",
        "regency_id": "1115",
        "name": "KUALA PESISIR",
        "alt_name": "Kuala Pesisir, Nagan Raya Regency, Aceh, Indonesia",
        "latitude": 4.09645,
        "longitude": 96.22698,
        "nama": "KUALA PESISIR"
    },
    {
        "id": "1115022",
        "regency_id": "1115",
        "name": "TADU RAYA",
        "alt_name": "Tadu Raya, Nagan Raya Regency, Aceh, Indonesia",
        "latitude": 4.0647,
        "longitude": 96.38644,
        "nama": "TADU RAYA"
    },
    {
        "id": "1115030",
        "regency_id": "1115",
        "name": "BEUTONG",
        "alt_name": "Beutong, Blang Puuk, Kec. Beutong Ateuh Banggalang, Kabupaten Nagan Raya, Aceh, Indonesia",
        "latitude": 4.45,
        "longitude": 96.55,
        "nama": "BEUTONG"
    },
    {
        "id": "1115031",
        "regency_id": "1115",
        "name": "BEUTONG ATEUH BANGGALANG",
        "alt_name": "Beutong Ateuh Banggalang, Nagan Raya Regency, Aceh, Indonesia",
        "latitude": 4.46131,
        "longitude": 96.52498,
        "nama": "BEUTONG ATEUH BANGGALANG"
    },
    {
        "id": "1115040",
        "regency_id": "1115",
        "name": "SEUNAGAN",
        "alt_name": "Seunagan, Nagan Raya Regency, Aceh, Indonesia",
        "latitude": 4.23852,
        "longitude": 96.29071,
        "nama": "SEUNAGAN"
    },
    {
        "id": "1115041",
        "regency_id": "1115",
        "name": "SUKA MAKMUE",
        "alt_name": "Suka Makmue, Nagan Raya Regency, Aceh, Indonesia",
        "latitude": 4.1772,
        "longitude": 96.31197,
        "nama": "SUKA MAKMUE"
    },
    {
        "id": "1115050",
        "regency_id": "1115",
        "name": "SEUNAGAN TIMUR",
        "alt_name": "East Seunagan, Nagan Raya Regency, Aceh, Indonesia",
        "latitude": 4.30951,
        "longitude": 96.34388,
        "nama": "SEUNAGAN TIMUR"
    },
    {
        "id": "1116010",
        "regency_id": "1116",
        "name": "TEUNOM",
        "alt_name": "Teunom, Aceh Jaya Regency, Aceh, Indonesia",
        "latitude": 4.43603,
        "longitude": 95.8776,
        "nama": "TEUNOM"
    },
    {
        "id": "1116011",
        "regency_id": "1116",
        "name": "PASIE RAYA",
        "alt_name": "Pasie Raya, Aceh Jaya Regency, Aceh, Indonesia",
        "latitude": 4.59947,
        "longitude": 95.96211,
        "nama": "PASIE RAYA"
    },
    {
        "id": "1116020",
        "regency_id": "1116",
        "name": "PANGA",
        "alt_name": "Panga, Aceh Jaya Regency, Aceh, Indonesia",
        "latitude": 4.64198,
        "longitude": 95.7932,
        "nama": "PANGA"
    },
    {
        "id": "1116030",
        "regency_id": "1116",
        "name": "KRUENG SABEE",
        "alt_name": "Krueng Sabee, Aceh Jaya Regency, Aceh, Indonesia",
        "latitude": 4.82686,
        "longitude": 95.85649,
        "nama": "KRUENG SABEE"
    },
    {
        "id": "1116040",
        "regency_id": "1116",
        "name": "SETIA BAKTI",
        "alt_name": "Setia Bakti, Aceh Jaya Regency, Aceh, Indonesia",
        "latitude": 4.74647,
        "longitude": 95.60375,
        "nama": "SETIA BAKTI"
    },
    {
        "id": "1116050",
        "regency_id": "1116",
        "name": "SAMPOINIET",
        "alt_name": "Sampoiniet, Aceh Jaya Regency, Aceh, Indonesia",
        "latitude": 4.93318,
        "longitude": 95.49876,
        "nama": "SAMPOINIET"
    },
    {
        "id": "1116051",
        "regency_id": "1116",
        "name": "DARUL HIKMAH",
        "alt_name": "Darul Hikmah, Aceh Jaya Regency, Aceh, Indonesia",
        "latitude": 4.89078,
        "longitude": 95.62477,
        "nama": "DARUL HIKMAH"
    },
    {
        "id": "1116060",
        "regency_id": "1116",
        "name": "JAYA",
        "alt_name": "Puncak Jaya, Tembagapura, Mimika Regency, Papua, Indonesia",
        "latitude": -4.0846,
        "longitude": 137.18661,
        "nama": "JAYA"
    },
    {
        "id": "1116061",
        "regency_id": "1116",
        "name": "INDRA JAYA",
        "alt_name": "Indra Jaya, Aceh Jaya Regency, Aceh, Indonesia",
        "latitude": 5.01668,
        "longitude": 95.4149,
        "nama": "INDRA JAYA"
    },
    {
        "id": "1117010",
        "regency_id": "1117",
        "name": "TIMANG GAJAH",
        "alt_name": "Timang Gajah, Bener Meriah Regency, Aceh, Indonesia",
        "latitude": 4.7668,
        "longitude": 96.78152,
        "nama": "TIMANG GAJAH"
    },
    {
        "id": "1117011",
        "regency_id": "1117",
        "name": "GAJAH PUTIH",
        "alt_name": "Gajah Putih, Bener Meriah Regency, Aceh, Indonesia",
        "latitude": 4.80819,
        "longitude": 96.76011,
        "nama": "GAJAH PUTIH"
    },
    {
        "id": "1117020",
        "regency_id": "1117",
        "name": "PINTU RIME GAYO",
        "alt_name": "Pintu Rime Gayo, Bener Meriah Regency, Aceh, Indonesia",
        "latitude": 4.88022,
        "longitude": 96.77081,
        "nama": "PINTU RIME GAYO"
    },
    {
        "id": "1117030",
        "regency_id": "1117",
        "name": "BUKIT",
        "alt_name": "BUKIT",
        "latitude": null,
        "longitude": null,
        "nama": "BUKIT"
    },
    {
        "id": "1117040",
        "regency_id": "1117",
        "name": "WIH PESAM",
        "alt_name": "Wih Pesam, Bener Meriah Regency, Aceh, Indonesia",
        "latitude": 4.72545,
        "longitude": 96.80295,
        "nama": "WIH PESAM"
    },
    {
        "id": "1117050",
        "regency_id": "1117",
        "name": "BANDAR",
        "alt_name": "Bandar, Bandar Kumbul, Bilah Bar., Kabupaten Labuhan Batu, Sumatera Utara, Indonesia",
        "latitude": 2.05,
        "longitude": 99.75,
        "nama": "BANDAR"
    },
    {
        "id": "1117051",
        "regency_id": "1117",
        "name": "BENER KELIPAH",
        "alt_name": "Bener Kelipah, Bener Meriah Regency, Aceh, Indonesia",
        "latitude": 4.77062,
        "longitude": 96.91555,
        "nama": "BENER KELIPAH"
    },
    {
        "id": "1117060",
        "regency_id": "1117",
        "name": "SYIAH UTAMA",
        "alt_name": "Syiah Utama, Bener Meriah Regency, Aceh, Indonesia",
        "latitude": 4.65024,
        "longitude": 97.13594,
        "nama": "SYIAH UTAMA"
    },
    {
        "id": "1117061",
        "regency_id": "1117",
        "name": "MESIDAH",
        "alt_name": "Mesidah, Bener Meriah Regency, Aceh, Indonesia",
        "latitude": 4.75405,
        "longitude": 97.02834,
        "nama": "MESIDAH"
    },
    {
        "id": "1117070",
        "regency_id": "1117",
        "name": "PERMATA",
        "alt_name": "Permata, Bener Meriah Regency, Aceh, Indonesia",
        "latitude": 4.83725,
        "longitude": 96.94238,
        "nama": "PERMATA"
    },
    {
        "id": "1118010",
        "regency_id": "1118",
        "name": "MEUREUDU",
        "alt_name": "Meureudu, Pidie Jaya Regency, Aceh, Indonesia",
        "latitude": 4.98828,
        "longitude": 96.28009,
        "nama": "MEUREUDU"
    },
    {
        "id": "1118020",
        "regency_id": "1118",
        "name": "MEURAH DUA",
        "alt_name": "Meurah Dua, Pidie Jaya Regency, Aceh, Indonesia",
        "latitude": 5.23274,
        "longitude": 96.2602,
        "nama": "MEURAH DUA"
    },
    {
        "id": "1118030",
        "regency_id": "1118",
        "name": "BANDAR DUA",
        "alt_name": "Bandar Dua, Pidie Jaya Regency, Aceh, Indonesia",
        "latitude": 5.09158,
        "longitude": 96.30134,
        "nama": "BANDAR DUA"
    },
    {
        "id": "1118040",
        "regency_id": "1118",
        "name": "JANGKA BUYA",
        "alt_name": "Jangka Buya, Pidie Jaya Regency, Aceh, Indonesia",
        "latitude": 5.22095,
        "longitude": 96.32792,
        "nama": "JANGKA BUYA"
    },
    {
        "id": "1118050",
        "regency_id": "1118",
        "name": "ULIM",
        "alt_name": "Ulim, Pidie Jaya Regency, Aceh, Indonesia",
        "latitude": 5.20061,
        "longitude": 96.2854,
        "nama": "ULIM"
    },
    {
        "id": "1118060",
        "regency_id": "1118",
        "name": "TRIENGGADENG",
        "alt_name": "Trienggadeng, Pidie Jaya Regency, Aceh, Indonesia",
        "latitude": 5.207,
        "longitude": 96.1633,
        "nama": "TRIENGGADENG"
    },
    {
        "id": "1118070",
        "regency_id": "1118",
        "name": "PANTERAJA",
        "alt_name": "Panteraja, Pidie Jaya Regency, Aceh, Indonesia",
        "latitude": 5.2539,
        "longitude": 96.1474,
        "nama": "PANTERAJA"
    },
    {
        "id": "1118080",
        "regency_id": "1118",
        "name": "BANDAR BARU",
        "alt_name": "Bandar Baru, Kuta Alam, Banda Aceh City, Aceh, Indonesia",
        "latitude": 5.56521,
        "longitude": 95.3377,
        "nama": "BANDAR BARU"
    },
    {
        "id": "1171010",
        "regency_id": "1171",
        "name": "MEURAXA",
        "alt_name": "Meuraxa, Banda Aceh City, Aceh, Indonesia",
        "latitude": 5.55383,
        "longitude": 95.29457,
        "nama": "MEURAXA"
    },
    {
        "id": "1171011",
        "regency_id": "1171",
        "name": "JAYA BARU",
        "alt_name": "Jaya Baru, Banda Aceh City, Aceh, Indonesia",
        "latitude": 5.53551,
        "longitude": 95.29718,
        "nama": "JAYA BARU"
    },
    {
        "id": "1171012",
        "regency_id": "1171",
        "name": "BANDA RAYA",
        "alt_name": "Banda, Central Maluku Regency, Maluku, Indonesia",
        "latitude": -4.55431,
        "longitude": 129.92989,
        "nama": "BANDA RAYA"
    },
    {
        "id": "1171020",
        "regency_id": "1171",
        "name": "BAITURRAHMAN",
        "alt_name": "Baiturrahman, Banda Aceh City, Aceh, Indonesia",
        "latitude": 5.54578,
        "longitude": 95.31809,
        "nama": "BAITURRAHMAN"
    },
    {
        "id": "1171021",
        "regency_id": "1171",
        "name": "LUENG BATA",
        "alt_name": "Lueng Bata, Banda Aceh City, Aceh, Indonesia",
        "latitude": 5.54041,
        "longitude": 95.33378,
        "nama": "LUENG BATA"
    },
    {
        "id": "1171030",
        "regency_id": "1171",
        "name": "KUTA ALAM",
        "alt_name": "Kuta Alam, Banda Aceh City, Aceh, Indonesia",
        "latitude": 5.56401,
        "longitude": 95.32594,
        "nama": "KUTA ALAM"
    },
    {
        "id": "1171031",
        "regency_id": "1171",
        "name": "KUTA RAJA",
        "alt_name": "Kutaraja, Maleber, Kuningan Regency, West Java, Indonesia",
        "latitude": -7.01796,
        "longitude": 108.56264,
        "nama": "KUTA RAJA"
    },
    {
        "id": "1171040",
        "regency_id": "1171",
        "name": "SYIAH KUALA",
        "alt_name": "Syiah Kuala, Banda Aceh City, Aceh, Indonesia",
        "latitude": 5.58475,
        "longitude": 95.34686,
        "nama": "SYIAH KUALA"
    },
    {
        "id": "1171041",
        "regency_id": "1171",
        "name": "ULEE KARENG",
        "alt_name": "Ulee Kareng, Banda Aceh City, Aceh, Indonesia",
        "latitude": 5.55073,
        "longitude": 95.34947,
        "nama": "ULEE KARENG"
    },
    {
        "id": "1172010",
        "regency_id": "1172",
        "name": "SUKAJAYA",
        "alt_name": "Sukajaya, Bogor, West Java, Indonesia",
        "latitude": -6.61912,
        "longitude": 106.46415,
        "nama": "SUKAJAYA"
    },
    {
        "id": "1172020",
        "regency_id": "1172",
        "name": "SUKAKARYA",
        "alt_name": "Sukakarya, Bekasi, West Java, Indonesia",
        "latitude": -6.13411,
        "longitude": 107.1839,
        "nama": "SUKAKARYA"
    },
    {
        "id": "1173010",
        "regency_id": "1173",
        "name": "LANGSA TIMUR",
        "alt_name": "East Langsa, Langsa City, Aceh, Indonesia",
        "latitude": 4.4466,
        "longitude": 98.01379,
        "nama": "LANGSA TIMUR"
    },
    {
        "id": "1173011",
        "regency_id": "1173",
        "name": "LANGSA LAMA",
        "alt_name": "Langsa Lama, Langsa City, Aceh, Indonesia",
        "latitude": 4.45224,
        "longitude": 97.96474,
        "nama": "LANGSA LAMA"
    },
    {
        "id": "1173020",
        "regency_id": "1173",
        "name": "LANGSA BARAT",
        "alt_name": "West Langsa, Langsa City, Aceh, Indonesia",
        "latitude": 4.5081,
        "longitude": 97.99199,
        "nama": "LANGSA BARAT"
    },
    {
        "id": "1173021",
        "regency_id": "1173",
        "name": "LANGSA BARO",
        "alt_name": "Langsa Baro, Langsa City, Aceh, Indonesia",
        "latitude": 4.48838,
        "longitude": 97.9266,
        "nama": "LANGSA BARO"
    },
    {
        "id": "1173030",
        "regency_id": "1173",
        "name": "LANGSA KOTA",
        "alt_name": "Langsa, Langsa City, Aceh, Indonesia",
        "latitude": 4.47578,
        "longitude": 97.9641,
        "nama": "LANGSA KOTA"
    },
    {
        "id": "1174010",
        "regency_id": "1174",
        "name": "BLANG MANGAT",
        "alt_name": "Blang Mangat, Lhokseumawe City, Aceh, Indonesia",
        "latitude": 5.11916,
        "longitude": 97.13055,
        "nama": "BLANG MANGAT"
    },
    {
        "id": "1174020",
        "regency_id": "1174",
        "name": "MUARA DUA",
        "alt_name": "Muara Dua, Lhokseumawe City, Aceh, Indonesia",
        "latitude": 5.16057,
        "longitude": 97.13055,
        "nama": "MUARA DUA"
    },
    {
        "id": "1174021",
        "regency_id": "1174",
        "name": "MUARA SATU",
        "alt_name": "Muara Satu, Lhokseumawe City, Aceh, Indonesia",
        "latitude": 5.19737,
        "longitude": 97.08212,
        "nama": "MUARA SATU"
    },
    {
        "id": "1174030",
        "regency_id": "1174",
        "name": "BANDA SAKTI",
        "alt_name": "Banda Sakti, Lhokseumawe City, Aceh, Indonesia",
        "latitude": 5.18116,
        "longitude": 97.14132,
        "nama": "BANDA SAKTI"
    },
    {
        "id": "1175010",
        "regency_id": "1175",
        "name": "SIMPANG KIRI",
        "alt_name": "Simpang Kiri, Subulussalam City, Aceh, Indonesia",
        "latitude": 2.68221,
        "longitude": 97.97018,
        "nama": "SIMPANG KIRI"
    },
    {
        "id": "1175020",
        "regency_id": "1175",
        "name": "PENANGGALAN",
        "alt_name": "Penanggalan, Jawa Timur, Indonesia",
        "latitude": -7.55978,
        "longitude": 112.36237,
        "nama": "PENANGGALAN"
    },
    {
        "id": "1175030",
        "regency_id": "1175",
        "name": "RUNDENG",
        "alt_name": "Rundeng, Subulussalam City, Aceh, Indonesia",
        "latitude": 2.69284,
        "longitude": 97.8504,
        "nama": "RUNDENG"
    },
    {
        "id": "1175040",
        "regency_id": "1175",
        "name": "SULTAN DAULAT",
        "alt_name": "Sultan Daulat, Subulussalam City, Aceh, Indonesia",
        "latitude": 2.79102,
        "longitude": 97.91571,
        "nama": "SULTAN DAULAT"
    },
    {
        "id": "1175050",
        "regency_id": "1175",
        "name": "LONGKIB",
        "alt_name": "Longkib, Subulussalam City, Aceh, Indonesia",
        "latitude": 2.56513,
        "longitude": 97.81776,
        "nama": "LONGKIB"
    },
    {
        "id": "1201060",
        "regency_id": "1201",
        "name": "IDANO GAWO",
        "alt_name": "Idano Gawo, Nias Regency, North Sumatra, Indonesia",
        "latitude": 1.02994,
        "longitude": 97.7634,
        "nama": "IDANO GAWO"
    },
    {
        "id": "1201061",
        "regency_id": "1201",
        "name": "BAWOLATO",
        "alt_name": "Bawolato, Nias Regency, North Sumatra, Indonesia",
        "latitude": 0.95393,
        "longitude": 97.8504,
        "nama": "BAWOLATO"
    },
    {
        "id": "1201062",
        "regency_id": "1201",
        "name": "ULUGAWO",
        "alt_name": "Ulugawo, Nias Regency, North Sumatra, Indonesia",
        "latitude": 0.98267,
        "longitude": 97.70909,
        "nama": "ULUGAWO"
    },
    {
        "id": "1201070",
        "regency_id": "1201",
        "name": "GIDO",
        "alt_name": "Gido, Nias Regency, North Sumatra, Indonesia",
        "latitude": 1.13461,
        "longitude": 97.68737,
        "nama": "GIDO"
    },
    {
        "id": "1201071",
        "regency_id": "1201",
        "name": "SOGAEADU",
        "alt_name": "Sogae'adu, Kabupaten Nias, Sumatera Utara, Indonesia",
        "latitude": 1.09642,
        "longitude": 97.75254,
        "nama": "SOGAEADU"
    },
    {
        "id": "1201081",
        "regency_id": "1201",
        "name": "MA U",
        "alt_name": "Gn. Kakumahu, Biloro, Kepala Madan, Kabupaten Buru Selatan, Maluku, Indonesia",
        "latitude": -3.23444,
        "longitude": 126.07556,
        "nama": "MA U"
    },
    {
        "id": "1201082",
        "regency_id": "1201",
        "name": "SOMOLO - MOLO",
        "alt_name": "Somolo - Molo, Nias Regency, North Sumatra, Indonesia",
        "latitude": 1.02069,
        "longitude": 97.66566,
        "nama": "SOMOLO - MOLO"
    },
    {
        "id": "1201130",
        "regency_id": "1201",
        "name": "HILIDUHO",
        "alt_name": "Hiliduho, Nias Regency, North Sumatra, Indonesia",
        "latitude": 1.24934,
        "longitude": 97.53556,
        "nama": "HILIDUHO"
    },
    {
        "id": "1201131",
        "regency_id": "1201",
        "name": "HILI SERANGKAI",
        "alt_name": "Hili Serangkai, Nias Regency, North Sumatra, Indonesia",
        "latitude": 1.17766,
        "longitude": 97.606,
        "nama": "HILI SERANGKAI"
    },
    {
        "id": "1201132",
        "regency_id": "1201",
        "name": "BOTOMUZOI",
        "alt_name": "Botomuzoi, Nias Regency, North Sumatra, Indonesia",
        "latitude": 1.17309,
        "longitude": 97.53556,
        "nama": "BOTOMUZOI"
    },
    {
        "id": "1202010",
        "regency_id": "1202",
        "name": "BATAHAN",
        "alt_name": "Batahan, Sari Kenanga, Batahan, Kabupaten Mandailing Natal, Sumatera Utara, Indonesia",
        "latitude": 0.396,
        "longitude": 99.14162,
        "nama": "BATAHAN"
    },
    {
        "id": "1202011",
        "regency_id": "1202",
        "name": "SINUNUKAN",
        "alt_name": "Sinunukan, Mandailing Natal Regency, North Sumatra, Indonesia",
        "latitude": 0.46306,
        "longitude": 99.21206,
        "nama": "SINUNUKAN"
    },
    {
        "id": "1202020",
        "regency_id": "1202",
        "name": "BATANG NATAL",
        "alt_name": "Batang Natal, Mandailing Natal Regency, North Sumatra, Indonesia",
        "latitude": 0.70565,
        "longitude": 99.41172,
        "nama": "BATANG NATAL"
    },
    {
        "id": "1202021",
        "regency_id": "1202",
        "name": "LINGGA BAYU",
        "alt_name": "Lingga Bayu, Mandailing Natal Regency, North Sumatra, Indonesia",
        "latitude": 0.61234,
        "longitude": 99.25639,
        "nama": "LINGGA BAYU"
    },
    {
        "id": "1202022",
        "regency_id": "1202",
        "name": "RANTO BAEK",
        "alt_name": "Ranto Baek, Mandailing Natal Regency, North Sumatra, Indonesia",
        "latitude": 0.53739,
        "longitude": 99.38951,
        "nama": "RANTO BAEK"
    },
    {
        "id": "1202030",
        "regency_id": "1202",
        "name": "KOTANOPAN",
        "alt_name": "Kotanopan, Mandailing Natal Regency, North Sumatra, Indonesia",
        "latitude": 0.64883,
        "longitude": 99.74556,
        "nama": "KOTANOPAN"
    },
    {
        "id": "1202031",
        "regency_id": "1202",
        "name": "ULU PUNGKUT",
        "alt_name": "Ulu Pungkut, Mandailing Natal Regency, North Sumatra, Indonesia",
        "latitude": 0.55544,
        "longitude": 99.76787,
        "nama": "ULU PUNGKUT"
    },
    {
        "id": "1202032",
        "regency_id": "1202",
        "name": "TAMBANGAN",
        "alt_name": "Tambangan, Tambang Rambang, Rambang Kuang, Kabupaten Ogan Ilir, Sumatera Selatan, Indonesia",
        "latitude": -3.54429,
        "longitude": 104.4683,
        "nama": "TAMBANGAN"
    },
    {
        "id": "1202033",
        "regency_id": "1202",
        "name": "LEMBAH SORIK MARAPI",
        "alt_name": "Lembah Sorik Marapi, Mandailing Natal Regency, North Sumatra, Indonesia",
        "latitude": 0.73336,
        "longitude": 99.60073,
        "nama": "LEMBAH SORIK MARAPI"
    },
    {
        "id": "1202034",
        "regency_id": "1202",
        "name": "PUNCAK SORIK MARAPI",
        "alt_name": "Puncak Sorik Marapi, Mandailing Natal Regency, North Sumatra, Indonesia",
        "latitude": 0.67722,
        "longitude": 99.57848,
        "nama": "PUNCAK SORIK MARAPI"
    },
    {
        "id": "1202040",
        "regency_id": "1202",
        "name": "MUARA SIPONGI",
        "alt_name": "Muara Sipongi, Mandailing Natal Regency, North Sumatra, Indonesia",
        "latitude": 0.61122,
        "longitude": 99.87947,
        "nama": "MUARA SIPONGI"
    },
    {
        "id": "1202041",
        "regency_id": "1202",
        "name": "PAKANTAN",
        "alt_name": "Pakantan, Mandailing Natal Regency, North Sumatra, Indonesia",
        "latitude": 0.52728,
        "longitude": 99.89064,
        "nama": "PAKANTAN"
    },
    {
        "id": "1202050",
        "regency_id": "1202",
        "name": "PANYABUNGAN",
        "alt_name": "Panyabungan, Mandailing Natal Regency, North Sumatra, Indonesia",
        "latitude": 0.87414,
        "longitude": 99.61187,
        "nama": "PANYABUNGAN"
    },
    {
        "id": "1202051",
        "regency_id": "1202",
        "name": "PANYABUNGAN SELATAN",
        "alt_name": "South Panyabungan, Mandailing Natal Regency, North Sumatra, Indonesia",
        "latitude": 0.75225,
        "longitude": 99.53397,
        "nama": "PANYABUNGAN SELATAN"
    },
    {
        "id": "1202052",
        "regency_id": "1202",
        "name": "PANYABUNGAN BARAT",
        "alt_name": "West Panyabungan, Mandailing Natal Regency, North Sumatra, Indonesia",
        "latitude": 0.82745,
        "longitude": 99.4895,
        "nama": "PANYABUNGAN BARAT"
    },
    {
        "id": "1202053",
        "regency_id": "1202",
        "name": "PANYABUNGAN UTARA",
        "alt_name": "North Panyabungan, Mandailing Natal Regency, North Sumatra, Indonesia",
        "latitude": 0.92139,
        "longitude": 99.53397,
        "nama": "PANYABUNGAN UTARA"
    },
    {
        "id": "1202054",
        "regency_id": "1202",
        "name": "PANYABUNGAN TIMUR",
        "alt_name": "East Panyabungan, Mandailing Natal Regency, North Sumatra, Indonesia",
        "latitude": 0.77985,
        "longitude": 99.76787,
        "nama": "PANYABUNGAN TIMUR"
    },
    {
        "id": "1202055",
        "regency_id": "1202",
        "name": "HUTA BARGOT",
        "alt_name": "Huta Bargot, Mandailing Natal Regency, North Sumatra, Indonesia",
        "latitude": 0.88398,
        "longitude": 99.44504,
        "nama": "HUTA BARGOT"
    },
    {
        "id": "1202060",
        "regency_id": "1202",
        "name": "NATAL",
        "alt_name": "Natal, Ps. V Natal, Natal, Kabupaten Mandailing Natal, Sumatera Utara, Indonesia",
        "latitude": 0.55598,
        "longitude": 99.11739,
        "nama": "NATAL"
    },
    {
        "id": "1202070",
        "regency_id": "1202",
        "name": "MUARA BATANG GADIS",
        "alt_name": "Muara Batang Gadis, Mandailing Natal Regency, North Sumatra, Indonesia",
        "latitude": 0.9697,
        "longitude": 99.10135,
        "nama": "MUARA BATANG GADIS"
    },
    {
        "id": "1202080",
        "regency_id": "1202",
        "name": "SIABU",
        "alt_name": "Siabu, Kabupaten Mandailing Natal, Sumatera Utara, Indonesia",
        "latitude": 1.01608,
        "longitude": 99.49105,
        "nama": "SIABU"
    },
    {
        "id": "1202081",
        "regency_id": "1202",
        "name": "BUKIT MALINTANG",
        "alt_name": "Bukit Malintang, Mandailing Natal Regency, North Sumatra, Indonesia",
        "latitude": 0.97787,
        "longitude": 99.55622,
        "nama": "BUKIT MALINTANG"
    },
    {
        "id": "1202082",
        "regency_id": "1202",
        "name": "NAGA JUANG",
        "alt_name": "Naga Juang, Mandailing Natal Regency, North Sumatra, Indonesia",
        "latitude": 0.94048,
        "longitude": 99.44504,
        "nama": "NAGA JUANG"
    },
    {
        "id": "1203010",
        "regency_id": "1203",
        "name": "BATANG ANGKOLA",
        "alt_name": "Batang Angkola, South Tapanuli Regency, North Sumatra, Indonesia",
        "latitude": 1.21533,
        "longitude": 99.25639,
        "nama": "BATANG ANGKOLA"
    },
    {
        "id": "1203011",
        "regency_id": "1203",
        "name": "SAYUR MATINGGI",
        "alt_name": "Sayur Matinggi, South Tapanuli Regency, North Sumatra, Indonesia",
        "latitude": 1.13932,
        "longitude": 99.30074,
        "nama": "SAYUR MATINGGI"
    },
    {
        "id": "1203012",
        "regency_id": "1203",
        "name": "TANO TOMBANGAN ANGKOLA",
        "alt_name": "TANO TOMBANGAN ANGKOLA",
        "latitude": null,
        "longitude": null,
        "nama": "TANO TOMBANGAN ANGKOLA"
    },
    {
        "id": "1203070",
        "regency_id": "1203",
        "name": "ANGKOLA TIMUR",
        "alt_name": "East Angkola, South Tapanuli Regency, North Sumatra, Indonesia",
        "latitude": 1.48158,
        "longitude": 99.34511,
        "nama": "ANGKOLA TIMUR"
    },
    {
        "id": "1203080",
        "regency_id": "1203",
        "name": "ANGKOLA SELATAN",
        "alt_name": "South Angkola, South Tapanuli Regency, North Sumatra, Indonesia",
        "latitude": 1.32973,
        "longitude": 99.16776,
        "nama": "ANGKOLA SELATAN"
    },
    {
        "id": "1203090",
        "regency_id": "1203",
        "name": "ANGKOLA  BARAT",
        "alt_name": "West Angkola, South Tapanuli Regency, North Sumatra, Indonesia",
        "latitude": 1.40613,
        "longitude": 99.12348,
        "nama": "ANGKOLA  BARAT"
    },
    {
        "id": "1203091",
        "regency_id": "1203",
        "name": "ANGKOLA SANGKUNUR",
        "alt_name": "Angkola Sangkunur, South Tapanuli Regency, North Sumatra, Indonesia",
        "latitude": 1.36833,
        "longitude": 99.035,
        "nama": "ANGKOLA SANGKUNUR"
    },
    {
        "id": "1203100",
        "regency_id": "1203",
        "name": "BATANG TORU",
        "alt_name": "Batang Toru, South Tapanuli Regency, North Sumatra, Indonesia",
        "latitude": 1.55923,
        "longitude": 99.07923,
        "nama": "BATANG TORU"
    },
    {
        "id": "1203101",
        "regency_id": "1203",
        "name": "MARANCAR",
        "alt_name": "Marancar, Marancar Julu, Marancar, Kabupaten Tapanuli Selatan, Sumatera Utara, Indonesia",
        "latitude": 1.51667,
        "longitude": 99.16667,
        "nama": "MARANCAR"
    },
    {
        "id": "1203102",
        "regency_id": "1203",
        "name": "MUARA BATANG TORU",
        "alt_name": "Muara Batang Toru, South Tapanuli Regency, North Sumatra, Indonesia",
        "latitude": 1.36883,
        "longitude": 98.90246,
        "nama": "MUARA BATANG TORU"
    },
    {
        "id": "1203110",
        "regency_id": "1203",
        "name": "SIPIROK",
        "alt_name": "Sipirok, Silangge, Sipirok, Kabupaten Tapanuli Selatan, Sumatera Utara, Indonesia",
        "latitude": 1.61271,
        "longitude": 99.26152,
        "nama": "SIPIROK"
    },
    {
        "id": "1203120",
        "regency_id": "1203",
        "name": "ARSE",
        "alt_name": "Arse, South Tapanuli Regency, North Sumatra, Indonesia",
        "latitude": 1.71141,
        "longitude": 99.34511,
        "nama": "ARSE"
    },
    {
        "id": "1203160",
        "regency_id": "1203",
        "name": "SAIPAR DOLOK HOLE",
        "alt_name": "Saipar Dolok Hole, South Tapanuli Regency, North Sumatra, Indonesia",
        "latitude": 1.84569,
        "longitude": 99.41172,
        "nama": "SAIPAR DOLOK HOLE"
    },
    {
        "id": "1203161",
        "regency_id": "1203",
        "name": "AEK BILAH",
        "alt_name": "Aek Bilah, South Tapanuli Regency, North Sumatra, Indonesia",
        "latitude": 1.98009,
        "longitude": 99.52285,
        "nama": "AEK BILAH"
    },
    {
        "id": "1204010",
        "regency_id": "1204",
        "name": "PINANG SORI",
        "alt_name": "Pinang sori, Central Tapanuli Regency, North Sumatra, Indonesia",
        "latitude": 1.5314,
        "longitude": 98.86936,
        "nama": "PINANG SORI"
    },
    {
        "id": "1204011",
        "regency_id": "1204",
        "name": "BADIRI",
        "alt_name": "Badiri, Central Tapanuli Regency, North Sumatra, Indonesia",
        "latitude": 1.59851,
        "longitude": 98.85833,
        "nama": "BADIRI"
    },
    {
        "id": "1204020",
        "regency_id": "1204",
        "name": "SIBABANGUN",
        "alt_name": "Sibabangun, Central Tapanuli Regency, North Sumatra, Indonesia",
        "latitude": 1.5883,
        "longitude": 99.00184,
        "nama": "SIBABANGUN"
    },
    {
        "id": "1204021",
        "regency_id": "1204",
        "name": "LUMUT",
        "alt_name": "Lumut, Pengkadan Sungai Rupa, Dedai, Kabupaten Sintang, Kalimantan Barat, Indonesia",
        "latitude": -0.06627,
        "longitude": 111.7648,
        "nama": "LUMUT"
    },
    {
        "id": "1204022",
        "regency_id": "1204",
        "name": "SUKABANGUN",
        "alt_name": "Sukabangun, Central Tapanuli Regency, North Sumatra, Indonesia",
        "latitude": 1.45941,
        "longitude": 98.93005,
        "nama": "SUKABANGUN"
    },
    {
        "id": "1204030",
        "regency_id": "1204",
        "name": "PANDAN",
        "alt_name": "Pandan, Penahan, Arut Utara, Kabupaten Kotawaringin Barat, Kalimantan Tengah, Indonesia",
        "latitude": -1.86667,
        "longitude": 111.86667,
        "nama": "PANDAN"
    },
    {
        "id": "1204031",
        "regency_id": "1204",
        "name": "TUKKA",
        "alt_name": "Tukka, Central Tapanuli Regency, North Sumatra, Indonesia",
        "latitude": 1.71333,
        "longitude": 98.94661,
        "nama": "TUKKA"
    },
    {
        "id": "1204032",
        "regency_id": "1204",
        "name": "SARUDIK",
        "alt_name": "Sarudik, Central Tapanuli Regency, North Sumatra, Indonesia",
        "latitude": 1.74254,
        "longitude": 98.86936,
        "nama": "SARUDIK"
    },
    {
        "id": "1204040",
        "regency_id": "1204",
        "name": "TAPIAN NAULI",
        "alt_name": "Tapian Nauli, Central Tapanuli Regency, North Sumatra, Indonesia",
        "latitude": 1.79116,
        "longitude": 98.77015,
        "nama": "TAPIAN NAULI"
    },
    {
        "id": "1204041",
        "regency_id": "1204",
        "name": "SITAHUIS",
        "alt_name": "Sitahuis, Central Tapanuli Regency, North Sumatra, Indonesia",
        "latitude": 1.80052,
        "longitude": 98.82525,
        "nama": "SITAHUIS"
    },
    {
        "id": "1204050",
        "regency_id": "1204",
        "name": "KOLANG",
        "alt_name": "Kolang, Central Tapanuli Regency, North Sumatra, Indonesia",
        "latitude": 1.86852,
        "longitude": 98.72609,
        "nama": "KOLANG"
    },
    {
        "id": "1204060",
        "regency_id": "1204",
        "name": "SORKAM",
        "alt_name": "Sorkam, Sorkam Kanan, Sorkam Bar., Kabupaten Tapanuli Tengah, Sumatera Utara, Indonesia",
        "latitude": 1.90054,
        "longitude": 98.58969,
        "nama": "SORKAM"
    },
    {
        "id": "1204061",
        "regency_id": "1204",
        "name": "SORKAM BARAT",
        "alt_name": "West Sorkam, Central Tapanuli Regency, North Sumatra, Indonesia",
        "latitude": 1.91765,
        "longitude": 98.56111,
        "nama": "SORKAM BARAT"
    },
    {
        "id": "1204062",
        "regency_id": "1204",
        "name": "PASARIBU TOBING",
        "alt_name": "Pasaribu Tobing, Central Tapanuli Regency, North Sumatra, Indonesia",
        "latitude": 1.98498,
        "longitude": 98.63806,
        "nama": "PASARIBU TOBING"
    },
    {
        "id": "1204070",
        "regency_id": "1204",
        "name": "BARUS",
        "alt_name": "Barus, Padang Masiang, Barus, Kabupaten Tapanuli Tengah, Sumatera Utara, Indonesia",
        "latitude": 2.01244,
        "longitude": 98.39941,
        "nama": "BARUS"
    },
    {
        "id": "1204071",
        "regency_id": "1204",
        "name": "SOSOR GADONG",
        "alt_name": "Sosor Gadong, Central Tapanuli Regency, North Sumatra, Indonesia",
        "latitude": 2.02442,
        "longitude": 98.5062,
        "nama": "SOSOR GADONG"
    },
    {
        "id": "1204072",
        "regency_id": "1204",
        "name": "ANDAM DEWI",
        "alt_name": "Andam Dewi, Central Tapanuli Regency, North Sumatra, Indonesia",
        "latitude": 2.07356,
        "longitude": 98.38553,
        "nama": "ANDAM DEWI"
    },
    {
        "id": "1204073",
        "regency_id": "1204",
        "name": "BARUS UTARA",
        "alt_name": "North Barus, Central Tapanuli Regency, North Sumatra, Indonesia",
        "latitude": 2.05874,
        "longitude": 98.43487,
        "nama": "BARUS UTARA"
    },
    {
        "id": "1204080",
        "regency_id": "1204",
        "name": "MANDUAMAS",
        "alt_name": "Manduamas, Central Tapanuli Regency, North Sumatra, Indonesia",
        "latitude": 2.18124,
        "longitude": 98.24317,
        "nama": "MANDUAMAS"
    },
    {
        "id": "1204081",
        "regency_id": "1204",
        "name": "SIRANDORUNG",
        "alt_name": "Sirandorung, Central Tapanuli Regency, North Sumatra, Indonesia",
        "latitude": 2.10298,
        "longitude": 98.33075,
        "nama": "SIRANDORUNG"
    },
    {
        "id": "1205030",
        "regency_id": "1205",
        "name": "PARMONANGAN",
        "alt_name": "Parmonangan, Sibuntuon, Uluan, Kabupaten Toba Samosir, Sumatera Utara, Indonesia",
        "latitude": 2.40756,
        "longitude": 99.0816,
        "nama": "PARMONANGAN"
    },
    {
        "id": "1205040",
        "regency_id": "1205",
        "name": "ADIAN KOTING",
        "alt_name": "Dolok Koting, Partungko Naginjang, Harian, Kabupaten Samosir, Sumatera Utara, Indonesia",
        "latitude": 2.51139,
        "longitude": 98.58639,
        "nama": "ADIAN KOTING"
    },
    {
        "id": "1205050",
        "regency_id": "1205",
        "name": "SIPOHOLON",
        "alt_name": "Sipoholon, North Tapanuli Regency, North Sumatra, Indonesia",
        "latitude": 2.06102,
        "longitude": 98.90246,
        "nama": "SIPOHOLON"
    },
    {
        "id": "1205060",
        "regency_id": "1205",
        "name": "TARUTUNG",
        "alt_name": "Tarutung, North Tapanuli Regency, North Sumatra, Indonesia",
        "latitude": 2.01217,
        "longitude": 98.97975,
        "nama": "TARUTUNG"
    },
    {
        "id": "1205061",
        "regency_id": "1205",
        "name": "SIATAS BARITA",
        "alt_name": "Siatas Barita, North Tapanuli Regency, North Sumatra, Indonesia",
        "latitude": 2.0118,
        "longitude": 99.04605,
        "nama": "SIATAS BARITA"
    },
    {
        "id": "1205070",
        "regency_id": "1205",
        "name": "PAHAE JULU",
        "alt_name": "Pahae Julu, North Tapanuli Regency, North Sumatra, Indonesia",
        "latitude": 1.86672,
        "longitude": 99.07923,
        "nama": "PAHAE JULU"
    },
    {
        "id": "1205080",
        "regency_id": "1205",
        "name": "PAHAE JAE",
        "alt_name": "Pahae Jae, North Tapanuli Regency, North Sumatra, Indonesia",
        "latitude": 1.82771,
        "longitude": 99.16776,
        "nama": "PAHAE JAE"
    },
    {
        "id": "1205081",
        "regency_id": "1205",
        "name": "PURBATUA",
        "alt_name": "Purbatua, North Tapanuli Regency, North Sumatra, Indonesia",
        "latitude": 1.75115,
        "longitude": 99.07923,
        "nama": "PURBATUA"
    },
    {
        "id": "1205082",
        "regency_id": "1205",
        "name": "SIMANGUMBAN",
        "alt_name": "Simangumban, North Tapanuli Regency, North Sumatra, Indonesia",
        "latitude": 1.76006,
        "longitude": 99.22314,
        "nama": "SIMANGUMBAN"
    },
    {
        "id": "1205090",
        "regency_id": "1205",
        "name": "PANGARIBUAN",
        "alt_name": "Pangaribuan, Harianja, Pangaribuan, Kabupaten Tapanuli Utara, Sumatera Utara, Indonesia",
        "latitude": 2.00576,
        "longitude": 99.16256,
        "nama": "PANGARIBUAN"
    },
    {
        "id": "1205100",
        "regency_id": "1205",
        "name": "GAROGA",
        "alt_name": "Garoga, North Tapanuli Regency, North Sumatra, Indonesia",
        "latitude": 2.00056,
        "longitude": 99.32292,
        "nama": "GAROGA"
    },
    {
        "id": "1205110",
        "regency_id": "1205",
        "name": "SIPAHUTAR",
        "alt_name": "Sipahutar, Sipahutar III, Sipahutar, Kabupaten Tapanuli Utara, Sumatera Utara, Indonesia",
        "latitude": 2.1038,
        "longitude": 99.08519,
        "nama": "SIPAHUTAR"
    },
    {
        "id": "1205120",
        "regency_id": "1205",
        "name": "SIBORONG-BORONG",
        "alt_name": "Siborong-Borong, North Tapanuli Regency, North Sumatra, Indonesia",
        "latitude": 2.21554,
        "longitude": 99.035,
        "nama": "SIBORONG-BORONG"
    },
    {
        "id": "1205130",
        "regency_id": "1205",
        "name": "PAGARAN",
        "alt_name": "Pagaran, North Tapanuli Regency, North Sumatra, Indonesia",
        "latitude": 2.17747,
        "longitude": 98.90246,
        "nama": "PAGARAN"
    },
    {
        "id": "1205180",
        "regency_id": "1205",
        "name": "MUARA",
        "alt_name": "Muara, Lalan, Lubuk Tarok, Kabupaten Sijunjung, Sumatera Barat, Indonesia",
        "latitude": -0.67032,
        "longitude": 100.9626,
        "nama": "MUARA"
    },
    {
        "id": "1206030",
        "regency_id": "1206",
        "name": "BALIGE",
        "alt_name": "Balige, Sibola Hotangsas, Balige, Kabupaten Toba Samosir, Sumatera Utara, Indonesia",
        "latitude": 2.33371,
        "longitude": 99.08325,
        "nama": "BALIGE"
    },
    {
        "id": "1206031",
        "regency_id": "1206",
        "name": "TAMPAHAN",
        "alt_name": "Tampahan, Toba Samosir Regency, North Sumatra, Indonesia",
        "latitude": 2.3081,
        "longitude": 99.01842,
        "nama": "TAMPAHAN"
    },
    {
        "id": "1206040",
        "regency_id": "1206",
        "name": "LAGUBOTI",
        "alt_name": "Lagu Boti, Toba Samosir Regency, North Sumatra, Indonesia",
        "latitude": 2.33149,
        "longitude": 99.16776,
        "nama": "LAGUBOTI"
    },
    {
        "id": "1206050",
        "regency_id": "1206",
        "name": "HABINSARAN",
        "alt_name": "Habinsaran, Toba Samosir Regency, North Sumatra, Indonesia",
        "latitude": 2.36928,
        "longitude": 99.34511,
        "nama": "HABINSARAN"
    },
    {
        "id": "1206051",
        "regency_id": "1206",
        "name": "BORBOR",
        "alt_name": "Borbor, Toba Samosir Regency, North Sumatra, Indonesia",
        "latitude": 2.21389,
        "longitude": 99.30074,
        "nama": "BORBOR"
    },
    {
        "id": "1206052",
        "regency_id": "1206",
        "name": "NASSAU",
        "alt_name": "Nassau, Batu Manumpak, Nassau, Kabupaten Toba Samosir, Sumatera Utara, Indonesia",
        "latitude": 2.26667,
        "longitude": 99.41667,
        "nama": "NASSAU"
    },
    {
        "id": "1206060",
        "regency_id": "1206",
        "name": "SILAEN",
        "alt_name": "Silaen, Toba Samosir Regency, North Sumatra, Indonesia",
        "latitude": 2.44763,
        "longitude": 99.30074,
        "nama": "SILAEN"
    },
    {
        "id": "1206061",
        "regency_id": "1206",
        "name": "SIGUMPAR",
        "alt_name": "Sigumpar, Toba Samosir Regency, North Sumatra, Indonesia",
        "latitude": 2.39967,
        "longitude": 99.17883,
        "nama": "SIGUMPAR"
    },
    {
        "id": "1206070",
        "regency_id": "1206",
        "name": "PORSEA",
        "alt_name": "Porsea, Patane I, Porsea, Kabupaten Toba Samosir, Sumatera Utara, Indonesia",
        "latitude": 2.46174,
        "longitude": 99.13602,
        "nama": "PORSEA"
    },